     2.11           OBSERVATION DATA    GPS(GPS)            RINEX VERSION / TYPE
cnvtToRINEX 2.11.0  Stan Thomas         26-Mar-11 14:08 UTC PGM / RUN BY / DATE 
----------------------------------------------------------- COMMENT             
MD1                                                         MARKER NAME         
MD1                                                         MARKER NUMBER       
Stan Thomas         University of Utah                      OBSERVER / AGENCY   
4644124574          NetRS               1.12                REC # / TYPE / VERS 
12532422            TRM41249.00                             ANT # / TYPE        
 -1926374.9575 -4539530.6392  4033985.0910                  APPROX POSITION XYZ 
        1.4250        0.0000        0.0000                  ANTENNA: DELTA H/E/N
     1     1     0                                          WAVELENGTH FACT L1/2
     7    C1    D1    L1    L2    P2    S1    S2            # / TYPES OF OBSERV 
  2011     3    24     2    16    0.0000000     GPS         TIME OF FIRST OBS   
  2011     3    24    14    54   15.0000000     GPS         TIME OF LAST OBS    
     0                                                      RCV CLOCK OFFS APPL 
    15                                                      LEAP SECONDS        
    29                                                      # OF SATELLITES     
   G02  1672  1672  1663  1649  1649  1672  1649            PRN / # OF OBS      
   G03   380   380   377   370   370   380   370            PRN / # OF OBS      
   G04  1509  1509  1507  1394  1394  1509  1394            PRN / # OF OBS      
   G05  1872  1872  1837  1667  1667  1872  1667            PRN / # OF OBS      
   G06   284   284   273   243   243   284   243            PRN / # OF OBS      
   G07  1142  1142  1137  1125  1125  1142  1125            PRN / # OF OBS      
   G08  1410  1410  1409  1395  1395  1410  1395            PRN / # OF OBS      
   G09  1132  1132  1127  1071  1071  1132  1071            PRN / # OF OBS      
   G10  1593  1593  1572  1500  1500  1593  1500            PRN / # OF OBS      
   G11  1014  1014  1003   926   926  1014   926            PRN / # OF OBS      
   G12  1444  1444  1433  1378  1378  1444  1378            PRN / # OF OBS      
   G13   696   696   692   648   648   696   648            PRN / # OF OBS      
   G15  1326  1326  1319  1256  1256  1326  1256            PRN / # OF OBS      
   G16   403   403   390   242   242   403   242            PRN / # OF OBS      
   G17  1667  1667  1665  1642  1642  1667  1642            PRN / # OF OBS      
   G18   441   441   441   438   438   441   438            PRN / # OF OBS      
   G19   694   694   692   681   681   694   681            PRN / # OF OBS      
   G20   375   375   370   264   264   375   264            PRN / # OF OBS      
   G21   826   826   826   824   824   826   824            PRN / # OF OBS      
   G22   125   125   122   121   121   125   121            PRN / # OF OBS      
   G23   372   372   370   370   370   372   370            PRN / # OF OBS      
   G24   828   828   822   791   791   828   791            PRN / # OF OBS      
   G25  1288  1288  1275  1195  1195  1288  1195            PRN / # OF OBS      
   G26  1703  1703  1694  1617  1617  1703  1617            PRN / # OF OBS      
   G27  1248  1248  1241  1196  1196  1248  1196            PRN / # OF OBS      
   G28  1769  1769  1761  1719  1719  1769  1719            PRN / # OF OBS      
   G29  1207  1207  1200  1113  1113  1207  1113            PRN / # OF OBS      
   G30   416   416   411   361   361   416   361            PRN / # OF OBS      
   G31    69    69    48     0     0    69     0            PRN / # OF OBS      
CARRIER PHASE MEASUREMENTS: PHASE SHIFTS REMOVED            COMMENT             
                                                            END OF HEADER       
 11  3 24  2 16  0.0000000  0 11G03G06G07G08G10G13G16G19G20G23G28   
  21725326.25816       -64.46916   -281559.05516   -197094.41258  21725317.62158
        46.000          34.000  
  23076428.78116      -843.92216     93301.68616     85571.64757  23076420.90657
        43.500          29.750  
  21070550.46917      1308.00017   -870584.06117   -642770.34958  21070540.54358
        51.000          41.000  
  23093818.68016      2351.10916  -1329397.58516  -1000943.07857  23093809.98457
        42.750          30.000  
  22535684.85216      -610.85916     -8668.68616      1984.35557  22535676.68457
        45.500          32.250  
  20041382.25017      -469.29717    -70665.14517    -45338.47459  20041372.14859
        50.250          42.000  
  24043687.35215     -3461.78115   1352893.07515   1041138.45656  24043679.12556
        42.250          22.500  
  22572519.52316      2122.29716  -1273758.41116   -948423.69157  22572508.48457
        46.250          32.500  
  25679230.13311     -3346.93811    856297.78711                
        33.250  
  21417198.07817     -2593.50017    922295.73617    713446.29458  21417186.92258
        50.250          36.750  
  24458195.07815      3204.60915    196410.72115  -1221593.74956  24458185.97356
        40.500          20.250  
 11  3 24  2 16 15.0000000  0 11G03G06G07G08G10G13G16G19G20G23G28   
  21725526.258 6       -70.022 6   -280508.731 6   -196275.96748  21725517.44548
        47.250          34.250  
  23078850.500 5      -848.614 5    106030.901 5     95490.52147  23078842.68447
        42.250          29.000  
  21066822.547 7      1306.030 7   -890174.517 7   -658035.62948  21066812.97348
        50.000          41.250  
  23087110.063 5      2350.155 5  -1364649.918 5  -1028412.40047  23087102.18847
        41.750          30.500  
  22537442.625 6      -615.738 6       567.391 6      9181.29047  22537434.28147
        45.250          32.500  
  20042735.039 7      -473.854 7    -63557.332 7    -39799.91349  20042725.34849
        49.750          42.250  
  24053572.875 5     -3462.817 5   1404835.323 5   1081612.96746  24053563.77046
        42.000          22.250  
  22566472.531 6      2118.609 6  -1305537.544 6   -973186.62648  22566460.61348
        46.500          33.750  
  25688782.453 3     -3345.622 3    906482.124 3                
        36.250  
  21424611.180 7     -2597.105 7    961252.306 7    743802.04748  21424600.31648
        49.500          37.000  
  24449051.930 5      3203.128 5    148363.800 5  -1259032.83146  24449043.23446
        40.500          20.000  
 11  3 24  2 16 30.0000000  0 11G03G06G07G08G10G13G16G19G20G23G28   
  21725755.938 6       -80.589 6   -279299.894 6   -195334.01248  21725747.30148
        46.500          34.000  
  23081298.688 6      -857.622 6    118895.235 6    105514.68947  23081291.28147
        42.500          28.500  
  21063103.898 7      1302.684 7   -909714.771 7   -673261.79048  21063094.61748
        49.000          41.000  
  23080406.117 5      2348.773 5  -1399881.509 5  -1055865.57147  23080397.65647
        41.750          30.500  
  22539226.102 6      -624.969 6      9941.926 6     16486.09947  22539218.22747
        44.750          32.500  
  20044112.539 7      -482.497 7    -56319.880 7    -34160.34849  20044102.49649
        50.500          42.000  
  24063461.914 5     -3464.365 5   1456800.794 5   1122105.52146  24063452.28146
        41.500          22.000  
  22560444.969 6      2111.677 6  -1337212.704 6   -997868.54147  22560433.16847
        47.000          32.750  
  25698321.414 3     -3342.636 3    956621.665 3                
        36.750  
  21432042.563 7     -2603.688 7   1000307.625 7    774234.75148  21432032.10948
        49.750          37.000  
  24439914.977 5      3200.462 5    100356.868 5  -1296440.81646  24439908.21546
        39.250          20.750  
 11  3 24  2 16 45.0000000  0 11G03G06G07G08G10G13G16G19G20G23G28   
  21726016.688 6       -91.221 6   -277931.573 6   -194267.77648  21726007.75848
        46.750          34.250  
  23083772.938 6      -866.704 6    131895.789 6    115644.99447  23083764.77047
        43.250          29.500  
  21059395.203 7      1299.268 7   -929203.797 7   -688448.04048  21059385.80548
        49.000          41.000  
  23073705.813 6      2347.321 6  -1435091.319 6  -1083301.78147  23073697.35247
        42.500          29.750  
  22541036.945 6      -634.246 6     19455.614 6     23899.36147  22541028.66047
        44.500          32.250  
  20045514.273 7      -491.206 7    -48951.791 7    -28418.97549  20045504.75849
        50.500          42.000  
  24073355.398 5     -3465.941 5   1508789.912 5   1162616.51446  24073345.47346
        42.000          21.750  
  22554437.078 6      2104.658 6  -1368782.579 6  -1022468.42147  22554425.92247
        47.250          33.250  
  25707851.000 4     -3339.714 4   1006717.378 4                
        37.500  
  21439493.500 7     -2610.329 7   1039462.562 7    804745.08848  21439482.81348
        48.750          36.750  
  24430788.211 5      3197.713 5     52391.180 5  -1333816.63146  24430780.04346
        40.000          20.500  
 11  3 24  2 17  0.0000000  0 11G03G06G07G08G10G13G16G19G20G23G28   
  21726306.617 6      -101.788 6   -276404.746 6   -193078.03048  21726298.39148
        46.500          34.500  
  23086272.594 6      -875.723 6    145031.641 6    125880.73347  23086264.30947
        43.500          29.250  
  21055696.391 7      1295.909 7   -948642.432 7   -703595.02348  21055686.81648
        49.750          40.500  
  23067009.656 6      2345.933 6  -1470280.314 6  -1110721.75547  23067001.19547
        43.000          30.500  
  22542873.500 6      -643.462 6     29107.541 6     31420.33547  22542865.09847
        45.000          32.500  
  20046941.336 7      -499.896 7    -41453.349 7    -22576.03749  20046931.17649
        50.750          42.250  
  24083252.031 5     -3467.457 5   1560801.771 5   1203145.21146  24083242.75046
        41.500          22.500  
  22548449.281 6      2097.663 6  -1400247.530 6  -1046986.54247  22548438.30147
        47.000          33.250  
  25717369.852 1     -3336.712 1   1056768.053 1                
        29.250  
  21446963.375 7     -2616.900 7   1078716.058 7    835332.22748  21446952.74648
        49.000          36.750  
  24421668.773 5      3195.019 5      4465.895 5  -1371160.94646  24421661.19146
        40.500          21.000  
 11  3 24  2 17 15.0000000  0 10G03G06G07G08G10G13G16G19G23G28      
  21726627.805 7      -112.435 7   -274718.225 7   -191763.85248  21726619.10948
        48.500          34.000  
  23088798.016 6      -884.784 6    158303.407 6    136222.38247  23088790.02347
        43.500          29.000  
  21052007.453 7      1292.482 7   -968029.663 7   -718701.96848  21051997.58648
        49.500          41.000  
  23060317.141 6      2344.484 6  -1505447.570 6  -1138124.79247  23060309.20747
        43.000          30.000  
  22544736.609 6      -652.721 6     38898.351 6     39049.53147  22544728.32447
        44.250          32.250  
  20048393.016 7      -508.622 7    -33824.016 7    -16631.10149  20048383.03149
        50.000          42.000  
  24093154.195 5     -3469.002 5   1612836.801 5   1243691.99646  24093144.32846
        40.750          21.000  
  22542482.102 6      2090.597 6  -1431606.481 6  -1071422.05847  22542471.35547
        46.750          33.250  
  21454451.930 7     -2623.525 7   1118068.929 7    865996.79848  21454441.06648
        49.250          36.750  
  24412556.453 5      3192.265 5    -43418.080 5  -1408473.12446  24412548.52046
        40.500          21.500  
 11  3 24  2 17 30.0000000  0 10G03G06G07G08G10G13G16G19G23G28      
  21726978.336 6      -122.968 6   -272873.706 6   -190326.55148  21726970.28548
        47.250          34.250  
  23091349.188 6      -893.738 6    171709.478 6    146668.67747  23091341.02047
        43.500          29.000  
  21048327.266 7      1289.176 7   -987367.308 7   -733770.25148  21048318.04348
        49.750          41.000  
  23053629.313 6      2343.132 6  -1540594.556 6  -1165512.03847  23053621.32047
        43.000          30.250  
  22546625.719 6      -661.852 6     48826.127 6     46785.44747  22546617.66847
        44.000          31.250  
  20049869.352 7      -517.240 7    -26065.414 7    -10585.44149  20049859.30949
        50.750          42.000  
  24103059.086 5     -3470.434 5   1664893.313 5   1284255.50746  24103049.86346
        39.750          20.000  
  22536534.273 6      2083.610 6  -1462860.626 6  -1095775.90847  22536523.29347
        46.500          33.500  
  21461959.492 7     -2630.025 7   1157519.297 7    896737.33248  21461947.98448
        49.250          37.500  
  24403453.797 5      3189.603 5    -91262.125 5  -1445754.10546  24403445.04346
        41.250          21.500  
 11  3 24  2 17 45.0000000  0 11G03G06G07G08G10G13G16G19G20G23G28   
  21727359.594 7      -133.529 7   -270870.777 7   -188765.82048  21727351.19148
        48.000          33.750  
  23093926.109 6      -902.710 6    185250.121 6    157219.82847  23093917.94147
        43.500          30.000  
  21044656.977 7      1285.837 7  -1006654.862 7   -748799.51348  21044647.28548
        49.000          40.750  
  23046944.828 6      2341.768 6  -1575721.083 6  -1192883.34147  23046936.54347
        44.000          29.500  
  22548541.281 6      -670.999 6     58891.118 6     54628.29047  22548532.87947
        44.000          31.250  
  20051370.609 7      -525.884 7    -18177.153 7     -4438.74749  20051360.68449
        50.500          42.000  
  24112969.461 5     -3471.861 5   1716971.232 5   1324835.69046  24112960.18046
        39.750          20.000  
  22530606.641 6      2076.583 6  -1494009.364 6  -1120047.63248  22530595.77748
        46.500          34.250  
  25745938.57811     -3325.89111   -559149.66511                
        31.500  
  21469485.391 7     -2636.538 7   1197067.374 7    927554.00848  21469473.94148
        48.500          37.250  
  24394356.234 5      3186.900 5   -139065.625 5  -1483003.56946  24394347.36346
        41.000          21.500  
 11  3 24  2 18  0.0000000  0 11G03G06G07G08G10G13G16G19G20G23G28   
  21727771.508 7      -144.132 7   -268708.797 7   -187081.14447  21727762.75447
        48.750          33.250  
  23096528.648 6      -911.721 6    198925.939 6    167876.31947  23096520.36347
        44.000          28.500  
  21040996.563 7      1282.425 7  -1025891.236 7   -763788.88948  21040986.52048
        49.500          41.000  
  23040264.180 6      2340.350 6  -1610826.337 6  -1220238.07047  23040256.12947
        43.250          30.000  
  22550482.648 6      -680.197 6     69094.070 6     62578.62847  22550474.24647
        45.000          31.750  
  20052896.656 7      -534.580 7    -10158.456 7      1809.59749  20052886.20349
        50.500          41.500  
  24122883.047 4     -3473.315 4   1769070.960 4   1365432.88846  24122873.23846
        38.500          19.500  
  22524698.992 6      2069.491 6  -1525051.735 6  -1144236.47047  22524688.89147
        45.750          33.500  
  25755427.031 1     -3324.507 1   -509282.061 1                
        30.500  
  21477029.742 7     -2643.089 7   1236713.715 7    958447.24948  21477018.46948
        49.000          36.750  
  24385267.664 5      3184.135 5   -186827.657 5  -1520220.67046  24385258.85246
        42.250          21.750  
 11  3 24  2 18 15.0000000  0 10G03G06G07G08G10G13G16G19G23G28      
  21728212.984 7      -154.751 7   -266387.530 7   -185272.36447  21728204.58247
        48.000          33.000  
  23099157.094 6      -920.729 6    212736.872 6    178638.08147  23099147.75447
        43.500          28.750  
  21037345.570 7      1279.022 7  -1045076.569 7   -778738.49348  21037335.87948
        49.250          40.750  
  23033588.539 6      2338.927 6  -1645910.237 6  -1247576.15647  23033580.31347
        44.250          31.000  
  22552450.563 6      -689.383 6     79434.817 6     70636.35147  22552441.69147
        43.500          31.000  
  20054447.313 7      -543.293 7     -2009.058 7      8159.78349  20054436.97749
        51.000          41.750  
  24132800.211 4     -3474.762 4   1821192.396 4   1406046.97246  24132791.51646
        37.500          19.750  
  22518811.961 6      2062.356 6  -1555987.069 6  -1168341.89947  22518801.97747
        45.250          33.500  
  21484592.836 7     -2649.627 7   1276458.113 7    989416.91148  21484581.38748
        48.250          37.000  
  24376185.555 5      3181.354 5   -234547.960 5  -1557405.24546  24376177.85546
        41.000          21.250  
 11  3 24  2 18 30.0000000  0 10G03G06G07G08G10G13G16G19G23G28      
  21728685.227 6      -165.342 6   -263907.402 6   -183339.77647  21728676.41447
        47.000          33.500  
  23101810.070 6      -929.706 6    226682.459 6    189504.78847  23101802.37147
        43.750          28.750  
  21033704.313 7      1275.668 7  -1064211.587 7   -793648.88548  21033694.62148
        48.250          40.750  
  23026916.195 6      2337.541 6  -1680973.354 6  -1274898.03547  23026908.02747
        43.000          31.250  
  22554444.641 6      -698.528 6     89912.741 6     78800.94947  22554435.77047
        44.000          31.250  
  20056022.953 7      -551.975 7      6270.572 7     14611.44349  20056012.79349
        51.250          42.250  
  24142722.297 4     -3476.149 4   1873334.632 4   1446677.27046  24142713.83646
        37.500          19.250  
  22512945.523 6      2055.236 6  -1586815.604 6  -1192364.10947  22512935.24647
        45.000          33.500  
  21492174.219 7     -2656.122 7   1316299.942 7   1020462.48348  21492163.35548
        48.250          36.500  
  24367112.695 5      3178.589 5   -282226.792 5  -1594557.58646  24367105.34846
        41.500          24.250  
 11  3 24  2 18 45.0000000  0 11G03G06G07G08G10G13G16G19G20G23G28   
  21729187.414 6      -175.983 6   -261267.650 6   -181282.81747  21729178.42647
        47.500          33.500  
  23104489.469 6      -938.737 6    240763.510 6    200477.02647  23104481.65247
        42.750          28.750  
  21030072.375 7      1272.250 7  -1083295.345 7   -808519.34148  21030063.03548
        49.250          40.750  
  23020247.547 6      2336.087 6  -1716014.654 6  -1302202.93047  23020239.78947
        44.500          31.250  
  22556464.922 6      -707.715 6    100528.469 6     87072.93847  22556456.10947
        44.000          32.250  
  20057623.461 7      -560.710 7     14681.225 7     21165.19949  20057613.59449
        50.750          41.500  
  24152648.617 4     -3477.568 4   1925498.148 4   1487324.14345  24152639.21945
        38.000          17.750  
  22507099.492 6      2048.033 6  -1617536.101 6  -1216302.14048  22507089.21548
        46.000          34.000  
  25783802.23412     -3313.28112   -429368.18312                
        35.500  
  21499774.695 7     -2662.666 7   1356239.935 7   1051584.55048  21499763.30548
        48.250          36.750  
  24358048.094 6      3175.764 6   -329863.257 6  -1631676.80246  24358040.16046
        42.500          22.000  
 11  3 24  2 19  0.0000000  0 11G03G06G07G08G10G13G16G19G20G23G28   
  21729719.516 7      -186.424 7   -258471.286 7   -179103.82548  21729710.76248
        48.000          33.750  
  23107194.289 5      -947.556 5    254976.856 5    211552.36847  23107186.70747
        42.000          29.500  
  21026450.367 7      1269.016 7  -1102330.579 7   -823351.98248  21026440.96948
        49.000          40.500  
  23013583.313 6      2334.843 6  -1751037.296 6  -1329493.28747  23013575.26247
        44.500          30.500  
  22558509.867 6      -716.685 6    111278.747 6     95449.76847  22558501.87547
        43.750          32.500  
  20059247.938 7      -569.261 7     23220.135 7     27818.89949  20059238.42249
        49.500          41.750  
  24162580.180 4     -3478.787 4   1977679.948 4   1527985.27146  24162568.67246
        38.500          19.000  
  22501273.508 6      2040.994 6  -1648151.013 6  -1240157.89248  22501263.46548
        42.500          34.000  
  25793265.078 3     -3311.976 3   -379688.537 3                
        37.250  
  21507393.711 7     -2669.003 7   1396274.977 7   1082780.68648  21507381.96948
        48.750          36.000  
  24348988.734 5      3173.124 5   -377460.110 5  -1668765.26546  24348982.14846
        39.750          22.250  
 11  3 24  2 19 15.0000000  0 11G03G06G07G08G10G13G16G19G20G23G28   
  21730281.148 7      -196.759 7   -255519.895 7   -176804.02247  21730272.27747
        49.000          33.250  
  23109924.492 6      -956.266 6    269320.852 6    222729.51847  23109915.32847
        42.500          29.000  
  21022836.969 7      1265.881 7  -1121318.794 7   -838147.98248  21022827.62948
        48.500          40.750  
  23006921.578 6      2333.676 6  -1786042.440 6  -1356770.00447  23006913.35247
        44.500          30.250  
  22560581.242 6      -725.556 6    122162.087 6    103930.28547  22560573.54347
        44.500          32.500  
  20060897.148 7      -577.714 7     31885.842 7     34571.41049  20060887.39849
        50.500          41.750  
  24172512.906 4     -3479.885 4   2029878.222 4   1568659.26645  24172501.80945
        38.750          16.750  
  22495467.742 6      2034.053 6  -1678661.811 6  -1263932.51948  22495457.52348
        46.000          34.000  
  25802738.219 3     -3308.577 3   -330059.889 3                
        36.000  
  21515029.773 7     -2675.220 7   1436403.282 7   1114049.48548  21515018.26648
        47.750          36.500  
  24339941.367 6      3170.566 6   -425018.595 6  -1705823.72546  24339932.43846
        43.250          22.750  
 11  3 24  2 19 30.0000000  0 11G03G06G07G08G10G13G16G19G20G23G28   
  21730873.352 7      -207.409 7   -252408.765 7   -174379.75848  21730864.65648
        48.750          33.750  
  23112679.188 6      -965.272 6    283799.925 6    234011.91647  23112670.96147
        42.750          29.250  
  21019233.680 7      1262.447 7  -1140255.496 7   -852903.84748  21019223.98848
        49.000          40.500  
  23000264.727 6      2332.217 6  -1821025.694 6  -1384029.67147  23000256.61747
        45.750          31.750  
  22562677.930 6      -734.707 6    133182.693 6    112517.77347  22562670.17247
        43.750          31.000  
  20062571.180 7      -586.466 7     40682.834 7     41426.21749  20062561.02049
        50.750          42.000  
  24182450.797 5     -3481.265 5   2082097.202 5   1609349.38645  24182438.58645
        39.750          17.750  
  22489683.313 6      2026.790 6  -1709063.660 6  -1287622.24948  22489672.62548
        45.500          34.000  
  25812171.578 4     -3305.435 4   -280478.362 4                
        38.000  
  21522684.563 7     -2681.728 7   1476629.195 7   1145394.34548  21522673.11348
        48.500          37.000  
  24330899.422 6      3167.700 6   -472534.099 6  -1742848.76846  24330890.08246
        42.750          22.000  
 11  3 24  2 19 45.0000000  0 11G03G06G07G08G10G13G16G19G20G23G28   
  21731495.680 7      -218.122 7   -249136.929 7   -171830.25647  21731486.92647
        48.750          33.250  
  23115460.547 6      -974.336 6    298414.959 6    245400.25747  23115452.32047
        43.750          28.750  
  21015640.086 7      1258.941 7  -1159139.613 7   -867618.73448  21015630.57048
        48.250          41.000  
  22993612.180 6      2330.694 6  -1855986.107 6  -1411271.53547  22993603.77747
        44.000          31.000  
  22564801.664 6      -743.924 6    144341.560 6    121212.98547  22564793.61347
        43.500          31.500  
  20064270.773 7      -595.288 7     49612.150 7     48384.12749  20064260.08649
        51.000          41.500  
  24192391.891 5     -3482.686 5   2134337.492 5   1650056.06945  24192380.38345
        40.000          18.250  
  22483918.836 6      2019.421 6  -1739354.978 6  -1311225.84147  22483907.62147
        46.250          33.250  
  25821598.063 3     -3302.365 3   -230942.882 3                
        37.250  
  21530357.672 6     -2688.281 6   1516953.413 6   1176815.80448  21530346.45748
        47.500          36.500  
  24321865.320 6      3164.756 6   -520005.443 6  -1779839.34946  24321857.09446
        42.750          22.250  
 11  3 24  2 20  0.0000000  0 11G03G06G07G08G10G13G16G19G20G23G28   
  21732148.930 7      -228.824 7   -245704.572 7   -169155.68648  21732139.88348
        48.500          34.500  
  23118267.391 6      -983.390 6    313165.807 6    256894.44747  23118259.39847
        43.000          29.000  
  21012056.555 7      1255.415 7  -1177970.841 7   -882292.41748  21012046.68848
        48.500          40.750  
  22986963.617 6      2329.173 6  -1890923.699 6  -1438495.61847  22986955.15647
        44.750          32.000  
  22566951.852 6      -753.113 6    155638.253 6    130015.60447  22566942.80547
        45.000          32.250  
  20065995.055 7      -604.105 7     58673.729 7     55445.09349  20065984.66049
        49.750          42.000  
  24202337.906 5     -3484.082 5   2186598.728 5   1690779.12045  24202325.46145
        41.000          16.750  
  22478176.023 6      2012.063 6  -1769535.927 6  -1334743.44848  22478164.80948
        45.500          34.000  
  25831010.836 5     -3299.263 5   -181453.936 5                
        40.250  
  21538049.094 6     -2694.824 6   1557375.774 6   1208313.73048  21538038.46548
        47.000          36.750  
  24312840.625 6      3161.818 6   -567432.711 6  -1816795.62746  24312831.22746
        43.500          22.500  
 11  3 24  2 20 15.0000000  0 11G03G06G07G08G10G13G16G19G20G23G28   
  21732832.375 7      -239.456 7   -242112.731 7   -166356.84248  21732823.15248
        48.000          34.750  
  23121099.773 6      -992.361 6    328051.228 6    268493.47647  23121091.78147
        44.000          28.500  
  21008482.516 7      1251.997 7  -1196750.801 7   -896926.14248  21008473.29348
        48.500          40.500  
  22980319.328 6      2327.738 6  -1925839.771 6  -1465702.93047  22980310.86747
        44.000          31.000  
  22569127.773 6      -762.216 6    167071.488 6    138924.61047  22569119.43047
        45.000          31.750  
  20067743.898 7      -612.848 7     67866.451 7     62608.25449  20067734.26649
        50.250          41.750  
  24212287.148 5     -3485.378 5   2238879.401 5   1731517.30445  24212274.93845
        40.500          17.250  
  22472453.328 6      2004.746 6  -1799607.123 6  -1358175.51948  22472442.40648
        46.250          34.750  
  25840418.086 4     -3296.064 4   -132012.982 4                
        39.000  
  21545759.656 6     -2701.283 6   1597895.012 6   1239887.16248  21545749.08648
        46.500          36.000  
  24303822.688 5      3158.937 5   -614816.773 5  -1853718.16046  24303815.04746
        42.000          22.250  
 11  3 24  2 20 30.0000000  0 11G03G06G07G08G10G13G16G19G20G23G28   
  21733545.883 6      -250.063 6   -238361.783 6   -163434.00748  21733536.60248
        47.500          34.000  
  23123958.008 6     -1001.291 6    343070.593 6    280196.87347  23123949.48847
        43.000          29.000  
  21004918.906 7      1248.608 7  -1215479.926 7   -911520.25448  21004909.21548
        48.500          40.500  
  22973679.031 6      2326.328 6  -1960734.689 6  -1492893.75047  22973671.39147
        45.250          32.500  
  22571328.727 6      -771.267 6    178640.495 6    147939.41347  22571320.03147
        44.250          32.000  
  20069518.133 7      -621.558 7     77189.820 7     69873.22049  20069508.26649
        49.000          42.500  
  24222239.398 5     -3486.632 5   2291178.877 5   1772270.11045  24222227.94945
        41.000          18.250  
  22466752.484 6      1997.437 6  -1829568.672 6  -1381522.15648  22466741.27048
        46.250          34.000  
  25849814.977 2     -3292.816 2    -82620.740 2                
        35.500  
  21553488.719 6     -2707.686 6   1638510.303 6   1271535.43948  21553478.44148
        46.500          35.250  
  24294813.734 5      3156.068 5   -662157.793 5  -1890607.28146  24294805.39146
        40.750          22.750  
 11  3 24  2 20 45.0000000  0 11G03G06G07G08G10G13G16G19G20G23G28   
  21734290.570 7      -260.729 7   -234450.842 7   -160386.51448  21734281.23048
        48.250          35.000  
  23126841.320 6     -1010.279 6    358224.779 6    292005.33347  23126833.21147
        43.250          28.500  
  21001364.883 7      1245.149 7  -1234157.166 7   -926073.94648  21001355.30948
        48.000          40.500  
  22967042.828 6      2324.856 6  -1995607.523 6  -1520067.37747  22967035.07047
        43.500          31.000  
  22573555.891 6      -780.379 6    190346.182 6    157060.72647  22573548.25047
        45.000          32.000  
  20071317.156 7      -630.336 7     86644.855 7     77240.78449  20071307.52349
        49.500          41.500  
  24232194.828 5     -3487.926 5   2343497.769 5   1813038.12945  24232184.25845
        39.500          17.750  
  22461071.797 6      1990.033 6  -1859419.169 6  -1404782.24948  22461060.05548
        46.500          34.750  
  25859200.375 1     -3289.635 1    -33276.211 1                
        33.500  
  21561236.188 6     -2714.148 6   1679222.521 6   1303259.24948  21561225.14848
        47.000          36.000  
  24285813.859 5      3153.136 5   -709454.835 5  -1927461.99546  24285805.63346
        41.500          22.500  
 11  3 24  2 21  0.0000000  0 11G03G06G07G08G10G13G16G19G20G23G28   
  21735066.391 7      -271.776 7   -230374.196 7   -157209.88948  21735057.46148
        48.500          33.750  
  23129752.383 6     -1019.641 6    373519.392 6    303923.22147  23129744.27347
        43.000          28.750  
  20997821.602 7      1241.301 7  -1252776.687 7   -940582.65148  20997811.67648
        47.750          41.000  
  22960412.203 6      2322.999 6  -2030452.500 6  -1547219.28647  22960404.44547
        43.750          31.750  
  22575810.516 6      -789.864 6    202194.148 6    166292.91147  22575802.75847
        44.500          31.500  
  20073142.664 7      -639.511 7     96237.523 7     84715.58649  20073132.79749
        49.000          41.750  
  24242153.945 5     -3489.591 5   2395841.627 5   1853825.54445  24242144.95745
        40.250          18.250  
  22455413.641 6      1982.221 6  -1889152.482 6  -1427951.03948  22455402.48448
        46.000          33.750  
  25868572.61711     -3286.45411     16025.96711                
        30.500  
  21569003.656 6     -2720.986 6   1720037.311 6   1335062.96748  21568991.68048
        46.750          35.750  
  24276821.797 5      3149.793 5   -756701.724 5  -1964277.75746  24276813.92246
        40.250          22.000  
 11  3 24  2 21 15.0000000  0 10G03G06G07G08G10G13G16G19G23G28      
  21735870.695 7      -281.858 7   -226146.328 7   -153915.43448  21735861.88348
        48.500          34.250  
  23132687.180 6     -1028.041 6    388940.002 6    315939.28547  23132678.30947
        43.500          30.000  
  20994286.680 7      1238.414 7  -1271352.890 7   -955057.60748  20994276.98848
        47.750          41.000  
  22953784.141 6      2322.107 6  -2065284.109 6  -1574360.77847  22953775.50447
        43.750          32.000  
  22578089.250 6      -798.373 6    214169.743 6    175624.54547  22578081.84447
        45.000          32.000  
  20074991.875 7      -647.714 7    105953.235 7     92286.26949  20074981.53949
        49.500          41.750  
  24252116.758 5     -3490.265 5   2448195.595 5   1894620.82245  24252108.06345
        39.250          18.500  
  22449775.047 6      1975.362 6  -1918782.907 6  -1451039.65048  22449763.94948
        46.000          34.500  
  21576787.359 7     -2726.839 7   1760939.898 7   1366935.09948  21576775.91048
        47.750          36.250  
  24267839.484 5      3147.417 5   -803912.982 5  -2001065.64846  24267830.90646
        41.000          22.500  
 11  3 24  2 21 30.0000000  0 11G03G05G06G07G08G10G13G16G19G23G28   
  21736705.461 7      -292.492 7   -221758.948 7   -150496.68548  21736697.05948
        48.500          33.750  
  24601929.51611      1797.82811                                
        26.750  
  23135646.781 6     -1036.972 6    404494.579 6    328059.74747  23135638.55547
        43.000          29.500  
  20990761.555 7      1234.975 7  -1289877.520 7   -969492.38348  20990751.92248
        48.750          41.250  
  22947159.500 6      2320.667 6  -2100094.113 6  -1601485.43747  22947151.39147
        43.500          31.750  
  22580394.258 6      -807.409 6    226280.884 6    185061.79347  22580386.20747
        44.000          32.250  
  20076865.398 7      -656.468 7    115800.258 7     99959.27349  20076855.59049
        49.500          41.500  
  24262081.688 4     -3491.475 4   2500567.715 4   1935430.31245  24262073.34445
        38.500          16.250  
  22444156.992 6      1967.930 6  -1948301.856 6  -1474041.41748  22444146.48048
        45.500          34.000  
  21584588.711 6     -2733.221 6   1801938.211 6   1398881.82048  21584577.67248
        47.000          36.000  
  24258864.000 5      3144.484 5   -851080.241 5  -2037819.31746  24258854.89546
        41.500          22.500  
 11  3 24  2 21 45.0000000  0 11G03G05G06G07G08G10G13G16G19G23G28   
  21737570.195 7      -303.095 7   -217212.523 7   -146953.99848  21737561.96948
        48.000          35.000  
  24596821.76611      1789.65611                                
        25.750  
  23138631.875 6     -1045.877 6    420182.738 6    340284.29647  23138623.64847
        43.500          28.250  
  20987246.055 7      1231.567 7  -1308351.025 7   -983887.31048  20987236.59848
        48.500          41.000  
  22940539.656 6      2319.254 6  -2134882.930 6  -1628593.59547  22940531.48847
        44.250          31.250  
  22582725.023 6      -816.413 6    238527.076 6    194604.27547  22582716.50447
        45.000          32.000  
  20078764.438 7      -665.191 7    125778.125 7    107734.23549  20078754.62949
        49.000          41.500  
  24272051.273 3     -3492.637 3   2552957.269 3   1976253.33745  24272042.93045
        37.000          16.750  
  22438561.266 6      1960.498 6  -1977709.325 6  -1496956.29248  22438550.34448
        46.250          34.500  
  21592407.875 6     -2739.569 6   1843031.746 6   1430902.75048  21592397.30548
        46.250          36.000  
  24249895.406 5      3141.563 5   -898203.688 5  -2074538.80446  24249887.76646
        39.500          21.500  
 11  3 24  2 22  0.0000000  0 10G03G06G07G08G10G13G16G19G23G28      
  21738465.844 7      -313.712 7   -212506.842 7   -143287.22948  21738457.79348
        48.000          34.500  
  23141642.633 6     -1054.785 6    436004.508 6    352612.94747  23141634.17247
        43.000          29.000  
  20983740.281 7      1228.133 7  -1326773.017 7   -998242.09648  20983730.70748
        47.750          41.000  
  22933923.484 6      2317.818 6  -2169650.198 6  -1655684.96447  22933915.55147
        43.000          31.500  
  22585081.148 6      -825.419 6    250908.366 6    204252.03247  22585072.68847
        44.750          33.000  
  20080688.102 7      -673.950 7    135887.380 7    115611.57649  20080678.35249
        49.500          41.750  
  24282023.922 4     -3493.800 4   2605364.269 4   2017089.96945  24282015.75445
        38.250          16.250  
  22432986.195 6      1953.034 6  -2007004.836 6  -1519783.94048  22432975.44948
        46.500          34.250  
  21600245.336 6     -2745.925 6   1884220.619 6   1462997.96948  21600235.29348
        46.250          36.000  
  24240935.930 5      3138.617 5   -945282.949 5  -2111223.90146  24240928.69946
        39.500          22.500  
 11  3 24  2 22 15.0000000  0 10G03G06G07G08G10G13G16G19G23G28      
  21739391.305 7      -324.301 7   -207642.320 7   -139496.67848  21739383.02048
        48.000          34.500  
  23144678.891 6     -1063.658 6    451959.384 6    365045.33247  23144670.78147
        43.250          28.250  
  20980244.422 7      1224.720 7  -1345143.820 7  -1012556.99948  20980235.08248
        48.250          40.750  
  22927312.164 6      2316.412 6  -2204396.375 6  -1682759.89047  22927303.41047
        44.000          31.500  
  22587462.773 6      -834.390 6    263424.217 6    214004.64747  22587454.13747
        45.250          32.500  
  20082636.836 7      -682.680 7    146127.573 7    123590.94849  20082626.61749
        48.750          41.500  
  24292000.023 4     -3494.917 4   2657788.025 4   2057939.66845  24291991.91445
        38.000          16.250  
  22427433.164 6      1945.571 6  -2036188.407 6  -1542524.36248  22427422.71148
        46.250          34.750  
  21608101.594 6     -2752.238 6   1925504.188 6   1495166.98948  21608090.90648
        46.750          36.500  
  24231986.781 5      3135.681 5   -992318.170 5  -2147874.62946  24231977.61746
        41.500          20.750  
 11  3 24  2 22 30.0000000  0 11G03G05G06G07G08G10G13G16G19G23G28   
  21740346.133 7      -334.313 7   -202627.619 7   -135589.10748  21740337.14548
        48.500          35.000  
  24581595.09411      1766.09411     54912.94811                
        33.750  
  23147738.539 6     -1071.951 6    468038.643 6    377574.62547  23147729.90247
        43.500          28.500  
  20976756.500 7      1221.894 7  -1363472.236 7  -1026838.86949  20976747.27749
        48.500          41.500  
  22920701.992 6      2315.583 6  -2239130.122 6  -1709825.12447  22920693.70747
        44.000          31.250  
  22589868.117 6      -842.761 6    276065.625 6    223855.08947  22589859.71547
        45.500          31.750  
  20084608.469 7      -690.826 7    156489.966 7    131665.53749  20084598.71949
        48.250          41.500  
  24301977.367 4     -3495.432 4   2710219.499 4   2098795.34045  24301968.96545
        38.500          16.750  
  22421898.789 6      1938.675 6  -2065268.534 6  -1565184.18448  22421888.51248
        46.250          34.000  
  21615974.344 6     -2757.958 6   1966873.557 6   1527402.85848  21615963.07048
        47.500          36.500  
  24223042.203 4      3133.312 4  -1039317.852 4  -2184497.69346  24223033.62546
        39.000          20.000  
 11  3 24  2 22 45.0000000  0 11G03G05G06G07G08G10G13G16G19G23G28   
  21741331.719 7      -345.383 7   -197446.878 7   -131552.14648  21741323.08248
        48.250          34.250  
  24576563.500 2      1761.962 2     28483.521 2                
        34.000  
  23150825.055 6     -1081.282 6    484257.875 6    390212.99247  23150816.77047
        43.500          29.000  
  20973279.922 7      1218.004 7  -1381742.303 7  -1041075.27449  20973270.52349
        48.500          41.500  
  22914097.672 6      2313.705 6  -2273835.704 6  -1736868.42047  22914089.09447
        44.500          31.000  
  22592300.539 6      -852.174 6    288848.237 6    233815.56547  22592292.31347
        44.750          32.000  
  20086606.695 7      -700.025 7    166990.335 7    139847.64549  20086596.53549
        48.250          41.500  
  24311960.813 5     -3496.978 5   2762674.166 5   2139669.11145  24311950.18445
        39.500          14.750  
  22416387.555 6      1930.702 6  -2094229.070 6  -1587750.81647  22416377.39547
        46.250          33.500  
  21623866.406 7     -2764.717 7   2008344.318 7   1559717.72348  21623855.19148
        48.000          37.000  
  24214108.328 5      3129.879 5  -1086266.033 5  -2221080.65146  24214099.92646
        40.500          20.250  
 11  3 24  2 23  0.0000000  0 11G03G05G06G07G08G10G13G16G19G23G28   
  21742348.719 7      -356.151 7   -192104.616 7   -127389.33048  21742339.78948
        48.750          34.000  
  24571559.180 2      1753.846 2      2175.827 2                
        34.000  
  23153937.352 6     -1090.320 6    500612.672 6    402957.00247  23153928.89147
        44.000          28.500  
  20969813.523 7      1214.409 7  -1399958.435 7  -1055269.64949  20969803.77349
        48.500          41.500  
  22907497.719 6      2312.119 6  -2308517.494 6  -1763893.18647  22907489.84447
        44.000          30.750  
  22594759.133 6      -861.283 6    301767.484 6    243882.51347  22594750.90647
        46.000          31.750  
  20088630.641 7      -708.942 7    177624.472 7    148133.98649  20088620.18849
        48.500          41.500  
  24321946.969 5     -3498.213 5   2815147.354 5   2180557.29445  24321934.99245
        40.500          16.750  
  22410898.758 6      1922.995 6  -2123073.999 6  -1610227.36647  22410888.48047
        46.500          33.500  
  21631776.430 7     -2771.172 7   2049911.901 7   1592108.03248  21631765.15648
        48.000          36.750  
  24205184.516 5      3126.734 5  -1133167.036 5  -2257626.79746  24205175.29346
        41.250          21.000  
 11  3 24  2 23 15.0000000  0 11G03G05G06G07G08G10G13G16G19G23G28   
  21743396.508 7      -367.200 7   -186596.616 7   -123097.36848  21743387.98848
        48.000          33.750  
  24566584.906 1      1745.442 1    -24005.801 1                
        30.500  
  23157076.102 6     -1099.626 6    517107.058 6    415809.77147  23157067.81647
        42.750          27.750  
  20966358.117 7      1210.542 7  -1418116.570 7  -1069418.83548  20966348.77748
        48.750          41.000  
  22900903.383 6      2310.235 6  -2343171.019 6  -1790895.91547  22900895.33247
        43.250          30.500  
  22597243.914 6      -870.656 6    314827.321 6    254059.00947  22597235.98047
        44.750          32.250  
  20090680.438 7      -718.138 7    188396.535 7    156527.80549  20090670.51249
        48.000          41.750  
  24331936.523 5     -3499.722 5   2867643.188 5   2221463.17845  24331924.02045
        42.000          18.500  
  22405433.305 6      1914.982 6  -2151798.732 6  -1632610.25148  22405422.32448
        46.250          34.000  
  21639705.383 7     -2777.902 7   2091580.438 7   1624577.01048  21639694.34448
        47.750          36.250  
  24196268.047 5      3123.300 5  -1180016.542 5  -2294132.84446  24196260.28946
        39.250          19.250  
 11  3 24  2 23 30.0000000  0 10G03G06G07G08G10G13G16G19G23G28      
  21744473.078 7      -377.238 7   -180938.043 7   -118688.08648  21744464.91048
        47.750          34.250  
  23160238.508 6     -1107.913 6    533725.759 6    428759.40447  23160230.04747
        43.750          29.000  
  20962910.820 6      1207.662 6  -1436231.504 6  -1083534.36448  20962901.18848
        47.500          40.750  
  22894312.031 6      2309.371 6  -2377811.583 6  -1817888.53047  22894303.33647
        44.500          31.000  
  22599753.133 6      -879.004 6    328012.383 6    264333.10347  22599745.19947
        45.750          32.250  
  20092753.859 7      -726.328 7    199291.452 7    165017.35549  20092743.52349
        47.750          41.500  
  24341928.531 5     -3500.182 5   2920145.922 5   2262374.34845  24341914.61745
        41.250          16.250  
  22399987.242 6      1907.965 6  -2180418.205 6  -1654911.13148  22399975.91048
        47.000          34.250  
  21647651.008 6     -2783.595 6   2133334.364 6   1657112.52048  21647640.02748
        46.250          36.500  
  24187359.086 5      3120.853 5  -1226829.335 5  -2330610.25746  24187351.15246
        39.250          19.750  
 11  3 24  2 23 45.0000000  0 10G03G06G07G08G10G13G16G19G23G28      
  21745580.469 7      -387.838 7   -175120.472 7   -114154.89748  21745572.12548
        48.250          33.750  
  23163426.398 6     -1116.764 6    550477.225 6    441812.51047  23163417.35247
        43.000          28.250  
  20959473.516 7      1204.205 7  -1454294.571 7  -1097609.47948  20959464.00048
        48.500          40.750  
  22887724.133 6      2307.925 6  -2412430.454 6  -1844864.24647  22887715.43847
        45.250          31.250  
  22602287.266 6      -887.926 6    341331.271 6    274711.44347  22602279.09847
        46.250          31.500  
  20094851.492 7      -735.084 7    210317.719 7    173609.24849  20094841.44949
        48.250          41.750  
  24351921.422 5     -3501.221 5   2972664.234 5   2303297.74945  24351908.80145
        40.750          17.750  
  22394562.766 6      1900.353 6  -2208923.500 6  -1677123.00848  22394551.49248
        47.000          34.500  
  21655614.320 6     -2789.862 6   2175182.288 6   1689721.28548  21655603.51648
        47.250          36.500  
  24178461.086 5      3117.816 5  -1273596.570 5  -2367052.22546  24178451.33646
        40.250          20.000  
 11  3 24  2 24  0.0000000  0 10G03G06G07G08G10G13G16G19G23G28      
  21746717.430 7      -398.450 7   -169143.720 7   -109497.67647  21746708.79347
        48.250          33.000  
  23166639.438 6     -1125.622 6    567361.558 6    454969.14547  23166630.44947
        44.000          28.500  
  20956046.695 7      1200.744 7  -1472305.736 7  -1111644.13448  20956036.65248
        48.750          41.000  
  22881140.242 6      2306.472 6  -2447027.538 6  -1871822.99947  22881131.84047
        44.500          30.500  
  22604847.195 6      -896.830 6    354783.727 6    285193.88747  22604839.20347
        46.250          31.750  
  20096974.797 7      -743.862 7    221475.647 7    182303.74249  20096964.40249
        48.500          41.750  
  24361916.375 5     -3502.251 5   3025197.995 5   2344233.15645  24361906.50845
        39.750          16.750  
  22389160.359 6      1892.696 6  -2237313.939 6  -1699245.39848  22389148.96948
        46.750          34.750  
  21663595.133 7     -2796.113 7   2217123.986 7   1722403.12948  21663584.68048
        48.000          36.000  
  24169569.977 5      3114.777 5  -1320318.227 5  -2403458.61246  24169560.75446
        40.000          19.500  
 11  3 24  2 24 15.0000000  0 11G03G05G06G07G08G10G13G16G19G23G28   
  21747885.250 7      -409.069 7   -163007.689 7   -104716.34148  21747876.32048
        48.000          34.000  
  24546865.10911      1710.20311                                
        33.000  
  23169877.539 6     -1134.451 6    584378.319 6    468228.96047  23169868.90247
        44.000          28.250  
  20952628.758 7      1197.291 7  -1490265.104 7  -1125638.43448  20952619.12548
        48.250          40.750  
  22874560.742 6      2305.018 6  -2481602.815 6  -1898764.76447  22874552.51647
        45.250          30.250  
  22607433.039 6      -905.714 6    368369.435 6    295780.15047  22607424.28547
        45.750          31.750  
  20099123.469 7      -752.631 7    232765.109 7    191100.72749  20099113.07449
        48.000          42.000  
  24371916.055 4     -3503.252 4   3077746.776 4   2385180.23145  24371906.53945
        39.000          16.250  
  22383779.164 6      1885.040 6  -2265589.546 6  -1721278.31948  22383768.30148
        46.750          34.250  
  21671594.594 6     -2802.352 6   2259159.262 6   1755157.87648  21671583.61348
        47.000          35.750  
  24160686.797 4      3111.728 4  -1366994.145 4  -2439829.43046  24160677.86746
        39.000          19.750  
 11  3 24  2 24 30.0000000  0 11G03G05G06G07G08G10G13G16G19G23G28   
  21749082.461 7      -419.346 7   -156717.491 7    -99814.87848  21749073.59048
        48.000          34.000  
  24541996.570 1      1702.000 1    294570.647 1                
        33.500  
  23173140.383 6     -1142.952 6    601522.599 6    481588.14447  23173131.21947
        44.000          29.250  
  20949220.148 7      1194.167 7  -1508177.603 7  -1139596.21148  20949210.39848
        48.000          41.000  
  22867984.820 6      2303.915 6  -2516161.535 6  -1925693.61947  22867976.12547
        46.000          31.000  
  22610042.906 6      -914.255 6    382083.266 6    306466.25347  22610034.44547
        47.000          31.500  
  20101295.656 7      -761.073 7    244181.197 7    199996.37549  20101285.84849
        48.000          42.000  
  24381917.086 4     -3503.905 4   3130305.355 4   2426134.99745  24381908.15645
        38.000          16.750  
  22378419.531 6      1877.694 6  -2293754.949 6  -1743225.36347  22378408.72747
        47.000          33.500  
  21679609.914 7     -2808.232 7   2301282.746 7   1787981.37148  21679599.69548
        47.750          36.000  
  24151814.055 5      3109.003 5  -1413629.183 5  -2476168.35346  24151804.48046
        41.250          21.250  
 11  3 24  2 24 45.0000000  0 11G03G05G06G07G08G10G13G16G19G23G28   
  21750311.539 7      -430.610 7   -150258.349 7    -94781.77247  21750302.60947
        48.500          33.500  
  24537146.047 1      1697.612 1    269106.471 1                
        28.500  
  23176429.406 6     -1152.434 6    618809.108 6    495058.16047  23176420.65247
        44.500          28.500  
  20945823.180 7      1190.049 7  -1526028.340 7  -1153505.85348  20945813.78148
        48.250          41.000  
  22861414.781 6      2301.809 6  -2550688.664 6  -1952597.85047  22861405.85247
        46.000          30.750  
  22612679.852 6      -923.779 6    395939.953 6    317263.66747  22612671.27347
        46.000          31.750  
  20103495.000 7      -770.498 7    255738.661 7    209002.19149  20103485.30949
        48.000          42.000  
  24391922.781 3     -3505.518 3   3182888.130 3   2467108.60245  24391914.90645
        36.500          18.250  
  22373083.758 6      1869.331 6  -2321794.914 6  -1765074.66948  22373072.77748
        46.750          34.000  
  21687645.406 6     -2815.106 6   2343509.340 6   1820885.19848  21687634.89548
        46.250          35.750  
  24142950.852 5      3105.270 5  -1460208.233 5  -2512463.64846  24142940.28146
        42.000          21.250  
 11  3 24  2 25  0.0000000  0 10G03G06G07G08G10G13G16G19G23G28      
  21751569.781 7      -440.840 7   -143645.742 7    -89629.07848  21751560.73448
        48.000          33.750  
  23179743.297 6     -1160.874 6    636222.215 6    508626.81447  23179734.42647
        43.750          28.250  
  20942435.313 7      1186.966 7  -1543832.835 7  -1167379.47348  20942425.73848
        47.750          41.000  
  22854846.852 6      2300.736 6  -2585199.703 6  -1979489.54447  22854838.33247
        45.750          32.000  
  22615340.766 6      -932.252 6    409923.729 6    328160.11047  22615332.18847
        46.000          32.000  
  20105718.258 6      -778.887 6    267421.972 6    218106.06249  20105708.39149
        47.500          41.750  
  24401931.156 3     -3506.084 3   3235479.393 3   2508088.77945  24401922.57845
        37.000          16.750  
  22367768.922 6      1861.980 6  -2349724.621 6  -1786838.05548  22367758.11748
        46.250          35.000  
  21695698.141 7     -2820.921 7   2385823.153 7   1853856.99548  21695686.63348
        48.000          36.000  
  24134093.352 5      3102.570 5  -1506746.789 5  -2548727.39146  24134084.65646
        41.250          20.000  
 11  3 24  2 25 15.0000000  0 10G03G06G07G08G10G13G16G19G23G28      
  21752858.711 7      -451.450 7   -136873.992 7    -84352.38448  21752849.60548
        48.750          33.750  
  23183082.094 6     -1169.686 6    653767.504 6    522298.48047  23183073.16447
        44.000          28.000  
  20939057.078 6      1183.497 6  -1561585.285 6  -1181212.54148  20939047.32848
        47.000          41.000  
  22848283.352 6      2299.270 6  -2619688.749 6  -2006364.10447  22848275.41847
        45.750          30.500  
  22618027.156 6      -941.085 6    424040.011 6    339159.81647  22618018.10947
        46.000          31.500  
  20107966.492 6      -787.665 6    279236.944 6    227312.52849  20107956.74249
        47.500          42.000  
  24411941.797 3     -3507.019 3   3288084.678 3   2549079.92145  24411932.51645
        37.000          17.250  
  22362475.555 6      1854.225 6  -2377537.995 6  -1808510.80448  22362465.51248
        46.250          34.500  
  21703768.313 7     -2827.108 7   2428229.772 7   1886901.09848  21703756.57048
        47.750          36.250  
  24125245.391 5      3099.469 5  -1553238.817 5  -2584954.88246  24125237.92646
        39.250          21.250  
 11  3 24  2 25 30.0000000  0 10G03G06G07G08G10G13G16G19G23G28      
  21754177.063 7      -462.004 7   -129943.930 7    -78952.32347  21754168.42647
        48.000          33.500  
  23186445.352 6     -1178.442 6    671444.129 6    536072.47147  23186436.94947
        44.000          28.750  
  20935688.898 7      1180.062 7  -1579286.218 7  -1195005.46548  20935679.14848
        48.000          41.000  
  22841724.805 6      2297.862 6  -2654156.684 6  -2033222.22647  22841716.63747
        46.500          31.500  
  22620738.578 6      -949.863 6    438287.958 6    350262.11547  22620729.94147
        45.250          31.500  
  20110239.781 7      -796.396 7    291182.883 7    236621.04549  20110229.62149
        48.750          41.750  
  24421955.711 3     -3507.878 3   3340702.851 3   2590081.07645  24421945.37545
        37.000          17.750  
  22357204.734 6      1846.505 6  -2405235.567 6  -1830093.30748  22357194.34048
        47.000          35.000  
  21711855.422 6     -2833.235 6   2470728.301 6   1920016.82248  21711844.03148
        47.500          35.500  
  24116408.156 5      3096.405 5  -1599684.895 5  -2621146.56946  24116398.75846
        40.250          20.500  
 11  3 24  2 25 45.0000000  0 11G03G05G06G07G08G10G13G16G19G23G28   
  21755524.922 7      -472.344 7   -122858.769 7    -73431.41248  21755516.28548
        47.750          34.000  
  24517993.09411      1661.73411    517353.93011                
        33.000  
  23189833.727 6     -1186.972 6    689248.711 6    549946.19047  23189824.73847
        43.500          27.750  
  20932329.469 7      1176.851 7  -1596938.987 7  -1208760.85549  20932320.12949
        48.000          41.500  
  22835169.391 6      2296.670 6  -2688606.739 6  -2060066.39747  22835160.75447
        46.500          31.750  
  22623473.953 6      -958.410 6    452664.104 6    361464.30347  22623464.73047
        45.500          31.500  
  20112537.781 7      -804.911 7    303256.552 7    246029.08749  20112527.44549
        48.250          41.750  
  24431970.922 4     -3508.506 4   3393330.434 4   2631089.59245  24431960.11745
        38.750          16.750  
  22351955.758 6      1838.971 6  -2432820.135 6  -1851587.74948  22351945.42248
        45.750          34.250  
  21719959.438 6     -2839.132 6   2513315.285 6   1953201.46648  21719948.34048
        46.750          35.750  
  24107577.266 5      3093.547 5  -1646088.096 5  -2657304.82446  24107568.33646
        39.500          20.250  
 11  3 24  2 26  0.0000000  0 11G03G05G06G07G08G10G13G16G19G23G28   
  21756904.539 7      -483.152 7   -115611.496 7    -67784.17047  21756895.84447
        47.750          32.500  
  24513260.969 1      1657.651 1    492489.159 1                
        32.750  
  23193247.219 6     -1195.964 6    707188.176 6    563924.99147  23193238.93447
        43.250          28.500  
  20928980.438 7      1173.169 7  -1614536.521 7  -1222473.19549  20928970.98049
        49.500          41.500  
  22828618.320 6      2295.008 6  -2723031.852 6  -2086891.14647  22828609.68447
        47.250          31.250  
  22626235.359 6      -967.424 6    467175.465 6    372771.85047  22626226.66447
        46.000          31.250  
  20114860.617 7      -813.901 7    315465.073 7    255542.21549  20114850.69149
        49.000          42.000  
  24441988.703 4     -3509.594 4   3445974.346 4   2672110.80845  24441977.19545
        38.250          16.750  
  22346729.469 6      1830.950 6  -2460284.390 6  -1872988.44647  22346719.42647
        46.500          33.500  
  21728081.219 6     -2845.490 6   2555997.632 6   1986460.43448  21728070.35548
        47.000          36.250  
  24098754.906 4      3090.207 4  -1692441.196 4  -2693424.09546  24098747.20746
        37.750          21.500  
 11  3 24  2 26 15.0000000  0 11G03G05G06G07G08G10G13G16G19G23G28   
  21758314.531 7      -494.042 7   -108200.866 7    -62009.64647  21758306.01247
        48.000          33.000  
  24508551.00011      1645.51611                                
        28.750  
  23196686.984 6     -1205.037 6    725263.732 6    578009.86147  23196678.28947
        43.000          28.500  
  20925642.641 7      1169.394 7  -1632077.425 7  -1236141.42548  20925633.12548
        48.750          41.000  
  22822072.797 6      2293.252 6  -2757430.632 6  -2113695.36847  22822063.98447
        46.500          31.000  
  22629022.281 6      -976.500 6    481822.960 6    384185.48347  22629014.28947
        45.000          31.500  
  20117209.320 7      -822.983 7    327809.817 7    265161.49949  20117199.51249
        49.250          41.750  
  24452010.484 3     -3510.742 3   3498635.482 3   2713145.46445  24451997.98045
        36.500          16.250  
  22341526.367 6      1822.821 6  -2487626.698 6  -1894294.11948  22341515.79748
        46.750          33.750  
  21736221.234 6     -2851.914 6   2598776.335 6   2019794.49148  21736210.60548
        46.250          35.500  
  24089943.906 4      3086.770 4  -1738742.744 4  -2729503.17046  24089935.85546
        38.250          20.500  
 11  3 24  2 26 30.0000000  0 10G03G06G07G08G10G13G16G19G23G28      
  21759753.961 7      -504.341 7   -100635.748 7    -56114.74047  21759745.44147
        48.500          33.000  
  23200150.750 6     -1213.514 6    743466.440 6    592193.78347  23200142.40647
        44.000          29.000  
  20922314.047 7      1166.190 7  -1649570.282 7  -1249772.21449  20922304.47349
        49.250          41.500  
  22815529.828 6      2292.096 6  -2791812.076 6  -2140486.08947  22815521.71947
        46.250          32.250  
  22631833.930 6      -984.976 6    496597.602 6    395698.19347  22631825.41047
        45.500          31.750  
  20119582.930 7      -831.472 7    340281.897 7    274879.99349  20119572.94549
        49.500          42.000  
  24462033.555 3     -3511.291 3   3551304.852 3   2754186.48145  24462021.46145
        36.500          15.500  
  22336345.063 6      1815.245 6  -2514855.371 6  -1915511.24548  22336334.49248
        46.250          34.000  
  21744378.727 6     -2857.739 6   2641642.417 6   2053196.62648  21744367.92248
        46.750          36.000  
  24081142.063 5      3083.908 5  -1785001.370 5  -2765548.79646  24081133.60246
        39.250          20.000  
 11  3 24  2 26 45.0000000  0 10G03G06G07G08G10G13G16G19G23G28      
  21761223.945 7      -514.938 7    -92911.681 7    -50095.98147  21761215.13347
        48.000          33.000  
  23203639.508 6     -1222.270 6    761800.496 6    606480.06547  23203630.93047
        43.500          27.250  
  20918995.242 7      1162.705 7  -1667010.850 7  -1263362.25948  20918985.49248
        49.250          41.250  
  22808991.266 6      2290.629 6  -2826171.505 6  -2167259.66047  22808983.27347
        46.500          31.500  
  22634670.203 6      -993.734 6    511503.616 6    407313.26947  22634662.09447
        45.750          31.500  
  20121981.273 7      -840.260 7    352885.797 7    284701.21649  20121971.17249
        49.750          42.250  
  24472057.133 2     -3512.115 2   3603986.574 2   2795237.21445  24472046.91445
        34.500          15.500  
  22331186.398 6      1807.365 6  -2541965.840 6  -1936636.26948  22331174.94948
        46.000          34.500  
  21752553.836 7     -2863.842 7   2684600.046 7   2086670.09648  21752542.32848
        48.000          36.500  
  24072349.602 5      3080.738 5  -1831212.434 5  -2801557.33046  24072339.38346
        40.000          21.500  
 11  3 24  2 27  0.0000000  0 10G03G06G07G08G10G13G16G19G23G28      
  21762723.750 7      -525.487 7    -85029.380 7    -43953.91547  21762715.05547
        48.500          33.500  
  23207153.406 6     -1230.979 6    780265.180 6    620868.15147  23207145.00447
        43.250          27.750  
  20915686.148 7      1159.258 7  -1684399.715 7  -1276912.01248  20915676.75048
        49.000          41.000  
  22802456.844 6      2289.212 6  -2860509.687 6  -2194016.65147  22802448.85247
        46.500          32.000  
  22637531.539 6     -1002.429 6    526540.047 6    419029.97547  22637523.66447
        45.750          31.250  
  20124404.641 7      -848.998 7    365620.771 7    294624.57449  20124395.00849
        49.250          42.000  
  24482084.828 1     -3512.879 1   3656679.757 1   2836296.81245  24482073.26245
        33.000          15.500  
  22326049.773 6      1799.520 6  -2568958.638 6  -1957669.60648  22326038.96948
        46.500          34.000  
  21760746.320 7     -2869.893 7   2727648.440 7   2120214.28248  21760734.22748
        48.000          35.500  
  24063564.609 5      3077.612 5  -1877376.619 5  -2837529.34346  24063555.03546
        39.750          22.500  
 11  3 24  2 27 15.0000000  0 11G03G05G06G07G08G10G13G16G19G23G28   
  21764253.422 7      -535.862 7    -76991.453 7    -37690.59348  21764244.90248
        49.000          33.750  
  24489951.85911      1613.06311    681213.84911                
        33.750  
  23210690.914 6     -1239.504 6    798857.733 6    635355.85247  23210682.33647
        43.500          28.250  
  20912386.281 7      1155.986 7  -1701739.511 7  -1290423.52949  20912376.94149
        48.000          41.500  
  22795926.281 6      2287.957 6  -2894829.038 6  -2220758.97547  22795918.17247
        46.250          32.750  
  22640417.148 6     -1010.940 6    541704.149 6    430846.16147  22640409.44947
        45.500          31.000  
  20126853.008 7      -857.569 7    378484.313 7    304648.11749  20126843.08249
        48.500          42.500  
  24492112.516 2     -3513.455 2   3709381.579 2   2877363.19945  24492102.47345
        34.750          15.500  
  22320935.375 6      1791.822 6  -2595835.973 6  -1978612.95748  22320924.21948
        46.750          34.000  
  21768954.320 6     -2875.747 6   2770784.645 6   2153826.90048  21768942.81348
        46.750          35.500  
  24054787.852 5      3074.637 5  -1923496.172 5  -2873466.61046  24054778.74646
        40.250          22.000  
 11  3 24  2 27 30.0000000  0 11G03G05G06G07G08G10G13G16G19G23G28   
  21765813.891 7      -546.567 7    -68792.946 7    -31302.12848  21765804.84448
        48.000          33.750  
  24485358.422 1      1608.885 1    657080.573 1                
        33.000  
  23214254.875 6     -1248.346 6    817582.930 6    649946.91747  23214245.47747
        43.250          28.000  
  20909097.242 6      1152.367 6  -1719025.012 6  -1303892.73748  20909087.78548
        47.500          41.000  
  22789400.125 6      2286.372 6  -2929124.613 6  -2247482.78147  22789391.89847
        46.500          33.250  
  22643328.055 6     -1019.772 6    557000.736 6    442765.57647  22643320.23847
        46.000          32.000  
  20129326.227 7      -866.489 7    391481.645 7    314775.90049  20129316.41849
        49.250          42.250  
  24502144.258 3     -3514.336 3   3762096.623 3   2918439.88045  24502132.80945
        35.750          14.750  
  22315843.547 6      1783.760 6  -2622592.368 6  -1999462.07248  22315832.91848
        46.750          34.500  
  21777179.883 6     -2881.931 6   2814013.607 6   2187511.78848  21777168.90248
        47.000          35.750  
  24046022.234 5      3071.320 5  -1969565.978 5  -2909365.10446  24046012.83646
        41.000          22.750  
 11  3 24  2 27 45.0000000  0 11G03G05G06G07G08G10G13G16G19G23G28   
  21767404.914 7      -557.551 7    -60429.688 7    -24785.29348  21767396.39548
        48.500          34.000  
  24480786.48411      1596.51611                                
        28.000  
  23217843.406 6     -1257.474 6    836445.038 6    664644.66547  23217835.70747
        42.500          28.250  
  20905818.727 7      1148.467 7  -1736252.016 7  -1317316.36648  20905809.09448
        47.750          41.000  
  22782878.695 6      2284.501 6  -2963392.123 6  -2274184.71547  22782870.64547
        46.250          33.000  
  22646265.102 6     -1028.876 6    572433.880 6    454791.39047  22646256.75847
        45.750          30.500  
  20131825.320 7      -875.671 7    404616.711 7    325011.01449  20131815.51249
        48.000          41.750  
  24512178.547 1     -3515.502 1   3814829.157 1   2959530.05845  24512167.39145
        33.500          14.750  
  22310775.719 6      1775.399 6  -2649223.351 6  -2020213.45447  22310764.68047
        46.500          33.500  
  21785425.180 7     -2888.383 7   2857339.356 7   2221272.10848  21785413.67248
        48.000          35.750  
  24037265.305 5      3067.715 5  -2015581.700 5  -2945221.45446  24037255.90646
        40.750          22.500  
 11  3 24  2 28  0.0000000  0 10G03G06G07G08G10G13G16G19G23G28      
  21769026.016 7      -567.798 7    -51912.721 7    -18148.69247  21769017.43847
        48.250          33.500  
  23221457.203 6     -1265.857 6    855432.895 6    679440.41747  23221449.03547
        43.750          28.000  
  20902549.695 6      1145.294 6  -1753431.427 6  -1330702.91448  20902540.06348
        47.500          40.750  
  22776361.273 6      2283.363 6  -2997642.564 6  -2300873.35247  22776353.45747
        46.250          33.250  
  22649225.367 6     -1037.234 6    587992.386 6    466914.90847  22649217.08247
        45.000          31.000  
  20134348.891 6      -884.133 6    417878.701 6    335345.03449  20134338.90649
        47.500          41.750  
  24522214.016 1     -3515.898 1   3867567.622 1   3000625.02945  24522202.85945
        33.500          16.250  
  22305730.094 6      1767.747 6  -2675739.556 6  -2040875.41448  22305719.52348
        46.500          34.500  
  21793685.633 6     -2894.087 6   2900750.663 6   2255099.09548  21793674.35948
        46.750          36.000  
  24028516.508 5      3064.829 5  -2061554.135 5  -2981044.06546  24028507.63746
        40.000          22.750  
 11  3 24  2 28 15.0000000  0 10G03G06G07G08G10G13G16G19G23G28      
  21770676.578 7      -578.360 7    -43237.324 7    -11388.63848  21770667.94148
        48.000          34.000  
  23225095.602 6     -1274.540 6    874551.001 6    694337.64247  23225086.90647
        44.750          29.250  
  20899290.273 6      1141.804 6  -1770558.483 6  -1344048.66348  20899280.52348
        47.000          41.250  
  22769847.656 6      2281.899 6  -3031871.056 6  -2327544.89147  22769839.84047
        46.250          33.500  
  22652211.266 6     -1045.883 6    603680.639 6    479139.52447  22652202.98047
        46.000          31.000  
  20136898.070 7      -892.911 7    431272.359 7    345781.65349  20136887.67649
        48.250          42.750  
  24532251.367 1     -3516.609 1   3920316.760 1   3041728.20845  24532240.73845
        33.750          14.750  
  22300706.688 6      1759.759 6  -2702135.935 6  -2061444.01048  22300695.88348
        47.500          34.750  
  21801964.094 6     -2900.107 6   2944252.270 6   2288996.43948  21801952.17648
        46.500          36.250  
  24019777.500 5      3061.612 5  -2107478.311 5  -3016829.10846  24019768.74646
        40.000          22.750  
 11  3 24  2 28 30.0000000  0 10G03G06G07G08G10G13G16G19G23G28      
  21772357.805 7      -588.965 7    -34402.851 7     -4504.62147  21772348.75847
        48.000          33.000  
  23228758.563 6     -1283.276 6    893800.142 6    709336.98247  23228749.75047
        44.250          29.250  
  20896041.547 6      1138.252 6  -1787632.266 6  -1357352.89949  20896032.03149
        47.000          41.500  
  22763338.742 6      2280.398 6  -3066077.033 6  -2354198.87747  22763330.75047
        46.500          32.750  
  22655221.336 6     -1054.577 6    619499.296 6    491465.75147  22655213.16847
        45.750          31.250  
  20139472.273 7      -901.735 7    444798.380 7    356321.39849  20139461.82049
        47.750          42.750  
  24542291.617 1     -3517.345 1   3973076.941 1   3082840.09245  24542281.04745
        33.750          13.750  
  22295706.766 6      1751.703 6  -2728411.488 6  -2081918.44148  22295695.66848
        47.000          34.250  
  21810259.164 6     -2906.149 6   2987844.509 6   2322964.40248  21810248.12548
        46.750          36.000  
  24011047.898 5      3058.336 5  -2153353.348 5  -3052575.84246  24011038.67646
        40.750          25.250  
 11  3 24  2 28 45.0000000  0 11G03G05G06G07G08G10G13G16G19G23G28   
  21774067.922 7      -599.091 7    -25416.480 7      2497.75147  21774059.16847
        48.250          33.250  
  24462749.69512      1563.75012   -662110.81812                
        35.250  
  23232444.992 6     -1291.513 6    913172.836 6    724432.59947  23232436.47347
        44.000          28.500  
  20892801.375 6      1135.188 6  -1804660.089 6  -1370621.34249  20892791.62549
        47.500          41.500  
  22756832.469 6      2279.365 6  -3100267.510 6  -2380840.77647  22756824.24247
        46.250          31.500  
  22658255.266 6     -1062.777 6    635440.945 6    503887.81747  22658246.98047
        46.000          31.500  
  20142069.586 7      -910.078 7    458449.547 7    366958.66349  20142059.60249
        47.750          41.750  
  24552331.344 1     -3517.595 1   4025840.870 1   3123954.78444  24552320.77344
        33.000          12.500  
  22290728.133 6      1744.095 6  -2754572.920 6  -2102303.95048  22290717.15248
        46.500          34.250  
  21818570.031 6     -2911.702 6   3031520.033 6   2356997.27148  21818558.87548
        46.500          35.250  
  24002325.219 5      3055.531 5  -2199186.306 5  -3088289.77046  24002316.93446
        40.000          22.000  
 11  3 24  2 29  0.0000000  0 11G03G05G06G07G08G10G13G16G19G23G28   
  21775809.273 7      -610.094 7    -16265.068 7      9628.73547  21775800.75447
        48.000          33.250  
  24458297.906 2      1559.496 2   -685503.252 2                
        34.500  
  23236157.250 6     -1300.619 6    932682.115 6    739634.64947  23236149.14147
        43.500          28.500  
  20889571.969 6      1131.248 6  -1821628.808 6  -1383843.70448  20889562.27748
        47.500          41.000  
  22750331.383 6      2277.453 6  -3134429.305 6  -2407460.33847  22750323.33247
        46.000          32.250  
  22661314.867 6     -1071.829 6    651518.381 6    516415.68747  22661305.99647
        45.750          31.500  
  20144693.078 6      -919.296 6    472238.983 6    377703.69249  20144683.85549
        47.500          41.750  
  24562376.086 1     -3518.687 1   4078621.178 1                
        33.750  
  22285773.773 6      1735.611 6  -2780607.092 6  -2122590.29747  22285762.96947
        46.250          33.500  
  21826898.945 6     -2918.104 6   3075291.594 6   2391104.99048  21826888.96148
        46.000          36.000  
  23993614.320 4      3051.842 4  -2244963.935 4  -3123960.59546  23993605.50846
        39.000          23.250  
 11  3 24  2 29 15.0000000  0 11G03G05G06G07G08G10G13G16G19G23G28   
  21777581.938 7      -620.954 7     -6950.761 7     16886.64847  21777573.30147
        48.500          33.000  
  24453868.977 1      1550.939 1   -708767.338 1                
        27.500  
  23239895.711 6     -1309.577 6    952325.772 6    754941.38447  23239887.19147
        44.000          28.250  
  20886353.836 6      1127.435 6  -1838540.339 6  -1397021.49348  20886344.32048
        47.250          41.250  
  22743836.148 6      2275.682 6  -3168564.529 6  -2434059.19347  22743827.86347
        46.750          32.750  
  22664399.227 6     -1080.729 6    667729.310 6    529047.57547  22664390.88347
        46.250          31.750  
  20147343.672 7      -928.378 7    486164.646 7    388554.87649  20147333.80549
        49.000          41.750  
  24572422.938 2     -3519.631 2   4131415.649 2                
        34.750  
  22280843.531 6      1727.233 6  -2806515.584 6  -2142778.71048  22280832.90248
        46.750          34.250  
  21835246.656 6     -2924.370 6   3119157.144 6   2425285.93148  21835236.61348
        46.000          35.750  
  23984913.430 5      3048.282 5  -2290688.160 5  -3159589.83046  23984904.26646
        39.750          22.500  
 11  3 24  2 29 30.0000000  0 10G03G06G07G08G10G13G16G19G23G28      
  21779383.078 6      -631.136 6      2516.282 6     24263.56447  21779374.44147
        47.500          32.500  
  23243657.195 6     -1317.863 6    972093.720 6    770344.99147  23243648.67647
        43.500          29.250  
  20883144.984 6      1124.289 6  -1855404.680 6  -1410162.52748  20883135.41048
        47.500          41.250  
  22737343.141 6      2274.578 6  -3202683.197 6  -2460645.15347  22737335.20747
        46.500          32.250  
  22667507.703 6     -1088.947 6    684063.513 6    541775.51847  22667499.12547
        46.500          31.250  
  20150017.961 7      -936.797 7    500216.606 7    399504.44748  20150007.74248
        48.500          41.250  
  24582470.820 2     -3519.879 2   4184213.838 2                
        35.500  
  22275935.594 6      1719.495 6  -2832308.016 6  -2162876.68648  22275924.96548
        46.250          34.500  
  21843610.805 6     -2929.949 6   3163106.375 6   2459532.06348  21843599.06348
        47.250          35.500  
  23976221.016 5      3045.384 5  -2336368.919 5  -3195185.18246  23976212.43846
        40.000          24.250  
 11  3 24  2 29 45.0000000  0 10G03G06G07G08G10G13G16G19G23G28      
  21781214.797 7      -641.658 7     12141.155 7     31763.47447  21781205.75047
        48.000          32.500  
  23247443.078 6     -1326.480 6    991990.917 6    785849.31047  23247435.14547
        43.750          28.000  
  20879945.594 7      1120.793 7  -1872216.577 7  -1423262.69849  20879935.96149
        48.500          41.500  
  22730855.328 6      2273.122 6  -3236780.029 6  -2487214.08847  22730846.98447
        46.750          32.000  
  22670640.563 6     -1097.498 6    700525.985 6    554603.41547  22670632.10247
        46.500          31.000  
  20152716.953 7      -945.557 7    514399.965 7    410556.41349  20152706.91049
        49.500          41.750  
  24592519.313 2     -3520.469 2   4237020.877 2                
        34.750  
  22271050.711 6      1711.404 6  -2857979.070 6  -2182880.08348  22271040.14148
        46.500          34.500  
  21851991.008 6     -2935.860 6   3207144.281 6   2493847.30248  21851979.32448
        47.500          35.500  
  23967537.297 5      3042.111 5  -2382000.589 5  -3230742.27146  23967528.25046
        40.500          25.250  
 11  3 24  2 30  0.0000000  0 11G03G05G06G07G08G10G13G16G19G23G28   
  21783074.938 7      -651.586 7     21914.953 7     39379.43147  21783066.12547
        48.000          33.000  
  24440730.41413      1522.75013   -455393.02913                
        36.000  
  23251252.609 6     -1334.493 6   1012008.320 6    801447.27847  23251243.91447
        42.750          27.500  
  20876754.844 7      1117.887 7  -1888984.886 7  -1436328.90248  20876745.38748
        48.000          41.250  
  22724368.961 6      2272.259 6  -3270863.921 6  -2513772.94447  22724360.61747
        46.750          32.250  
  22673795.555 6     -1105.437 6    717107.545 6    567524.11447  22673787.50447
        46.500          32.000  
  20155438.406 6      -953.725 6    528705.833 6    421703.84849  20155428.71549
        47.500          41.750  
  24602568.367 3     -3520.453 3   4289827.669 3                
        36.750  
  22266186.813 6      1703.880 6  -2883537.267 6  -2202795.54248  22266176.18448
        46.500          34.750  
  21860386.500 6     -2941.163 6   3251261.724 6   2528224.51448  21860374.58248
        46.750          35.500  
  23958861.633 5      3039.426 5  -2427591.979 5  -3266267.95746  23958852.93846
        40.500          23.500  
 11  3 24  2 30 15.0000000  0 11G03G05G06G07G08G10G13G16G19G23G28   
  21784966.766 7      -662.724 7     31855.819 7     47125.56247  21784957.48447
        47.750          33.000  
  24436397.453 4      1518.221 4   -478166.351 4                
        37.500  
  23255088.141 6     -1343.720 6   1032164.120 6    817153.11947  23255079.09447
        44.000          27.500  
  20873575.594 7      1113.754 7  -1905691.195 7  -1449346.79249  20873566.25449
        49.250          41.500  
  22717888.703 6      2270.182 6  -3304916.650 6  -2540307.51747  22717880.59447
        45.750          32.500  
  22676977.133 6     -1114.588 6    733826.366 6    580551.75247  22676968.90647
        46.250          31.500  
  20158188.133 7      -963.113 7    543152.524 7    432961.01649  20158177.91449
        48.000          41.500  
  24612621.055 3     -3521.634 3   4342652.175 3                
        36.250  
  22261348.547 6      1695.123 6  -2908964.104 6  -2222608.64748  22261337.97748
        47.000          35.000  
  21868799.383 6     -2947.668 6   3295476.744 6   2562677.77148  21868788.22748
        46.250          35.250  
  23950196.625 5      3035.516 5  -2473124.725 5  -3301747.96946  23950187.98846
        40.000          24.500  
 11  3 24  2 30 30.0000000  0 11G03G05G06G07G08G10G13G16G19G23G28   
  21786888.109 6      -673.232 6     41954.292 6     54994.51547  21786879.23847
        47.500          33.000  
  24432086.164 2      1509.924 2   -500815.208 2                
        35.500  
  23258948.297 6     -1352.312 6   1052448.796 6    832959.36447  23258939.54347
        42.750          27.500  
  20870406.242 7      1110.246 7  -1922344.883 7  -1462323.68348  20870397.25448
        49.750          41.000  
  22711413.141 6      2268.717 6  -3338947.401 6  -2566824.96647  22711404.91447
        45.500          31.500  
  22680183.086 6     -1123.107 6    750672.968 6    593678.97847  22680174.74247
        45.000          31.250  
  20160962.258 7      -971.895 7    557730.955 7    444320.83548  20160952.21548
        49.500          41.250  
  24622674.695 3     -3522.183 3   4395484.913 3                
        36.500  
  22256533.539 6      1686.962 6  -2934268.535 6  -2242326.35948  22256522.44148
        46.500          35.000  
  21877229.625 6     -2953.539 6   3339779.836 6   2597199.64848  21877218.35248
        46.500          34.750  
  23941541.344 5      3032.213 5  -2518607.923 5  -3337189.38146  23941532.47346
        40.500          25.000  
 11  3 24  2 30 45.0000000  0 11G03G05G06G07G08G10G13G16G19G23G28   
  21788842.227 7      -684.427 7     52220.695 7     62994.31647  21788832.82847
        47.750          33.000  
  24427795.69511      1497.06311                                
        24.500  
  23262834.477 6     -1361.562 6   1072872.229 6    848873.73947  23262826.13347
        44.500          27.500  
  20867249.258 7      1106.061 7  -1938935.792 7  -1475251.65648  20867240.09448
        49.000          41.000  
  22704943.609 6      2266.569 6  -3372945.941 6  -2593317.31447  22704935.38347
        46.000          31.750  
  22683414.984 6     -1132.275 6    767657.087 6    606913.34547  22683406.75847
        45.000          32.000  
  20163763.273 7      -981.335 7    572450.976 7    455790.98249  20163753.05549
        48.750          42.250  
  24632733.352 3     -3523.376 3   4448335.545 3                
        37.000  
  22251743.344 6      1678.107 6  -2959440.134 6  -2261940.57548  22251732.77348
        47.000          35.000  
  21885678.773 6     -2960.074 6   3384180.940 6   2631797.91948  21885668.02748
        45.750          35.000  
  23932897.586 5      3028.234 5  -2564031.437 5  -3372584.26946  23932889.12546
        39.500          24.500  
 11  3 24  2 31  0.0000000  0 10G03G06G07G08G10G13G16G19G23G28      
  21790823.836 6      -694.334 6     62635.704 6     71109.91647  21790814.26247
        47.000          32.750  
  23266744.430 6     -1369.543 6   1093415.367 6    864881.38947  23266736.08647
        44.750          27.500  
  20864100.445 7      1103.135 7  -1955482.817 7  -1488145.43148  20864090.87148
        50.000          40.750  
  22698476.117 6      2265.702 6  -3406931.471 6  -2619799.53347  22698467.59847
        46.000          33.000  
  22686669.430 6     -1140.156 6    784759.429 6    620239.84747  22686661.02747
        46.500          31.000  
  20166587.664 7      -989.499 7    587293.458 7    467356.54549  20166577.97349
        49.750          42.000  
  24642788.359 3     -3523.298 3   4501185.015 3                
        36.500  
  22246975.320 6      1670.494 6  -2984497.540 6  -2281465.80048  22246964.39848
        47.500          34.500  
  21894143.164 6     -2965.322 6   3428660.775 6   2666457.52548  21894132.35948
        46.500          34.500  
  23924262.031 5      3025.512 5  -2609414.121 5  -3407947.35446  23924252.92646
        39.750          24.250  
 11  3 24  2 31 15.0000000  0 11G03G05G06G07G08G10G13G16G19G23G28   
  21792831.758 6      -703.519 6     73188.487 6     79332.87647  21792822.47747
        47.500          33.000  
  24419305.71113      1480.92213   -278431.18013                
        35.750  
  23270673.656 6     -1376.785 6   1114067.142 6    880973.69247  23270665.07847
        43.000          27.750  
  20860958.102 7      1100.930 7  -1971996.764 7  -1501013.43348  20860948.70348
        49.000          41.250  
  22692009.914 6      2265.549 6  -3440914.708 6  -2646279.96747  22692001.16047
        46.750          33.000  
  22689944.258 6     -1147.300 6    801968.924 6    633649.83447  22689936.32447
        45.750          31.000  
  20169433.648 7      -996.935 7    602247.476 7    479009.02349  20169423.19549
        49.250          42.250  
  24652842.352 2     -3522.466 2   4554022.010 2                
        35.500  
  22242226.633 6      1663.583 6  -3009451.281 6  -2300910.24848  22242215.41848
        47.000          35.000  
  21902621.195 6     -2969.833 6   3473208.271 6   2701169.85048  21902609.51248
        46.500          35.250  
  23915632.328 5      3023.499 5  -2654766.614 5  -3443286.88746  23915622.28546
        40.250          24.000  
 11  3 24  2 31 30.0000000  0 11G03G05G06G07G08G10G13G16G19G23G28   
  21794874.391 6      -715.689 6     83923.816 6     87698.07147  21794865.57847
        47.250          32.250  
  24415083.930 4      1476.246 4   -300574.868 4                
        37.750  
  23274633.125 6     -1386.997 6   1134872.097 6    897185.35647  23274624.48847
        43.500          27.750  
  20857830.430 7      1095.738 7  -1988432.832 7  -1513820.74548  20857820.44548
        49.750          41.250  
  22685551.641 6      2262.410 6  -3474850.854 6  -2672723.70047  22685543.18047
        46.750          32.750  
  22693248.055 6     -1157.420 6    819330.220 6    647178.10647  22693239.77047
        46.000          31.500  
  20172308.750 7     -1007.372 7    617358.060 7    490783.51049  20172298.82449
        48.000          42.000  
  24662901.617 2     -3524.609 2   4606891.152 2                
        34.000  
  22237506.289 6      1653.683 6  -3034256.527 6  -2320238.98448  22237495.19148
        46.500          34.750  
  21911119.969 6     -2977.315 6   3517867.997 6   2735969.61848  21911108.22748
        46.000          35.000  
  23907015.555 5      3018.497 5  -2700044.075 5  -3478567.97846  23907005.92246
        40.250          23.750  
 11  3 24  2 31 45.0000000  0 11G03G05G06G07G08G10G13G16G19G23G28   
  21796947.352 6      -726.104 6     94815.376 6     96185.00947  21796938.18847
        46.750          32.750  
  24410893.523 3      1467.969 3   -322594.399 3                
        37.000  
  23278615.398 6     -1395.469 6   1155804.125 6    913496.03547  23278607.17247
        43.750          26.750  
  20854712.234 7      1092.289 7  -2004817.169 7  -1526587.75248  20854702.66048
        49.250          41.000  
  22679097.891 6      2261.017 6  -3508766.103 6  -2699151.14347  22679089.25447
        47.000          33.000  
  22696575.781 6     -1165.783 6    836816.972 6    660804.15347  22696567.43847
        46.500          31.750  
  20175208.867 7     -1016.063 7    632599.011 7    502659.57949  20175198.82449
        48.500          41.750  
  24672963.719 1     -3524.992 1   4659766.025 1                
        33.250  
  22232809.570 6      1645.510 6  -3058939.183 6  -2339472.21148  22232798.53148
        47.000          34.750  
  21919634.281 6     -2983.040 6   3562613.590 6   2770836.30448  21919623.24248
        46.500          34.500  
  23898408.625 5      3015.210 5  -2745272.220 5  -3513810.65046  23898399.16846
        40.250          22.750  
 11  3 24  2 32  0.0000000  0 11G03G05G06G07G08G10G13G16G19G23G28   
  21799049.250 7      -736.502 7    105862.898 7    104793.47447  21799040.32047
        47.750          32.250  
  24406723.125 1      1459.716 1   -344490.147 1                
        33.500  
  23282623.188 6     -1403.893 6   1176862.519 6    929905.18447  23282614.49247
        44.000          28.000  
  20851604.664 7      1088.852 7  -2021149.949 7  -1539314.57148  20851595.03148
        49.750          41.000  
  22672647.547 6      2259.631 6  -3542660.567 6  -2725562.40347  22672639.26247
        47.000          32.500  
  22699926.914 6     -1174.103 6    854428.516 6    674527.42047  22699918.80547
        45.250          31.750  
  20178134.086 7     -1024.725 7    647969.879 7    514636.87548  20178124.10248
        48.000          41.250  
  24683025.375 1     -3525.333 1   4712646.014 1                
        33.000  
  22228135.836 6      1637.335 6  -3083499.208 6  -2358609.87548  22228124.73848
        47.500          34.500  
  21928164.844 6     -2988.736 6   3607444.623 6   2805769.56548  21928154.03948
        46.000          34.750  
  23889810.750 5      3011.941 5  -2790451.335 5  -3549015.09846  23889802.11346
        40.000          24.750  
 11  3 24  2 32 15.0000000  0 10G03G06G07G08G10G13G16G19G23G28      
  21801183.828 6      -747.632 6    117077.376 6    113532.03047  21801174.25447
        47.500          33.000  
  23286656.648 6     -1413.064 6   1198058.473 6    946421.52147  23286648.24647
        43.750          27.500  
  20848508.266 7      1084.683 7  -2037420.188 7  -1551992.67049  20848498.69149
        50.000          41.500  
  22666204.180 7      2257.511 7  -3576523.232 7  -2751948.87248  22666195.30948
        47.750          34.000  
  22703303.734 6     -1183.140 6    872175.616 6    688356.33147  22703296.15247
        45.500          31.500  
  20181086.328 7     -1034.126 7    663481.767 7    526724.05449  20181075.75849
        49.000          41.750  
  24693091.820 2     -3526.398 2   4765541.978 2                
        34.500  
  22223487.352 6      1628.396 6  -3107925.153 6  -2377643.05448  22223476.66448
        47.000          35.250  
  21936714.367 6     -2995.143 6   3652371.768 6   2840777.72948  21936703.38748
        46.250          34.500  
  23881224.797 5      3007.935 5  -2835570.358 5  -3584172.73846  23881216.57046
        39.750          23.000  
 11  3 24  2 32 30.0000000  0 10G03G06G07G08G10G13G16G19G23G28      
  21803345.648 7      -757.404 7    128438.435 7    122384.81547  21803336.07447
        48.000          33.000  
  23290712.648 6     -1420.870 6   1219371.524 6    963029.09547  23290703.89547
        44.250          27.000  
  20845420.008 7      1081.853 7  -2053647.982 7  -1564637.69249  20845410.78549
        51.000          41.500  
  22659762.352 7      2256.739 7  -3610374.324 7  -2778326.33848  22659753.59848
        48.500          33.750  
  22706703.227 6     -1190.821 6    890037.926 6    702275.00247  22706694.47347
        45.750          31.000  
  20184061.156 7     -1042.184 7    679114.534 7    538905.42849  20184050.64549
        48.000          41.750  
  24703157.789 2     -3526.105 2   4818433.547 2                
        35.250  
  22218861.266 6      1620.771 6  -3132236.715 6  -2396587.10648  22218850.28548
        47.000          34.750  
  21945278.281 7     -3000.198 7   3697374.732 7   2875844.96648  21945267.00848
        48.000          34.000  
  23872646.438 4      3005.262 4  -2880649.287 4  -3619299.13246  23872637.74246
        38.750          22.750  
 11  3 24  2 32 45.0000000  0 11G03G05G06G07G08G10G13G16G19G23G28   
  21805535.578 6      -767.274 6    139947.544 6    131352.96047  21805526.41447
        46.250          32.750  
  24394368.87513      1430.70313    -73630.78413                
        36.250  
  23294790.922 6     -1428.761 6   1240802.939 6    979728.90447  23294782.46147
        44.000          27.750  
  20842340.367 7      1078.918 7  -2069831.756 7  -1577248.42149  20842330.91049
        49.750          41.750  
  22653323.117 6      2255.861 6  -3644212.235 6  -2804693.52248  22653314.65648
        47.250          33.750  
  22710124.266 6     -1198.581 6    908016.643 6    716284.39047  22710116.03947
        45.500          31.000  
  20187058.828 7     -1050.341 7    694869.645 7    551182.14249  20187049.02049
        48.250          42.000  
  24713223.430 3     -3525.896 3   4871321.983 3                
        36.750  
  22214256.938 6      1613.038 6  -3156432.282 6  -2415440.76648  22214246.36748
        47.000          34.750  
  21953856.352 6     -3005.333 6   3742454.719 6   2910972.21948  21953845.25448
        46.500          34.000  
  23864076.250 5      3002.470 5  -2925686.342 5  -3654392.90046  23864067.78946
        40.000          23.750  
 11  3 24  2 33  0.0000000  0 11G03G05G06G07G08G10G13G16G19G23G28   
  21807756.867 6      -778.358 6    151622.909 6    140450.65347  21807748.46547
        46.000          33.000  
  24390297.391 4      1426.268 4    -95024.801 4                
        38.250  
  23298894.969 6     -1437.862 6   1262370.871 6    996535.09747  23298886.33247
        44.000          27.000  
  20839272.672 7      1074.754 7  -2085953.059 7  -1589810.47248  20839263.03948
        50.000          41.250  
  22646890.016 6      2253.764 6  -3678018.695 6  -2831036.20447  22646881.61347
        47.250          33.500  
  22713571.148 6     -1207.556 6    926129.987 6    730398.68547  22713563.09847
        45.750          31.000  
  20190083.688 7     -1059.722 7    710765.480 7    563568.51049  20190073.70349
        49.500          42.250  
  24723292.055 3     -3526.899 3   4924225.461 3                
        36.500  
  22209678.352 6      1604.064 6  -3180493.241 6  -2434189.54948  22209667.37148
        47.500          35.250  
  21962452.930 6     -3011.681 6   3787629.932 6   2946173.66948  21962441.65648
        46.750          34.500  
  23855517.914 5      2998.442 5  -2970662.976 5  -3689439.56546  23855509.16046
        39.750          24.500  
 11  3 24  2 33 15.0000000  0 11G03G05G06G07G08G10G13G16G19G23G28   
  21810008.797 6      -788.851 6    163455.668 6    149670.98547  21810000.33647
        45.500          33.000  
  24386247.398 3      1417.834 3   -116292.309 3                
        36.000  
  23303023.492 6     -1446.381 6   1284066.579 6   1013440.86347  23303014.50447
        42.500          26.750  
  20836215.188 7      1071.165 7  -2102020.539 7  -1602330.58348  20836205.49648
        49.750          41.000  
  22640461.117 6      2252.252 6  -3711802.468 6  -2857361.20447  22640452.71547
        47.000          33.000  
  22717042.008 6     -1215.925 6    944368.868 6    744610.78747  22717033.89847
        45.500          32.000  
  20193133.680 7     -1068.511 7    726793.142 7    576057.59949  20193123.63749
        50.000          42.000  
  24733361.367 3     -3527.290 3   4977134.817 3                
        37.250  
  22205123.656 6      1595.654 6  -3204428.053 6  -2452840.02248  22205112.96948
        47.000          35.500  
  21971065.734 6     -3017.420 6   3832891.229 6   2981442.20448  21971055.10548
        46.500          34.000  
  23846969.453 5      2995.000 5  -3015587.982 5  -3724446.04446  23846960.23046
        39.750          22.500  
 11  3 24  2 33 30.0000000  0 11G03G05G06G07G08G10G13G16G19G23G28   
  21812291.281 6      -799.647 6    175450.375 6    159017.52347  21812282.64547
        46.750          33.500  
  24382219.359 1      1409.080 1   -137428.503 1                
        29.000  
  23307177.211 6     -1455.175 6   1305894.209 6   1030449.41247  23307168.39847
        44.250          27.000  
  20833168.813 7      1067.273 7  -2118029.636 7  -1614805.19949  20833159.23849
        49.500          41.500  
  22634037.766 6      2250.429 6  -3745558.904 6  -2883664.90047  22634029.12947
        47.500          33.250  
  22720537.594 6     -1224.584 6    962737.624 6    758924.10647  22720529.36747
        46.250          30.750  
  20196209.383 7     -1077.608 7    742957.262 7    588653.01949  20196199.39849
        50.250          41.500  
  24743431.508 3     -3527.966 3   5030054.314 3                
        36.750  
  22200593.266 6      1586.931 6  -3228232.013 6  -2471388.54348  22200582.93048
        47.000          34.750  
  21979696.211 6     -3023.451 6   3878242.987 6   3016781.23048  21979685.52348
        47.000          34.000  
  23838430.547 5      2991.246 5  -3060456.679 5  -3759408.59846  23838421.67646
        39.500          25.250  
 11  3 24  2 33 45.0000000  0 10G03G06G07G08G10G13G16G19G23G28      
  21814602.875 6      -809.705 6    187595.950 6    168481.61847  21814593.71147
        46.500          32.250  
  23311353.930 6     -1463.245 6   1327842.878 6   1047552.28047  23311345.64547
        44.500          27.000  
  20830131.367 7      1064.119 7  -2133991.424 7  -1627242.94948  20830122.02748
        49.750          41.250  
  22627616.727 6      2249.334 6  -3779298.911 6  -2909955.78947  22627608.32447
        46.500          33.000  
  22724055.891 6     -1232.493 6    981225.021 6    773329.85347  22724047.19547
        47.000          31.500  
  20199309.219 7     -1085.976 7    759246.900 7    601346.23749  20199298.94149
        50.000          41.500  
  24753500.406 3     -3527.904 3   5082972.881 3                
        36.000  
  22196086.695 7      1578.908 7  -3251915.629 7  -2489843.28848  22196076.06648
        47.750          35.000  
  21988341.516 6     -3028.741 6   3923674.101 6   3052182.09348  21988330.47748
        46.500          34.000  
  23829901.234 5      2988.206 5  -3105279.774 5  -3794335.63046  23829892.12946
        40.000          24.000  
 11  3 24  2 34  0.0000000  0 11G03G05G06G07G08G10G13G16G19G23G28   
  21816944.063 6      -820.217 6    199899.199 6    178068.57347  21816935.01647
        46.000          32.500  
  24374251.46112      1388.03112                                
        34.500  
  23315554.344 6     -1471.752 6   1349919.155 6   1064754.58747  23315546.76247
        44.500          27.500  
  20827104.234 7      1060.488 7  -2149898.748 7  -1639638.25748  20827094.71948
        49.000          41.250  
  22621201.133 6      2247.767 6  -3813015.419 6  -2936228.38047  22621192.55547
        47.250          33.500  
  22727597.313 6     -1240.852 6    999837.800 6    787833.31347  22727588.79347
        46.500          30.500  
  20202434.680 7     -1094.811 7    775669.069 7    614142.73549  20202424.75449
        49.500          41.750  
  24763571.602 1     -3528.289 1   5135897.214 1                
        33.000  
  22191604.250 6      1570.397 6  -3275471.586 6  -2508198.56048  22191593.03548
        47.250          34.750  
  21997003.227 6     -3034.486 6   3969191.393 6   3087650.10347  21996991.95347
        45.500          33.500  
  23821380.680 5      2984.709 5  -3150050.406 5  -3829221.78246  23821372.10246
        39.250          22.750  
 11  3 24  2 34 15.0000000  0 11G03G05G06G07G08G10G13G16G19G23G28   
  21819314.391 6      -830.600 6    212358.193 6    187776.88747  21819305.93047
        46.500          32.500  
  24370300.578 3      1380.297 3    121658.179 3                
        36.750  
  23319779.250 6     -1480.127 6   1372121.053 6   1082054.78047  23319771.37547
        42.500          27.000  
  20824087.125 7      1056.987 7  -2165753.549 7  -1651992.63948  20824077.90248
        49.250          40.750  
  22614788.875 7      2246.330 7  -3846710.372 7  -2962484.17848  22614780.59048
        47.750          34.000  
  22731162.680 6     -1249.063 6   1018573.750 6    802432.76047  22731154.21947
        45.000          31.250  
  20205584.289 7     -1103.502 7    792221.597 7    627040.81349  20205574.65649
        49.500          42.000  
  24773639.570 1     -3528.520 1   5188825.019 1                
        31.000  
  22187145.648 6      1561.996 6  -3298901.533 6  -2526455.64048  22187134.72748
        46.500          35.500  
  22005681.344 6     -3040.080 6   4014792.595 6   3123183.49548  22005669.83648
        46.500          34.000  
  23812871.484 5      2981.301 5  -3194769.920 5  -3864068.12246  23812862.32046
        40.000          22.500  
 11  3 24  2 34 30.0000000  0 11G03G05G06G07G08G10G13G16G19G23G28   
  21821715.805 6      -841.224 6    224976.558 6    197609.38947  21821706.75847
        47.000          32.500  
  24366372.273 3      1375.537 3    101025.127 3                
        35.750  
  23324028.992 6     -1488.739 6   1394452.134 6   1099455.63446  23324020.82446
        43.250          26.250  
  20821080.664 7      1053.233 7  -2181552.038 7  -1664303.13749  20821071.09049
        49.500          41.500  
  22608381.766 6      2244.653 6  -3880380.173 6  -2988720.36647  22608373.65647
        47.500          33.250  
  22734752.391 6     -1257.511 6   1037436.418 6    817130.93947  22734743.98847
        46.000          31.500  
  20208759.578 7     -1112.447 7    808908.295 7    640043.43249  20208749.94549
        49.750          42.250  
  24783713.680 1     -3528.990 1   5241759.866 1                
        31.500  
  22182712.000 6      1553.342 6  -3322201.659 6  -2544611.55948  22182700.96148
        47.250          35.000  
  22014375.109 6     -3045.899 6   4060481.078 6   3158784.89248  22014364.07048
        47.250          34.500  
  23804371.281 5      2977.649 5  -3239434.658 5  -3898871.76946  23804363.34846
        40.500          25.000  
 11  3 24  2 34 45.0000000  0 11G03G05G06G07G08G10G13G16G19G23G28   
  21824146.656 6      -851.696 6    237751.996 6    207564.28447  21824138.43047
        47.500          32.500  
  24362468.656 1      1367.023 1     80519.776 1                
        33.000  
  23328303.055 6     -1497.194 6   1416910.037 6   1116955.29947  23328294.00847
        44.500          27.500  
  20818084.703 7      1049.604 7  -2197296.095 7  -1676571.21948  20818075.36348
        49.500          41.000  
  22601979.008 6      2243.107 6  -3914026.780 6  -3014938.47348  22601971.07448
        47.500          33.750  
  22738365.414 6     -1265.798 6   1056423.394 6    831925.97547  22738357.30547
        46.500          31.250  
  20211959.930 7     -1121.246 7    825726.989 7    653148.91249  20211950.06349
        49.500          41.500  
  24793789.711 1     -3529.294 1   5294699.278 1                
        33.500  
  22178302.547 6      1544.811 6  -3345373.826 6  -2562667.77448  22178291.27348
        47.250          35.250  
  22023085.195 6     -3051.564 6   4106254.532 6   3194452.50948  22023074.27348
        46.000          33.750  
  23795882.813 5      2974.127 5  -3284046.568 5  -3933634.25446  23795873.76646
        40.250          25.500  
 11  3 24  2 35  0.0000000  0 11G03G05G06G07G08G10G13G16G19G23G28   
  21826607.648 6      -862.044 6    250682.650 6    217640.12247  21826598.66047
        46.500          32.500  
  24358585.69511      1354.25011                                
        29.250  
  23332600.484 6     -1505.521 6   1439492.853 6   1134552.29447  23332591.08647
        43.500          27.500  
  20815098.750 7      1046.099 7  -2212987.587 7  -1688798.34148  20815089.00048
        50.000          41.000  
  22595580.328 6      2241.670 6  -3947651.826 6  -3041139.78847  22595571.69147
        47.000          33.500  
  22742001.328 6     -1273.953 6   1075532.683 6    846816.32547  22741993.33647
        46.250          31.000  
  20215185.383 7     -1129.920 7    842675.789 7    666355.76948  20215175.16448
        50.000          41.250  
  24803866.117 1     -3529.474 1   5347641.385 1                
        33.250  
  22173916.766 6      1536.369 6  -3368419.362 6  -2580625.31048  22173906.37148
        47.000          35.500  
  22031810.992 6     -3057.109 6   4152111.160 6   3230184.93747  22031800.94947
        46.500          33.500  
  23787403.203 5      2970.708 5  -3328607.188 5  -3968356.78346  23787394.27346
        41.500          24.250  
 11  3 24  2 35 15.0000000  0 11G03G05G06G07G08G10G13G16G19G23G28   
  21829098.453 6      -872.537 6    263770.708 6    227838.61647  21829089.46547
        45.500          32.750  
  24354736.031 1      1345.984 1     39889.537 1                
        33.500  
  23336921.789 6     -1513.982 6   1462202.584 6   1152248.18747  23336912.97747
        44.000          27.500  
  20812123.094 7      1042.451 7  -2228624.358 7  -1700982.83548  20812113.28548
        48.000          41.000  
  22589186.195 6      2240.090 6  -3981253.182 6  -3067322.63547  22589177.55947
        47.000          33.500  
  22745661.586 6     -1282.224 6   1094766.049 6    861803.36047  22745653.47747
        46.250          31.500  
  20218435.672 7     -1138.740 7    859756.892 7    679665.71248  20218425.62948
        49.500          41.000  
  24813942.273 2     -3529.785 2   5400588.161 2                
        34.500  
  22169555.625 6      1527.767 6  -3391335.874 6  -2598482.31148  22169545.23048
        47.250          35.750  
  22040553.617 6     -3062.785 6   4198052.938 6   3265983.72148  22040543.10548
        46.000          34.000  
  23778933.789 5      2967.143 5  -3373114.333 5  -4003037.63346  23778924.91846
        40.750          24.750  
 11  3 24  2 35 30.0000000  0 11G03G05G06G07G08G10G13G16G19G23G28   
  21831618.328 6      -882.807 6    277012.820 6    238157.15447  21831608.98847
        45.750          32.500  
  24350910.172 3      1341.717 3     19763.786 3                
        36.250  
  23341266.703 6     -1522.228 6   1485035.998 6   1170040.48747  23341257.71547
        43.750          28.250  
  20809157.688 7      1039.009 7  -2244209.486 7  -1713127.07849  20809148.17249
        48.750          41.500  
  22582796.234 6      2238.712 6  -4014833.860 6  -3093489.37648  22582787.77348
        47.000          34.000  
  22749344.648 6     -1290.283 6   1114120.296 6    876884.59347  22749336.30547
        46.000          30.500  
  20221710.500 7     -1147.361 7    876967.303 7    693076.42149  20221700.80949
        50.250          41.750  
  24824017.289 1     -3529.866 1   5453536.155 1                
        33.250  
  22165219.039 6      1519.354 6  -3414126.187 6  -2616240.98048  22165207.94148
        47.500          35.000  
  22049311.867 6     -3068.239 6   4244076.516 6   3301846.24047  22049301.06347
        47.000          33.500  
  23770473.992 5      2963.773 5  -3417570.924 5  -4037679.09946  23770464.77046
        41.000          26.000  
 11  3 24  2 35 45.0000000  0 11G03G05G06G07G08G10G13G16G19G23G28   
  21834167.875 6      -893.229 6    290411.249 6    248597.49647  21834158.88747
        46.000          32.500  
  24347104.516 3      1333.207 3      -234.323 3                
        37.250  
  23345635.750 6     -1530.612 6   1507995.178 6   1187930.76847  23345627.23047
        43.750          27.750  
  20806202.070 7      1035.409 7  -2259740.623 7  -1725229.25849  20806192.37949
        49.250          42.000  
  22576410.320 6      2237.188 6  -4048391.676 6  -3119638.30747  22576402.09447
        47.500          33.250  
  22753051.242 6     -1298.469 6   1133597.330 6    892061.48747  22753042.84047
        46.500          30.000  
  20225010.922 7     -1156.117 7    894309.063 7    706589.48949  20225001.05549
        50.000          41.500  
  24834093.391 1     -3530.089 1   5506487.491 1                
        33.750  
  22160906.586 6      1510.778 6  -3436787.854 6  -2633899.40348  22160895.95748
        47.500          35.250  
  22058085.898 6     -3073.812 6   4290183.701 6   3337773.90748  22058074.68448
        46.500          34.000  
  23762023.953 5      2960.248 5  -3461974.638 5  -4072279.33546  23762015.19946
        41.000          25.500  
 11  3 24  2 36  0.0000000  0 11G03G05G06G07G08G10G13G16G19G23G28   
  21836747.477 6      -903.664 6    303966.212 6    259159.80847  21836737.84447
        45.500          32.500  
  24343321.633 2      1324.671 2    -20104.389 2                
        34.750  
  23350028.641 6     -1539.012 6   1531080.366 6   1205919.22547  23350020.53147
        43.000          27.500  
  20803257.133 7      1031.779 7  -2275217.313 7  -1737289.00849  20803247.55949
        48.750          41.500  
  22570029.086 6      2235.643 6  -4081926.314 6  -3145769.16848  22570020.56648
        47.000          33.750  
  22756780.992 6     -1306.665 6   1153197.312 6    907334.19947  22756772.41447
        45.250          31.000  
  20228336.266 7     -1164.911 7    911782.723 7    720205.32849  20228326.28149
        50.750          41.500  
  24844170.531 1     -3530.316 1   5559442.232 1                
        31.000  
  22156619.039 6      1502.157 6  -3459320.202 6  -2651457.06348  22156608.11748
        47.000          35.000  
  22066876.063 6     -3079.405 6   4336374.775 6   3373766.94348  22066864.96548
        47.500          34.000  
  23753584.102 5      2956.676 5  -3506324.779 5  -4106837.83446  23753575.64146
        40.250          24.000  
 11  3 24  2 36 15.0000000  0 11G03G05G06G07G08G10G13G16G19G23G28   
  21839356.781 6      -914.134 6    317678.221 6    269844.49847  21839347.50047
        46.000          32.500  
  24339561.578 1      1316.070 1    -39845.446 1                
        31.500  
  23354445.047 6     -1547.424 6   1554291.727 6   1224006.01347  23354437.05547
        43.250          26.500  
  20800322.102 7      1028.109 7  -2290638.941 7  -1749305.84049  20800312.41049
        49.000          41.500  
  22563652.070 6      2234.050 6  -4115437.062 6  -3171881.41548  22563643.37548
        47.250          33.750  
  22760534.336 6     -1314.892 6   1172920.694 6    922703.07347  22760526.05147
        46.750          31.000  
  20231686.570 7     -1173.726 7    929388.621 7    733924.20549  20231676.52749
        50.750          41.500  
  24854247.289 1     -3530.563 1   5612400.679 1                
        29.250  
  22152356.086 6      1493.473 6  -3481722.293 6  -2668913.22048  22152344.98848
        47.500          35.000  
  22075681.938 6     -3085.016 6   4382650.016 6   3409825.56747  22075670.31347
        47.000          33.500  
  23745155.242 5      2953.067 5  -3550620.789 5  -4141354.17546  23745146.19546
        40.750          24.250  
 11  3 24  2 36 30.0000000  0 11G03G05G06G07G08G10G13G16G19G23G28   
  21841997.117 6      -925.030 6    331553.673 6    280656.55247  21841987.66047
        43.750          32.250  
  24335830.766 1      1307.028 1    -59450.867 1                
        32.500  
  23358887.703 6     -1556.271 6   1577635.795 6   1242196.19347  23358879.00847
        42.750          27.000  
  20797399.109 7      1023.998 7  -2305998.917 7  -1761274.64749  20797389.77049
        47.750          42.000  
  22557280.508 6      2232.029 6  -4148917.490 6  -3197970.04048  22557272.22348
        47.500          34.000  
  22764311.695 6     -1323.527 6   1192773.603 6    938172.86747  22764303.41047
        46.750          30.000  
  20235062.984 7     -1182.982 7    947133.357 7    747751.27149  20235052.76649
        50.500          41.500  
  24864323.11711     -3530.81011   2514529.16511                
        28.500  
  22148119.117 6      1484.346 6  -3503987.487 6  -2686262.70448  22148108.31348
        47.250          35.500  
  22084505.125 7     -3091.048 7   4429015.733 7   3445954.68548  22084493.91048
        47.750          33.750  
  23736737.688 5      2949.008 5  -3594855.912 5  -4175823.06446  23736728.69946
        40.750          24.250  
 11  3 24  2 36 45.0000000  0 10G03G05G06G07G08G10G13G19G23G28      
  21844665.734 6      -934.938 6    345577.740 6    291584.39647  21844656.80547
        44.500          32.000  
  24332126.727 2      1298.979 2    -78935.548 2                
        35.500  
  23363351.836 6     -1564.103 6   1601097.340 6   1260477.92447  23363343.78547
        43.000          27.500  
  20794485.047 7      1020.873 7  -2321312.010 7  -1773206.90749  20794475.41449
        48.250          41.500  
  22550912.492 7      2230.977 7  -4182382.152 7  -3224046.37947  22550904.38347
        47.750          33.500  
  22768111.438 6     -1331.147 6   1212740.802 6    953731.71247  22768103.21147
        45.000          30.500  
  20238463.063 7     -1191.236 7    965001.891 7    761674.79749  20238453.43049
        49.500          41.750  
  22143905.359 7      1476.186 7  -3526130.282 7  -2703516.80548  22143894.32048
        48.000          35.000  
  22093342.734 6     -3096.073 6   4475456.825 6   3482142.53848  22093331.63748
        47.250          33.750  
  23728328.242 5      2945.936 5  -3639044.952 5  -4210256.04046  23728319.89846
        40.250          25.000  
 11  3 24  2 37  0.0000000  0 10G03G05G06G07G08G10G13G19G23G28      
  21847363.781 6      -945.282 6    359756.976 6    302633.16647  21847354.44147
        45.250          32.500  
  24328443.000 3      1290.466 3    -98292.542 3                
        35.750  
  23367840.297 6     -1572.384 6   1624683.093 6   1278856.43047  23367831.95347
        43.500          27.000  
  20791581.461 7      1017.291 7  -2336571.375 7  -1785097.31049  20791571.88749
        48.750          41.500  
  22544548.742 7      2229.484 7  -4215824.410 7  -3250105.26348  22544540.34048
        47.750          33.750  
  22771934.391 6     -1339.210 6   1232828.947 6    969384.80847  22771925.87147
        46.000          30.750  
  20241888.156 7     -1199.960 7    983001.289 7    775700.31049  20241878.34849
        50.250          41.500  
  22139716.211 7      1467.551 7  -3548143.541 7  -2720669.96648  22139705.75848
        47.750          35.750  
  22102195.844 7     -3101.536 7   4521979.872 7   3518394.24747  22102184.10247
        48.000          33.250  
  23719929.531 5      2942.395 5  -3683180.878 5  -4244647.62346  23719920.30946
        41.000          24.250  
 11  3 24  2 37 15.0000000  0 10G03G05G06G07G08G10G13G19G23G28      
  21850091.984 6      -955.688 6    374092.297 6    313803.54747  21850082.70347
        45.250          32.750  
  24324783.188 2      1281.876 2   -117520.684 2                
        34.750  
  23372352.875 6     -1580.733 6   1648394.088 6   1297332.54247  23372344.06347
        42.500          27.000  
  20788688.102 7      1013.633 7  -2351775.865 7  -1796944.95449  20788678.64549
        49.500          42.000  
  22538189.336 7      2227.915 7  -4249243.133 7  -3276145.81148  22538180.75848
        48.250          33.750  
  22775780.344 6     -1347.324 6   1253038.803 6    985132.74147  22775771.41447
        46.500          31.500  
  20245338.523 7     -1208.739 7   1001132.371 7    789828.41748  20245328.59848
        50.750          41.250  
  22135552.203 6      1458.828 6  -3570025.960 6  -2737721.19448  22135541.10548
        47.500          35.000  
  22111064.602 7     -3107.066 7   4568585.856 7   3554710.58747  22111053.44547
        48.250          33.500  
  23711541.500 5      2938.772 5  -3727262.460 5  -4278996.88146  23711532.27746
        41.000          25.250  
 11  3 24  2 37 30.0000000  0 10G03G05G06G07G08G10G13G19G23G28      
  21852849.367 6      -966.084 6    388583.561 6    325095.44347  21852840.49647
        44.250          33.250  
  24321145.875 1      1273.265 1   -136619.656 1                
        31.750  
  23376889.258 6     -1589.054 6   1672229.905 6   1315905.90847  23376879.85947
        43.000          26.500  
  20785805.539 7      1009.970 7  -2366925.415 7  -1808749.78248  20785795.84848
        49.250          41.250  
  22531834.391 7      2226.336 7  -4282638.174 7  -3302167.89348  22531825.81348
        48.000          34.000  
  22779649.000 6     -1355.431 6   1273370.270 6   1000975.43547  22779640.59847
        47.000          31.500  
  20248814.438 7     -1217.515 7   1019395.095 7    804059.11049  20248804.16049
        51.500          42.000  
  22131413.234 6      1450.086 6  -3591777.248 6  -2754670.23048  22131402.07848
        47.000          35.250  
  22119948.781 6     -3112.570 6   4615274.401 6   3591091.26248  22119938.03548
        47.250          34.000  
  23703163.617 5      2935.139 5  -3771289.548 5  -4313303.67446  23703153.92646
        42.000          24.000  
 11  3 24  2 37 45.0000000  0 10G03G05G06G07G08G10G13G19G23G28      
  21855636.320 6      -976.459 6    403230.450 6    336508.61547  21855627.50847
        45.750          32.500  
  24317536.648 1      1264.674 1   -155589.761 1                
        32.500  
  23381448.391 6     -1597.360 6   1696190.308 6   1334576.36346  23381439.69546
        42.500          26.000  
  20782932.813 7      1006.320 7  -2382020.212 7  -1820511.95148  20782923.00448
        49.000          41.250  
  22525484.445 7      2224.774 7  -4316009.777 7  -3328171.72748  22525475.86748
        48.500          34.000  
  22783540.891 6     -1363.488 6   1293822.597 6   1016912.30447  22783532.89847
        45.750          30.500  
  20252314.148 7     -1226.271 7   1037789.158 7    818392.13749  20252304.57449
        50.750          41.500  
  22127299.117 6      1441.355 6  -3613397.580 6  -2771517.22148  22127288.02048
        47.250          35.500  
  22128849.031 6     -3118.040 6   4662045.000 6   3627535.88148  22128837.99248
        47.250          34.250  
  23694796.188 6      2931.525 6  -3815262.424 6  -4347568.21846  23694786.55546
        42.500          25.750  
 11  3 24  2 38  0.0000000  0 11G03G05G06G07G08G10G13G16G19G23G28   
  21858451.688 6      -986.249 6    418024.184 6    348036.20647  21858442.64147
        45.750          32.750  
  24313949.953 2      1256.651 2   -174439.521 2                
        34.750  
  23386029.469 6     -1605.066 6   1720266.298 6   1353336.88947  23386020.89147
        43.250          27.000  
  20780069.008 7      1003.258 7  -2397069.077 7  -1832238.32948  20780059.49248
        49.750          41.000  
  22519136.219 7      2223.795 7  -4349366.699 7  -3354164.11347  22519127.93447
        47.750          33.000  
  22787453.617 6     -1370.957 6   1314386.955 6   1032936.47147  22787445.91847
        46.500          30.000  
  20255837.852 7     -1234.453 7   1056305.957 7    832820.81849  20255828.10249
        51.250          41.500  
  24924803.20311     -3531.20311    774767.76411                
        33.500  
  22123207.805 7      1433.176 7  -3634895.219 7  -2788268.61748  22123196.70748
        48.000          35.000  
  22137763.461 6     -3122.925 6   4708888.874 6   3664037.58448  22137752.42248
        47.500          33.750  
  23686436.727 5      2928.475 5  -3859189.542 5  -4381797.09646  23686427.09446
        42.000          24.500  
 11  3 24  2 38 15.0000000  0 11G03G05G06G07G08G10G13G16G19G23G28   
  21861297.531 6      -997.097 6    432980.633 6    359690.59447  21861288.66047
        46.000          33.000  
  24310390.375 2      1247.553 2   -193152.820 2                
        35.500  
  23390635.453 6     -1613.813 6   1744473.495 6   1372199.63747  23390626.69947
        42.500          27.000  
  20777217.078 7       999.129 7  -2412056.012 7  -1843916.45049  20777207.91449
        49.750          41.500  
  22512794.266 6      2221.760 6  -4382693.097 6  -3380132.72347  22512786.21547
        47.500          33.250  
  22791391.398 6     -1379.469 6   1335078.990 6   1049060.11847  22791384.16847
        46.500          30.750  
  20259387.836 7     -1243.700 7   1074961.460 7    847357.57749  20259377.73449
        51.000          42.000  
  24934882.438 1     -3531.441 1    827739.378 1                
        33.250  
  22119143.633 6      1423.921 6  -3656254.041 6  -2804911.83348  22119132.35948
        47.000          34.500  
  22146694.727 7     -3128.848 7   4755821.600 7   3700608.53648  22146682.92648
        48.250          34.000  
  23678089.922 6      2924.354 6  -3903054.846 6  -4415977.79946  23678079.70346
        42.750          25.750  
 11  3 24  2 38 30.0000000  0 11G03G05G06G07G08G10G13G16G19G23G28   
  21864173.398 6     -1007.489 6    448092.971 6    371466.44647  21864164.46947
        46.000          33.250  
  24306853.297 1      1238.884 1   -211736.082 1                
        33.500  
  23395266.406 6     -1622.130 6   1768805.442 6   1391159.60947  23395257.06647
        42.750          26.750  
  20774376.086 7       995.422 7  -2426987.345 7  -1855551.24349  20774366.27749
        50.000          41.500  
  22506457.008 7      2220.150 7  -4415995.344 7  -3406082.50748  22506448.72348
        48.500          34.250  
  22795352.680 6     -1387.530 6   1355891.938 6   1065277.99447  22795344.51247
        46.000          30.500  
  20262962.945 7     -1252.494 7   1093748.874 7    861997.11949  20262952.84449
        51.000          42.000  
  24944962.289 1     -3531.548 1    880712.592 1                
        31.750  
  22115104.242 6      1415.084 6  -3677480.295 6  -2821451.75148  22115093.08648
        47.500          34.750  
  22155641.477 7     -3134.315 7   4802836.328 7   3737243.37847  22155629.32447
        48.000          33.250  
  23669751.953 5      2920.663 5  -3946864.798 5  -4450115.38646  23669743.14146
        42.000          24.000  
 11  3 24  2 38 45.0000000  0 11G03G05G06G07G08G10G13G16G19G23G28   
  21867079.219 6     -1017.865 6    463360.940 6    383363.57447  21867069.93847
        44.750          33.000  
  24303340.852 1      1230.233 1   -230189.577 1                
        33.000  
  23399919.625 6     -1630.395 6   1793261.361 6   1410216.16747  23399910.93047
        43.000          27.250  
  20771545.063 7       991.738 7  -2441863.410 7  -1867142.97648  20771535.43048
        49.250          41.000  
  22500124.742 7      2218.554 7  -4449273.651 7  -3432013.63647  22500115.98847
        47.750          33.500  
  22799335.578 6     -1395.547 6   1376825.144 6   1081589.57547  22799327.58647
        46.500          31.000  
  20266563.125 7     -1261.253 7   1112667.665 7    876739.02449  20266553.02349
        51.250          42.000  
  24955042.711 1     -3531.631 1    933687.053 1                
        31.000  
  22111090.430 7      1406.250 7  -3698574.048 7  -2837888.42748  22111079.03948
        48.500          34.750  
  22164603.000 7     -3139.757 7   4849932.679 7   3773941.81848  22164591.96148
        48.000          34.000  
  23661425.352 5      2916.978 5  -3990619.474 5  -4484209.89646  23661416.65646
        41.000          24.500  
 11  3 24  2 39  0.0000000  0 11G03G05G06G07G08G10G13G16G19G23G28   
  21870015.500 6     -1028.739 6    478792.020 6    395387.79747  21870006.45347
        45.000          33.000  
  24299856.859 2      1221.050 2   -248505.328 2                
        34.250  
  23404598.891 5     -1639.172 5   1817848.933 5   1429375.30447  23404589.55147
        41.500          27.750  
  20768726.539 7       987.534 7  -2456676.427 7  -1878685.57048  20768716.55548
        49.000          41.000  
  22493797.828 7      2216.446 7  -4482520.348 7  -3457920.14247  22493789.71947
        48.000          33.000  
  22803343.258 6     -1404.058 6   1397886.015 6   1098000.63847  22803335.38347
        46.250          30.750  
  20270189.281 7     -1270.538 7   1131725.742 7    891589.47648  20270179.70748
        51.000          41.000  
  24965124.344 1     -3532.195 1    986669.972 1                
        29.000  
  22107103.445 7      1396.884 7  -3719527.314 7  -2854215.62648  22107091.82048
        47.750          35.000  
  22173581.828 7     -3145.690 7   4897118.036 7   3810709.61448  22173570.96548
        48.000          34.000  
  23653111.414 5      2912.767 5  -4034310.982 5  -4518255.19846  23653102.77746
        41.000          25.500  
 11  3 24  2 39 15.0000000  0 11G03G05G06G07G08G10G13G16G19G23G28   
  21872979.516 6     -1038.461 6    494368.938 6    407525.66447  21872970.52747
        45.000          32.500  
  24296395.227 2      1213.009 2   -266700.467 2                
        34.500  
  23409299.148 5     -1646.808 5   1842551.059 5   1448623.71447  23409290.57047
        42.250          27.500  
  20765915.930 7       984.464 7  -2471443.382 7  -1890192.26648  20765906.35548
        48.750          40.750  
  22487474.383 6      2215.461 6  -4515752.264 6  -3483815.12947  22487465.51247
        47.500          33.250  
  22807371.977 6     -1411.423 6   1419057.365 6   1114497.79147  22807363.75047
        46.000          30.500  
  20273839.273 7     -1278.683 7   1150905.990 7    906535.13249  20273829.75849
        50.250          41.500  
  24975206.20311     -3531.92211                                
        28.500  
  22103139.586 6      1388.643 6  -3740356.957 6  -2870446.50748  22103128.07848
        47.500          35.500  
  22182574.102 7     -3150.472 7   4944375.122 7   3847533.30847  22182563.47347
        47.750          33.500  
  23644806.258 5      2909.683 5  -4077956.232 5  -4552264.42946  23644797.15246
        41.000          25.500  
 11  3 24  2 39 30.0000000  0 11G03G05G06G07G08G10G13G16G19G23G28   
  21875973.523 6     -1048.759 6    510100.320 6    419783.89147  21875964.00847
        45.500          32.250  
  24292957.133 2      1204.386 2   -284766.257 2                
        35.250  
  23414022.563 6     -1654.992 6   1867375.945 6   1467967.78946  23414015.21546
        42.500          25.000  
  20763116.633 7       980.817 7  -2486155.640 7  -1901656.35248  20763106.59048
        48.000          41.000  
  22481154.906 6      2213.905 6  -4548960.845 6  -3509691.93147  22481145.91847
        47.250          33.500  
  22811423.742 6     -1419.348 6   1440347.584 6   1131087.56147  22811415.75047
        45.750          31.250  
  20277514.336 7     -1287.405 7   1170217.068 7    921582.72949  20277504.52749
        51.500          42.000  
  24985283.50811     -3531.15611                                
        26.750  
  22099200.711 7      1379.808 7  -3761054.071 7  -2886574.10448  22099189.49648
        47.750          35.500  
  22191582.195 6     -3155.812 6   4991712.303 6   3884419.42148  22191571.80148
        47.250          33.750  
  23636511.500 6      2906.022 6  -4121546.562 6  -4586230.87446  23636502.04346
        42.500          25.250  
 11  3 24  2 39 45.0000000  0 11G03G05G06G07G08G10G13G16G19G23G28   
  21878996.328 6     -1059.072 6    525986.405 6    432162.66547  21878987.28147
        45.500          32.500  
  24289543.023 1      1195.721 1   -302702.065 1                
        33.000  
  23418770.195 5     -1663.199 5   1892323.925 5   1487407.78146  23418762.08646
        41.750          25.750  
  20760327.164 6       977.131 6  -2500812.612 6  -1913077.35249  20760317.82449
        47.250          41.500  
  22474840.094 6      2212.327 6  -4582145.750 6  -3535550.27747  22474831.04747
        47.500          33.500  
  22815497.875 6     -1427.270 6   1461756.636 6   1147769.92947  22815490.41047
        46.500          30.500  
  20281214.180 7     -1296.148 7   1189659.291 7    936732.50549  20281204.02049
        51.250          42.000  
  24995361.89111     -3531.34411                                
        25.250  
  22095287.906 7      1370.919 7  -3781617.856 7  -2902597.81048  22095276.28148
        48.000          36.250  
  22200605.500 6     -3161.171 6   5039129.868 6   3921368.17148  22200595.04748
        47.250          33.750  
  23628226.156 5      2902.317 5  -4165081.317 5  -4620154.01546  23628217.87146
        41.750          25.250  
 11  3 24  2 40  0.0000000  0 10G03G05G06G07G08G10G13G19G23G28      
  21882048.578 6     -1069.409 6    542027.542 6    444662.26647  21882039.70747
        45.000          32.250  
  24286152.383 1      1187.013 1   -320507.259 1                
        31.500  
  23423541.602 5     -1671.418 5   1917395.188 5   1506943.83246  23423533.19946
        42.000          25.500  
  20757548.602 7       973.418 7  -2515413.879 7  -1924454.94948  20757539.14548
        48.250          41.250  
  22468529.484 6      2210.720 6  -4615306.543 6  -3561389.84148  22468521.31648
        47.250          33.750  
  22819594.563 6     -1435.204 6   1483284.689 6   1164545.04347  22819585.80947
        46.750          30.750  
  20284939.109 7     -1304.914 7   1209233.000 7    951984.74248  20284928.83248
        51.250          41.250  
  22091399.773 7      1361.993 7  -3802047.756 7  -2918517.18148  22091388.79348
        48.500          35.250  
  22209644.586 7     -3166.533 7   5086627.865 7   3958379.59247  22209633.54747
        48.000          33.500  
  23619953.047 5      2898.585 5  -4208560.086 5  -4654033.51946  23619944.29346
        42.000          25.500  
 11  3 24  2 40 15.0000000  0 10G03G05G06G07G08G10G13G19G23G28      
  21885130.875 6     -1079.665 6    558222.519 6    457281.73547  21885121.41847
        46.000          33.000  
  24282791.688 2      1178.378 2   -338182.932 2                
        35.000  
  23428335.922 6     -1679.544 6   1942588.350 6   1526574.85946  23428326.34846
        42.500          25.750  
  20754780.648 7       969.772 7  -2529960.464 7  -1935789.94149  20754770.78149
        49.000          41.750  
  22462223.234 6      2209.183 6  -4648444.288 6  -3587211.44447  22462215.00847
        47.250          33.250  
  22823714.320 6     -1443.049 6   1504930.420 6   1181411.82447  22823705.62547
        46.500          30.250  
  20288688.570 7     -1313.601 7   1228937.015 7    967338.52749  20288678.00049
        51.000          41.500  
  22087537.633 7      1353.122 7  -3822344.585 7  -2934332.87148  22087526.35948
        48.500          36.500  
  22218698.547 7     -3171.800 7   5134204.859 7   3995452.55647  22218686.80547
        48.250          33.500  
  23611689.070 5      2894.911 5  -4251983.744 5  -4687870.09746  23611680.60946
        41.750          26.000  
 11  3 24  2 40 30.0000000  0 10G03G05G06G07G08G10G13G19G23G28      
  21888241.141 6     -1089.876 6    574570.653 6    470020.54947  21888232.03547
        45.000          32.750  
  24279455.094 2      1169.778 2   -355729.598 2                
        35.000  
  23433153.820 6     -1687.636 6   1967902.884 6   1546300.47946  23433144.18846
        43.000          25.250  
  20752022.766 7       966.156 7  -2544452.808 7  -1947082.67349  20752013.13349
        48.500          41.500  
  22455921.875 7      2207.677 7  -4681559.443 7  -3613015.44247  22455913.82447
        47.750          33.500  
  22827853.750 6     -1450.845 6   1526693.095 6   1198369.74547  22827845.99247
        46.250          30.000  
  20292462.578 7     -1322.250 7   1248770.764 7    982793.39549  20292452.59449
        51.000          41.750  
  22083700.492 7      1344.268 7  -3842508.602 7  -2950045.07948  22083689.27748
        48.000          36.000  
  22227767.180 7     -3177.025 7   5181860.239 7   4032586.60147  22227755.02747
        49.500          33.250  
  23603436.875 6      2891.262 6  -4295352.667 6  -4721664.02846  23603427.47746
        42.500          25.500  
 11  3 24  2 40 45.0000000  0 10G03G05G06G07G08G10G13G19G23G28      
  21891381.906 6     -1100.177 6    591073.310 6    482879.77747  21891372.68447
        45.500          32.250  
  24276139.422 3      1161.077 3   -373145.752 3                
        36.250  
  23437993.875 5     -1695.800 5   1993339.877 5   1566121.51246  23437984.88746
        42.250          25.250  
  20749275.875 7       962.444 7  -2558889.464 7  -1958332.01849  20749265.65649
        48.500          41.750  
  22449625.672 7      2206.065 7  -4714650.415 7  -3638800.59748  22449616.50848
        48.000          34.000  
  22832018.422 6     -1458.712 6   1548573.770 6   1215419.61047  22832009.78547
        46.500          30.000  
  20296261.695 7     -1330.988 7   1268735.580 7    998350.38849  20296251.47749
        51.500          41.500  
  22079888.773 7      1335.313 7  -3862538.295 7  -2965652.61248  22079877.73448
        48.000          35.750  
  22236850.414 7     -3182.331 7   5229595.209 7   4069782.66947  22236839.08247
        47.750          33.250  
  23595195.203 5      2887.509 5  -4338665.302 5  -4755414.09646  23595186.15646
        42.250          25.250  
 11  3 24  2 41  0.0000000  0 11G03G05G06G07G08G10G13G16G19G23G28   
  21894551.516 6     -1110.473 6    607730.406 6    495859.33947  21894542.58647
        45.250          32.500  
  24272847.703 1      1152.346 1   -390430.943 1                
        33.500  
  23442856.977 5     -1703.956 5   2018899.221 5   1586037.89447  23442848.51647
        41.500          26.500  
  20746539.086 7       958.717 7  -2573270.224 7  -1969537.79549  20746529.33649
        49.000          41.500  
  22443332.961 6      2204.444 6  -4747717.075 6  -3664566.81348  22443324.26648
        47.500          34.000  
  22836205.430 6     -1466.574 6   1570572.377 6   1232561.38047  22836196.03147
        46.500          30.000  
  20300085.563 7     -1339.739 7   1288831.658 7   1014009.67249  20300076.16449
        50.500          41.750  
  25045767.86713     -3531.25013                                
        36.000  
  22076102.984 7      1326.326 7  -3882433.189 7  -2981155.10848  22076091.82848
        48.000          36.000  
  22245948.984 6     -3187.630 6   5277409.654 6   4107040.66848  22245938.00448
        47.500          33.750  
  23586963.391 6      2883.744 6  -4381921.466 6  -4789120.14347  23586954.16847
        43.250          27.500  
 11  3 24  2 41 15.0000000  0 11G03G05G06G07G08G10G13G16G19G23G28   
  21897748.672 6     -1120.201 6    624533.425 6    508952.61647  21897740.03547
        46.500          33.000  
  24269581.148 1      1144.158 1   -407593.317 1                
        32.000  
  23447742.578 6     -1711.554 6   2044572.533 6   1606043.07946  23447734.29346
        42.500          25.000  
  20743811.625 7       955.535 7  -2587603.248 7  -1980706.37648  20743801.81648
        49.250          41.250  
  22437043.328 7      2203.360 7  -4780767.469 7  -3690320.34447  22437034.86747
        47.750          33.500  
  22840411.766 6     -1473.854 6   1592680.183 6   1249788.23247  22840403.07047
        46.500          30.500  
  20303933.078 7     -1347.934 7   1309050.671 7   1029764.74649  20303924.14849
        50.750          41.500  
  25055845.266 3     -3531.031 3   -332567.337 3                
        36.500  
  22072341.227 7      1317.872 7  -3902201.266 7  -2996558.78648  22072330.24648
        47.750          36.000  
  22255061.125 6     -3192.361 6   5325295.076 6   4144353.98247  22255050.08647
        47.500          33.000  
  23578741.219 6      2880.509 6  -4425129.105 6  -4822788.39147  23578732.17247
        43.250          27.250  
 11  3 24  2 41 30.0000000  0 11G03G05G06G07G08G10G13G16G19G23G28   
  21900977.148 6     -1130.991 6    641498.291 6    522172.00047  21900968.33647
        45.000          32.500  
  24266342.906 1      1134.917 1   -424617.074 1                
        33.250  
  23452652.633 5     -1720.203 5   2070375.581 5   1626149.36646  23452644.05546
        42.000          26.000  
  20741096.195 7       951.292 7  -2601872.635 7  -1991825.36549  20741086.09449
        49.750          41.500  
  22430760.445 7      2201.222 7  -4813785.800 7  -3716048.90048  22430751.22348
        48.250          34.250  
  22844643.063 6     -1482.192 6   1614913.065 6   1267112.54347  22844634.54347
        46.250          31.000  
  20307807.766 7     -1357.187 7   1329408.481 7   1045627.97749  20307797.89849
        51.250          42.000  
  25065923.336 3     -3531.009 3   -279602.205 3                
        36.000  
  22068606.289 7      1308.332 7  -3921826.241 7  -3011850.95948  22068595.19148
        48.000          36.250  
  22264190.375 6     -3198.138 6   5373267.147 6   4181734.80748  22264179.04348
        47.500          34.000  
  23570531.531 6      2876.208 6  -4468272.224 6  -4856406.35746  23570522.48446
        42.500          25.500  
 11  3 24  2 41 45.0000000  0 11G03G05G06G07G08G10G13G16G19G23G28   
  21904234.742 6     -1141.236 6    658616.833 6    535511.13347  21904225.57847
        45.250          32.250  
  24263129.578 2      1126.199 2   -441510.061 2                
        35.000  
  23457586.602 5     -1728.308 5   2096300.206 5   1646350.36246  23457577.20346
        41.000          25.500  
  20738391.383 7       947.567 7  -2616086.147 7  -2002900.81348  20738381.75048
        48.500          41.000  
  22424481.719 6      2199.618 6  -4846780.068 6  -3741758.70048  22424473.19948
        47.500          34.250  
  22848895.484 6     -1489.978 6   1637262.734 6   1284527.86447  22848887.43447
        46.500          30.000  
  20311706.953 7     -1365.903 7   1349897.033 7   1061593.07049  20311696.55949
        52.250          42.000  
  25076000.305 2     -3530.885 2   -226638.936 2                
        34.500  
  22064897.766 7      1299.313 7  -3941315.936 7  -3027037.71248  22064887.02048
        48.000          36.000  
  22273334.359 7     -3203.368 7   5421317.663 7   4219176.76147  22273322.85247
        48.000          32.750  
  23562331.813 5      2872.434 5  -4511358.730 5  -4889980.21546  23562322.70746
        41.750          25.500  
 11  3 24  2 42  0.0000000  0 11G03G05G06G07G08G10G13G16G19G23G28   
  21907521.539 6     -1151.428 6    675888.254 6    548969.39147  21907512.31647
        46.250          32.250  
  24259938.406 2      1117.513 2   -458272.751 2                
        35.500  
  23462542.484 5     -1736.343 5   2122345.348 5   1666645.28146  23462533.32046
        42.000          25.250  
  20735697.133 7       943.895 7  -2630244.576 7  -2013933.34548  20735687.73448
        49.750          41.250  
  22418207.438 7      2198.058 7  -4879750.937 7  -3767450.27748  22418199.03548
        47.750          34.000  
  22853170.539 6     -1497.695 6   1659728.163 6   1302033.37747  22853162.31347
        46.000          30.250  
  20315629.953 7     -1374.564 7   1370515.496 7   1077659.39049  20315620.02749
        51.750          41.750  
  25086078.461 2     -3530.686 2   -173678.650 2                
        34.000  
  22061214.375 6      1290.323 6  -3960670.777 6  -3042119.39048  22061203.62948
        47.500          35.750  
  22282493.164 7     -3208.529 7   5469445.594 7   4256679.02847  22282481.07047
        48.000          33.250  
  23554143.664 5      2868.688 5  -4554389.056 5  -4923510.29146  23554134.61746
        42.000          26.000  
 11  3 24  2 42 15.0000000  0 11G03G05G06G07G08G10G13G16G19G23G28   
  21910837.523 6     -1161.662 6    693313.179 6    562547.26847  21910828.53547
        45.250          32.250  
  24256772.914 2      1108.767 2   -474904.254 2                
        35.000  
  23467521.703 5     -1744.419 5   2148511.634 5   1687034.59246  23467512.01246
        41.750          26.250  
  20733013.563 7       940.171 7  -2644347.142 7  -2024922.34949  20733003.75449
        48.500          41.750  
  22411937.734 7      2196.437 7  -4912697.498 7  -3793122.91048  22411929.33248
        48.000          33.750  
  22857467.805 6     -1505.445 6   1682309.845 6   1319629.49047  22857459.34447
        45.750          29.750  
  20319578.211 7     -1383.309 7   1391265.137 7   1093827.94648  20319568.52048
        51.000          41.250  
  25096155.023 2     -3530.524 2   -120720.786 2                
        34.250  
  22057557.516 7      1281.269 7  -3979889.819 7  -3057095.23848  22057546.65248
        48.750          35.500  
  22291666.383 6     -3213.733 6   5517651.591 6   4294242.12047  22291654.52347
        47.500          33.000  
  23545965.383 5      2864.887 5  -4597362.354 5  -4956995.93546  23545957.27346
        42.250          25.750  
 11  3 24  2 42 30.0000000  0 11G03G05G06G07G08G10G13G16G19G23G28   
  21914182.406 6     -1171.874 6    710891.295 6    576244.50347  21914173.30147
        45.250          33.000  
  24253632.930 2      1100.018 2   -491404.522 2                
        34.000  
  23472523.867 5     -1752.482 5   2174798.861 5   1707518.13346  23472514.99646
        41.250          24.250  
  20730340.813 7       936.438 7  -2658393.716 7  -2035867.71649  20730331.06349
        49.250          41.500  
  22405672.703 7      2194.811 7  -4945619.667 7  -3818776.52048  22405664.24248
        48.000          34.500  
  22861787.445 6     -1513.169 6   1705007.386 6   1337315.88647  22861778.75047
        46.250          30.500  
  20323551.680 7     -1392.011 7   1412145.299 7   1110098.20048  20323542.04748
        51.500          40.750  
  25106232.141 3     -3530.358 3    -67765.418 3                
        35.750  
  22053925.844 7      1272.204 7  -3998972.884 7  -3071965.14648  22053915.21548
        48.000          36.000  
  22300854.273 6     -3218.914 6   5565935.299 6   4331865.77847  22300842.23847
        47.250          33.000  
  23537799.609 5      2861.083 5  -4640278.597 5  -4990437.11946  23537789.85946
        41.250          25.500  
 11  3 24  2 42 45.0000000  0 11G03G05G06G07G08G10G13G16G19G23G28   
  21917556.328 6     -1182.035 6    728621.826 6    590060.51747  21917547.51647
        46.250          33.000  
  24250518.477 2      1091.311 2   -507774.180 2                
        35.000  
  23477548.977 5     -1760.488 5   2201206.179 5   1728095.28547  23477540.45747
        40.500          26.750  
  20727678.078 7       932.762 7  -2672385.147 7  -2046770.12549  20727668.50449
        50.000          41.500  
  22399412.281 6      2193.251 6  -4978518.425 6  -3844411.90248  22399403.99648
        47.000          35.000  
  22866128.344 6     -1520.832 6   1727819.870 6   1355091.84047  22866119.64847
        47.000          30.500  
  20327550.180 7     -1400.649 7   1433155.032 7   1126469.41048  20327539.72748
        52.250          41.250  
  25116309.484 3     -3530.110 3    -14813.771 3                
        36.000  
  22050320.711 7      1263.165 7  -4017920.354 7  -3086729.38048  22050309.90648
        48.000          36.500  
  22310056.586 6     -3224.031 6   5614295.758 6   4369549.24747  22310045.19547
        46.750          32.250  
  23529643.109 6      2857.316 6  -4683138.335 6  -5023834.27746  23529634.59046
        42.500          25.750  
 11  3 24  2 43  0.0000000  0 11G03G05G06G07G08G10G13G16G19G23G28   
  21920959.305 6     -1192.209 6    746504.954 6    603995.42647  21920950.25847
        45.500          32.250  
  24247428.797 2      1082.578 2   -524012.843 2                
        34.250  
  23482597.273 5     -1768.497 5   2227733.633 5   1748766.03146  23482588.98846
        42.000          26.000  
  20725026.109 7       929.043 7  -2686320.787 7  -2057629.05249  20725016.71149
        50.000          41.500  
  22393156.625 6      2191.646 6  -5011393.108 6  -3870028.52548  22393148.39848
        46.500          34.500  
  22870491.055 6     -1528.490 6   1750747.224 6   1372957.29747  22870482.53547
        46.500          31.000  
  20331572.992 7     -1409.316 7   1454294.772 7   1142941.91749  20331562.71549
        51.000          41.750  
  25126384.148 3     -3529.895 3     38134.652 3                
        36.250  
  22046740.516 6      1254.086 6  -4036731.642 6  -3101387.50548  22046729.88748
        46.500          36.000  
  22319273.648 6     -3229.154 6   5662733.072 6   4407292.59547  22319262.96147
        46.500          33.000  
  23521498.047 6      2853.517 6  -4725941.097 6  -5057187.03346  23521489.05946
        43.000          24.000  
 11  3 24  2 43 15.0000000  0 11G03G05G06G07G08G10G13G16G19G23G28   
  21924391.086 6     -1202.371 6    764540.515 6    618049.12047  21924382.39147
        45.750          32.250  
  24244363.648 2      1073.849 2   -540120.572 2                
        35.500  
  23487668.570 5     -1776.487 5   2254380.938 5   1769530.16047  23487660.05147
        41.250          26.500  
  20722385.250 7       925.331 7  -2700200.758 7  -2068444.60149  20722375.26649
        49.500          41.500  
  22386905.547 6      2190.059 6  -5044243.996 6  -3895626.60648  22386896.73448
        46.750          34.500  
  22874876.164 6     -1536.130 6   1773789.175 6   1390912.04747  22874867.70347
        46.000          31.250  
  20335619.703 7     -1417.965 7   1475564.241 7   1159515.53649  20335610.12949
        51.000          42.000  
  25136459.539 3     -3529.641 3     91079.271 3                
        37.000  
  22043186.734 6      1245.007 6  -4055406.754 6  -3115939.51648  22043175.87148
        46.500          36.500  
  22328505.359 6     -3234.255 6   5711246.897 6   4445095.57647  22328494.84847
        47.000          33.000  
  23513363.961 6      2849.719 6  -4768686.883 6  -5090495.40647  23513354.56347
        43.000          27.000  
 11  3 24  2 43 30.0000000  0 11G03G05G06G07G08G10G13G16G19G23G28   
  21927852.445 6     -1212.534 6    782728.523 6    632221.61047  21927843.51647
        44.500          32.250  
  24241322.797 1      1065.099 1   -556097.057 1                
        33.750  
  23492761.523 5     -1784.469 5   2281147.972 5   1790387.58847  23492753.06347
        41.500          26.750  
  20719753.992 7       921.611 7  -2714024.927 7  -2079216.67449  20719744.47749
        49.500          41.750  
  22380658.359 6      2188.457 6  -5077070.853 6  -3921205.96048  22380650.25048
        47.000          34.500  
  22879282.594 6     -1543.764 6   1796945.633 6   1408956.04747  22879273.89847
        46.500          30.750  
  20339691.352 7     -1426.635 7   1496963.764 7   1176190.49949  20339682.12949
        50.500          41.500  
  25146535.156 3     -3529.388 3    144020.088 3                
        36.750  
  22039659.352 6      1235.897 6  -4073945.212 6  -3130385.04448  22039648.43048
        47.500          36.000  
  22337752.227 6     -3239.343 6   5759837.049 6   4482958.01347  22337740.83647
        46.750          32.500  
  23505240.305 5      2845.901 5  -4811375.405 5  -5123759.14247  23505231.31647
        42.250          27.250  
 11  3 24  2 43 45.0000000  0 11G03G05G06G07G08G10G13G16G19G23G28   
  21931342.227 6     -1222.698 6    801069.000 6    646512.89447  21931333.94147
        45.500          32.500  
  24238307.477 1      1056.321 1   -571941.871 1                
        33.000  
  23497877.172 5     -1792.463 5   2308034.911 5   1811338.45647  23497868.88747
        41.000          26.500  
  20717134.047 7       917.859 7  -2727792.818 7  -2089944.88948  20717124.53148
        50.500          41.000  
  22374416.734 6      2186.820 6  -5109873.152 6  -3946766.17648  22374408.27348
        47.500          35.000  
  22883710.836 6     -1551.398 6   1820216.602 6   1427089.26247  22883702.19947
        47.000          31.500  
  20343788.875 7     -1435.317 7   1518493.517 7   1192966.92748  20343779.00848
        51.000          41.250  
  25156608.375 4     -3529.147 4    196957.299 4                
        37.500  
  22036157.781 6      1226.758 6  -4092346.588 6  -3144723.76648  22036146.15648
        47.000          35.750  
  22347013.383 6     -3244.446 6   5808503.732 6   4520880.09247  22347001.93447
        47.000          32.250  
  23497128.242 6      2842.063 6  -4854006.352 6  -5156978.01846  23497119.02046
        43.250          26.000  
 11  3 24  2 44  0.0000000  0 11G03G05G06G07G08G10G13G16G19G23G28   
  21934861.742 6     -1232.849 6    819561.730 6    660922.82647  21934852.52047
        47.000          32.750  
  24235317.414 2      1047.554 2   -587655.180 2                
        34.500  
  23503016.039 5     -1800.429 5   2335041.348 5   1832382.42846  23503007.87146
        41.250          25.500  
  20714525.008 7       914.113 7  -2741504.517 7  -2100629.29749  20714515.25849
        50.250          41.500  
  22368179.281 6      2185.187 6  -5142650.962 6  -3972307.31448  22368170.29348
        47.500          34.000  
  22888161.125 6     -1558.991 6   1843601.473 6   1445311.23947  22888151.90247
        46.500          30.500  
  20347910.938 7     -1443.993 7   1540153.410 7   1209844.76249  20347900.89549
        52.000          41.500  
  25166680.578 3     -3528.879 3    249890.480 3                
        36.250  
  22032682.203 6      1217.608 6  -4110610.710 6  -3158955.52348  22032670.46148
        47.000          36.000  
  22356288.727 7     -3249.524 7   5857246.587 7   4558861.51847  22356277.57047
        47.750          33.000  
  23489026.156 5      2838.214 5  -4896579.564 5  -5190151.90246  23489017.69546
        41.750          25.250  
 11  3 24  2 44 15.0000000  0 11G03G05G06G07G08G10G13G16G19G23G28   
  21938409.500 6     -1243.018 6    838207.005 6    675451.61647  21938400.45347
        47.250          32.500  
  24232352.750 2      1038.739 2   -603236.270 2                
        34.500  
  23508178.195 5     -1808.395 5   2362167.265 5   1853519.50847  23508169.79347
        40.750          27.750  
  20711926.711 7       910.339 7  -2755159.609 7  -2111269.62349  20711917.19549
        50.000          41.500  
  22361946.297 6      2183.544 6  -5175404.118 6  -3997829.24648  22361937.48448
        45.500          34.500  
  22892632.430 6     -1566.595 6   1867100.396 6   1463622.08647  22892623.79347
        47.500          30.250  
  20352057.234 7     -1452.683 7   1561943.657 7   1226824.16549  20352047.36749
        51.750          41.500  
  25176753.602 2     -3528.599 2    302819.463 2                
        34.750  
  22029233.078 6      1208.415 6  -4128736.940 6  -3173079.84448  22029221.33648
        46.500          35.750  
  22365578.313 6     -3254.601 6   5906065.596 6   4596902.29547  22365567.50847
        47.000          32.500  
  23480935.898 5      2834.347 5  -4939094.772 5  -5223280.61146  23480926.55946
        42.250          25.500  
 11  3 24  2 44 30.0000000  0 11G03G05G06G07G08G10G13G16G19G23G28   
  21941986.672 6     -1253.142 6    857004.141 6    690098.74347  21941977.56647
        47.500          32.750  
  24229413.445 3      1029.966 3   -618685.767 3                
        36.000  
  23513364.234 5     -1816.331 5   2389412.232 5   1874749.36046  23513355.36346
        42.250          26.000  
  20709338.906 7       906.594 7  -2768758.523 7  -2121866.17148  20709328.98048
        50.000          41.250  
  22355718.328 6      2181.926 6  -5208133.009 6  -4023332.26248  22355709.45748
        47.500          34.250  
  22897125.734 6     -1574.153 6   1890712.686 6   1482021.26247  22897116.80547
        46.500          30.250  
  20356228.563 7     -1461.335 7   1583863.687 7   1243904.70349  20356219.10549
        51.500          41.500  
  25186823.945 2     -3528.302 2    355743.992 2                
        34.750  
  22025809.578 6      1199.236 6  -4146725.484 6  -3187096.86748  22025798.53948
        47.500          36.500  
  22374881.852 6     -3259.630 6   5954960.049 6   4635001.86647  22374871.69147
        46.000          32.000  
  23472856.602 6      2830.494 6  -4981552.175 6  -5256364.26446  23472847.67246
        43.500          25.750  
 11  3 24  2 44 45.0000000  0 11G03G05G06G07G08G10G13G16G19G23G28   
  21945592.453 7     -1263.247 7    875952.843 7    704863.97847  21945583.11347
        48.000          33.000  
  24226497.297 2      1021.179 2   -634003.457 2                
        35.500  
  23518571.266 6     -1824.253 6   2416776.022 6   1896071.78847  23518562.68847
        43.000          28.250  
  20706761.500 7       902.839 7  -2782301.106 7  -2132418.82648  20706751.57448
        50.000          41.000  
  22349495.070 7      2180.297 7  -5240837.460 7  -4048816.22548  22349486.60948
        48.000          34.750  
  22901640.023 6     -1581.696 6   1914438.130 6   1500508.61647  22901631.85547
        46.250          30.750  
  20360424.602 7     -1469.984 7   1605913.454 7   1261086.34448  20360414.85248
        51.250          41.250  
  25196894.039 2     -3527.979 2    408663.680 2                
        34.000  
  22022412.695 7      1190.042 7  -4164576.119 7  -3201006.43148  22022401.71548
        48.250          35.750  
  22384200.047 6     -3264.646 6   6003929.743 6   4673160.05347  22384190.29747
        46.000          32.500  
  23464788.586 6      2826.615 6  -5023951.397 6  -5289402.57547  23464779.30547
        43.000          26.750  
 11  3 24  2 45  0.0000000  0 11G03G05G06G07G08G10G13G16G19G23G28   
  21949227.289 7     -1273.360 7    895053.250 7    719747.41247  21949218.18447
        48.000          32.500  
  24223608.281 2      1012.387 2   -649189.266 2                
        35.500  
  23523801.266 5     -1832.173 5   2444258.623 5   1917486.80947  23523792.68847
        42.250          27.750  
  20704195.109 7       899.077 7  -2795787.268 7  -2142927.52349  20704185.35949
        50.500          41.500  
  22343275.906 7      2178.654 7  -5273517.272 7  -4074281.00048  22343267.91448
        48.250          34.250  
  22906176.727 6     -1589.220 6   1938276.428 6   1519083.90847  22906168.32447
        46.000          29.750  
  20364645.336 7     -1478.637 7   1628093.009 7   1278369.11849  20364635.41049
        51.250          41.750  
  25206963.695 2     -3527.653 2    461578.473 2                
        35.000  
  22019042.695 7      1180.832 7  -4182288.596 7  -3214808.33548  22019031.42248
        48.000          36.500  
  22393533.086 6     -3269.656 6   6052974.587 6   4711376.81447  22393523.21947
        46.500          31.500  
  23456731.352 6      2822.728 6  -5066292.314 6  -5322395.47146  23456722.24646
        43.000          26.250  
 11  3 24  2 45 15.0000000  0 11G03G05G06G07G08G10G13G16G19G23G28   
  21952890.227 6     -1283.414 6    914304.461 6    734748.36247  21952881.47347
        47.250          33.000  
  24220743.227 3      1003.613 3   -664243.465 3                
        36.250  
  23529053.383 6     -1840.032 6   2471859.103 6   1938993.66747  23529045.03947
        42.500          26.500  
  20701639.930 7       895.339 7  -2809217.356 7  -2153392.51349  20701629.82849
        50.250          41.500  
  22337061.898 6      2177.043 6  -5306172.923 6  -4099726.94748  22337052.96948
        47.000          34.500  
  22910733.969 6     -1596.701 6   1962226.941 6   1537746.63447  22910725.85947
        46.750          30.500  
  20368890.922 7     -1487.254 7   1650401.817 7   1295752.59649  20368880.52749
        52.000          41.750  
  25217032.594 2     -3527.284 2    514487.730 2                
        34.750  
  22015698.047 7      1171.633 7  -4199863.084 7  -3228502.73048  22015686.59848
        48.500          36.500  
  22402881.156 6     -3274.628 6   6102094.007 6   4749651.68547  22402870.29347
        47.000          31.500  
  23448684.984 6      2818.870 6  -5108575.357 6  -5355343.24647  23448675.76247
        43.000          26.500  
 11  3 24  2 45 30.0000000  0 11G03G05G06G07G08G10G13G16G19G23G28   
  21956582.680 6     -1293.503 6    933707.009 6    749867.24247  21956573.63347
        46.750          33.000  
  24217904.906 3       994.815 3   -679165.683 3                
        37.250  
  23534327.070 5     -1847.915 5   2499577.833 5   1960592.68947  23534318.72747
        42.250          27.000  
  20699094.797 7       891.575 7  -2822590.978 7  -2163813.51449  20699084.69549
        49.750          41.750  
  22330852.438 6      2175.407 6  -5338804.034 6  -4125153.77248  22330843.85948
        46.250          33.750  
  22915313.555 6     -1604.176 6   1986289.583 6   1556496.74247  22915304.44947
        46.500          29.750  
  20373160.414 7     -1495.885 7   1672840.098 7   1313236.97249  20373150.78149
        51.000          41.500  
  25227100.586 4     -3526.927 4    567391.629 4                
        37.500  
  22012380.055 6      1162.402 6  -4217299.111 6  -3242089.22348  22012369.01648
        47.000          36.000  
  22412242.852 6     -3279.593 6   6151287.899 6   4787984.57647  22412231.40247
        47.500          32.000  
  23440649.906 6      2814.977 6  -5150800.016 6  -5388245.55247  23440640.80147
        43.000          26.750  
 11  3 24  2 45 45.0000000  0 11G03G05G06G07G08G10G13G16G19G23G28   
  21960303.617 6     -1303.534 6    953260.019 6    765103.35847  21960294.80547
        46.250          33.000  
  24215090.563 3       986.045 3   -693956.365 3                
        36.000  
  23539624.227 5     -1855.738 5   2527413.905 5   1982283.13647  23539615.41447
        41.750          26.500  
  20696560.680 7       887.834 7  -2835908.486 7  -2174190.79849  20696550.57849
        50.000          42.000  
  22324647.070 6      2173.801 6  -5371411.050 6  -4150561.81748  22324638.90248
        46.750          34.500  
  22919913.328 6     -1611.598 6   2010463.547 6   1575333.58847  22919904.51647
        46.750          30.000  
  20377454.273 7     -1504.476 7   1695407.244 7   1330821.77249  20377445.34449
        51.000          41.500  
  25237165.828 3     -3526.513 3    620289.319 3                
        36.000  
  22009088.266 6      1153.184 6  -4234596.867 6  -3255567.97648  22009077.22748
        47.000          35.750  
  22421618.352 6     -3284.510 6   6200555.551 6   4826374.93847  22421606.55147
        47.500          32.250  
  23432626.094 6      2811.114 6  -5192966.720 6  -5421102.69046  23432616.75446
        43.000          26.000  
 11  3 24  2 46  0.0000000  0 11G03G05G06G07G08G10G13G16G19G23G28   
  21964052.961 6     -1313.631 6    972964.477 6    780457.48647  21964043.91447
        46.500          33.000  
  24212300.586 2       977.203 2   -708614.407 2                
        34.000  
  23544943.836 6     -1863.617 6   2555368.155 6   2004065.67247  23544934.73047
        42.500          27.500  
  20694037.133 7       884.035 7  -2849169.010 7  -2184523.67148  20694027.55948
        50.000          41.250  
  22318446.961 6      2172.129 6  -5403992.992 6  -4175950.31848  22318438.73448
        47.000          34.500  
  22924534.844 6     -1619.057 6   2034749.405 6   1594257.64047  22924526.32447
        46.500          29.250  
  20381774.047 7     -1513.145 7   1718104.425 7   1348507.87749  20381763.82849
        51.750          42.000  
  25247230.625 3     -3526.149 3    673181.551 3                
        36.250  
  22005822.898 6      1143.890 6  -4251755.210 6  -3268938.08348  22005812.15248
        46.500          35.750  
  22431007.711 6     -3289.469 6   6249897.584 6   4864823.24547  22430996.14547
        47.000          31.500  
  23424612.492 6      2807.176 6  -5235074.358 6  -5453913.79847  23424604.14847
        43.750          27.500  
 11  3 24  2 46 15.0000000  0 11G03G05G06G07G08G10G13G16G19G23G28   
  21967831.969 6     -1323.716 6    992820.218 6    795929.50047  21967822.62947
        46.000          33.500  
  24209536.500 2       968.336 2   -723139.448 2                
        35.250  
  23550286.367 6     -1871.493 6   2583440.544 6   2025940.24747  23550276.96947
        42.500          27.000  
  20691524.867 7       880.218 7  -2862372.281 7  -2194811.91649  20691515.05949
        49.750          42.000  
  22312252.125 6      2170.445 6  -5436549.666 6  -4201319.14848  22312242.96148
        46.500          34.500  
  22929177.164 6     -1626.511 6   2059147.069 6   1613268.79447  22929169.40647
        46.750          30.000  
  20386117.773 7     -1521.794 7   1740931.337 7   1366295.07249  20386107.43849
        51.250          41.750  
  25257294.688 2     -3525.778 2    726068.220 2                
        35.250  
  22002584.688 6      1134.569 6  -4268773.751 6  -3282199.26248  22002573.23848
        46.500          35.500  
  22440410.984 6     -3294.425 6   6299313.960 6   4903329.50947  22440399.88747
        45.250          31.500  
  23416611.508 6      2803.224 6  -5277122.714 6  -5486678.72647  23416602.34447
        43.500          27.250  
 11  3 24  2 46 30.0000000  0 11G03G05G06G07G08G10G13G16G19G23G28   
  21971638.719 6     -1333.746 6   1012826.414 6    811518.74747  21971629.55547
        47.500          33.250  
  24206798.219 3       959.521 3   -737532.268 3                
        36.250  
  23555650.586 6     -1879.291 6   2611629.903 6   2047905.98047  23555642.30147
        42.750          28.000  
  20689022.672 7       876.445 7  -2875518.950 7  -2205056.06949  20689012.86349
        50.000          41.500  
  22306061.094 6      2168.801 6  -5469081.682 6  -4226668.75448  22306052.63348
        47.500          34.500  
  22933841.563 6     -1633.912 6   2083655.747 6   1632366.45347  22933833.33647
        46.750          30.000  
  20390485.773 7     -1530.396 7   1763887.271 7   1384182.82348  20390476.08248
        51.750          41.250  
  25267356.258 3     -3525.353 3    778948.511 3                
        35.750  
  21999372.328 7      1125.284 7  -4285653.012 7  -3295351.91948  21999360.70348
        47.750          35.750  
  22449828.055 6     -3299.327 6   6348803.868 6   4941893.06447  22449817.54347
        46.000          31.500  
  23408620.734 6      2799.314 6  -5319112.427 6  -5519397.95347  23408611.92247
        43.750          27.500  
 11  3 24  2 46 45.0000000  0 11G03G05G06G07G08G10G13G16G19G23G28   
  21975474.734 6     -1343.774 6   1032983.018 6    827225.19347  21975465.33647
        46.750          33.500  
  24204083.922 2       950.683 2   -751792.519 2                
        35.500  
  23561036.695 6     -1887.110 6   2639936.547 6   2069963.10447  23561029.05547
        43.000          27.750  
  20686531.977 7       872.653 7  -2888608.744 7  -2215255.88549  20686522.22749
        50.000          41.500  
  22299875.102 6      2167.143 6  -5501588.824 6  -4251998.97148  22299866.28948
        46.750          34.500  
  22938526.563 6     -1641.303 6   2108275.298 6   1651550.50847  22938517.98447
        47.000          30.750  
  20394878.984 7     -1539.014 7   1786972.485 7   1402171.30149  20394868.94149
        51.000          41.750  
  25277417.094 1     -3524.927 1    831822.418 1                
        33.500  
  21996186.930 6      1115.968 6  -4302392.525 6  -3308395.67348  21996175.42248
        46.500          36.250  
  22459259.719 6     -3304.221 6   6398367.181 6   4980513.82747  22459249.55947
        45.500          32.000  
  23400641.344 6      2795.359 6  -5361042.816 6  -5552070.95647  23400632.88347
        44.000          27.500  
 11  3 24  2 47  0.0000000  0 11G03G05G06G07G08G10G13G16G19G23G28   
  21979338.578 6     -1353.806 6   1053290.115 6    843048.91247  21979329.18047
        46.000          32.500  
  24201395.367 2       941.828 2   -765919.941 2                
        35.000  
  23566445.133 6     -1894.922 6   2668360.370 6   2092111.55247  23566437.96147
        42.750          28.250  
  20684051.750 7       868.828 7  -2901641.167 7  -2225411.01048  20684042.46948
        50.250          41.000  
  22293694.422 6      2165.455 6  -5534070.653 6  -4277309.47048  22293685.60948
        47.500          34.750  
  22943232.688 6     -1648.685 6   2133005.569 6   1670820.84047  22943224.22747
        47.000          30.000  
  20399296.984 7     -1547.643 7   1810187.132 7   1420260.63049  20399286.82449
        51.500          41.500  
  25287477.781 1     -3524.508 1    884690.033 1                
        32.750  
  21993028.023 6      1106.624 6  -4318991.885 6  -3321330.22148  21993016.69148
        47.500          36.000  
  22468705.797 6     -3309.118 6   6448003.945 6   5019191.82447  22468695.05147
        46.000          31.750  
  23392673.781 6      2791.382 6  -5402913.545 6  -5584697.47247  23392665.43847
        44.000          27.250  
 11  3 24  2 47 15.0000000  0 11G03G05G06G07G08G10G13G16G19G23G28   
  21983231.570 6     -1363.786 6   1073746.910 6    858989.28147  21983222.58247
        46.500          32.250  
  24198731.602 3       933.000 3   -779914.936 3                
        35.750  
  23571877.531 6     -1902.682 6   2696900.605 6   2114350.70947  23571868.71947
        43.000          28.500  
  20681582.484 7       865.051 7  -2914616.935 7  -2235521.98949  20681572.73449
        49.250          42.000  
  22287518.000 7      2163.815 7  -5566527.882 7  -4302600.80048  22287509.30548
        48.000          34.750  
  22947959.031 6     -1656.011 6   2157845.736 6   1690176.81347  22947950.80547
        46.500          29.500  
  20403738.852 7     -1556.221 7   1833530.450 7   1438450.22649  20403729.04349
        51.750          41.500  
  25297537.063 1     -3524.033 1    937550.526 1                
        33.000  
  21989895.953 7      1097.307 7  -4335451.485 7  -3334155.85848  21989884.85548
        47.750          36.000  
  22478165.797 6     -3313.954 6   6497713.261 6   5057926.33847  22478154.64147
        47.000          31.500  
  23384717.219 6      2787.458 6  -5444725.412 6  -5617278.13047  23384708.58247
        44.000          26.750  
 11  3 24  2 47 30.0000000  0 11G03G05G06G07G08G10G13G16G19G23G28   
  21987152.492 6     -1373.753 6   1094353.203 6    875046.14047  21987143.50447
        46.750          32.500  
  24196094.750 3       924.181 3   -793777.647 3                
        37.000  
  23577330.703 6     -1910.423 6   2725556.945 6   2136680.32447  23577321.07047
        44.750          29.250  
  20679124.703 7       861.271 7  -2927535.997 7  -2245588.79048  20679114.42648
        50.750          41.250  
  22281346.117 7      2162.172 7  -5598960.463 7  -4327872.92448  22281337.36348
        48.250          35.500  
  22952706.500 6     -1663.316 6   2182795.469 6   1709618.16047  22952699.03547
        46.500          30.750  
  20408205.375 7     -1564.795 7   1857002.372 7   1456740.02749  20408195.68449
        51.500          41.500  
  25307596.250 1     -3523.515 1    990403.245 1                
        33.000  
  21986790.578 6      1087.968 6  -4351771.005 6  -3346872.35248  21986779.42248
        47.250          36.750  
  22487638.961 7     -3318.755 7   6547494.580 7   5096716.95947  22487627.74647
        47.750          32.250  
  23376771.914 6      2783.525 6  -5486478.288 6  -5649812.81147  23376763.51247
        45.000          27.000  
 11  3 24  2 47 45.0000000  0 11G03G05G06G07G08G10G13G16G19G23G28   
  21991102.063 6     -1383.718 6   1115108.974 6    891219.47347  21991093.42647
        46.750          32.250  
  24193483.172 3       915.339 3   -807507.730 3                
        36.750  
  23582805.648 6     -1918.154 6   2754329.255 6   2159100.30847  23582795.95747
        44.250          28.000  
  20676676.602 7       857.474 7  -2940398.111 7  -2255611.20748  20676666.67648
        50.250          41.250  
  22275178.891 7      2160.513 7  -5631368.155 7  -4353125.66048  22275170.37148
        48.250          35.000  
  22957475.398 6     -1670.607 6   2207854.574 6   1729144.72747  22957467.69947
        45.750          30.750  
  20412696.242 7     -1573.372 7   1880602.952 7   1475130.08448  20412686.43448
        51.000          41.000  
  25317652.586 2     -3523.033 2   1043248.747 2                
        34.500  
  21983711.703 7      1078.606 7  -4367950.101 7  -3359479.41848  21983700.95748
        48.250          36.250  
  22497125.633 6     -3323.565 6   6597348.050 6   5135563.81347  22497114.30147
        47.500          32.000  
  23368837.820 6      2779.565 6  -5528171.759 6  -5682301.21147  23368829.06647
        44.000          26.750  
 11  3 24  2 48  0.0000000  0 11G03G05G06G07G08G10G13G16G19G23G28   
  21995080.789 6     -1393.690 6   1136014.327 6    907509.36747  21995071.74247
        46.750          33.000  
  24190894.117 3       906.482 3   -821104.959 3                
        36.500  
  23588302.461 6     -1925.892 6   2783217.640 6   2181610.72747  23588293.12147
        43.000          26.500  
  20674240.055 7       853.651 7  -2953202.878 7  -2265588.93849  20674230.18849
        50.500          41.500  
  22269016.945 7      2158.832 7  -5663750.637 7  -4378358.74948  22269008.54348
        48.000          35.500  
  22962264.719 6     -1677.893 6   2233022.969 6   1748756.44047  22962256.90247
        46.250          30.750  
  20417211.766 7     -1581.955 7   1904332.281 7   1493620.47148  20417201.78148
        51.000          41.000  
  25327707.602 2     -3522.542 2   1096086.878 2                
        35.000  
  21980659.781 6      1069.219 6  -4383988.388 6  -3371976.76448  21980648.50848
        47.500          35.750  
  22506625.852 6     -3328.376 6   6647273.687 6   5174466.88747  22506615.10547
        47.500          32.250  
  23360915.758 6      2775.588 6  -5569805.586 6  -5714743.11447  23360906.18447
        44.750          27.250  
 11  3 24  2 48 15.0000000  0 11G03G05G06G07G08G10G13G16G19G23G28   
  21999086.938 6     -1403.661 6   1157069.248 6    923915.80247  21999077.94947
        47.500          32.500  
  24188331.891 3       897.607 3   -834569.062 3                
        36.500  
  23593821.234 6     -1933.622 6   2812221.966 6   2204211.49447  23593812.65647
        42.750          27.750  
  20671814.344 7       849.826 7  -2965950.269 7  -2275521.95549  20671804.88749
        50.000          42.000  
  22262859.844 7      2157.148 7  -5696107.859 7  -4403572.14748  22262850.56348
        48.250          35.750  
  22967074.969 6     -1685.164 6   2258300.426 6   1768453.15647  22967066.80147
        46.000          31.000  
  20421751.938 7     -1590.549 7   1928190.518 7   1512211.30248  20421741.95348
        51.000          41.000  
  25337759.914 1     -3522.041 1   1148917.498 1                
        33.000  
  21977634.461 6      1059.811 6  -4399885.558 6  -3384364.15448  21977623.24648
        47.250          36.750  
  22516140.094 6     -3333.176 6   6697271.322 6   5213426.07847  22516129.28947
        47.250          32.250  
  23353004.688 6      2771.581 6  -5611379.302 6  -5747138.19747  23352995.34847
        44.750          28.000  
 11  3 24  2 48 30.0000000  0 11G03G05G06G07G08G10G13G16G19G23G28   
  22003122.109 6     -1413.624 6   1178273.608 6    940438.67947  22003112.82847
        47.500          32.750  
  24185795.125 1       888.729 1   -847900.002 1                
        33.750  
  23599361.727 5     -1941.341 5   2841342.077 5   2226902.49947  23599354.84847
        42.000          27.250  
  20669399.625 7       845.985 7  -2978640.048 7  -2285410.08549  20669389.75849
        49.750          42.000  
  22256706.641 7      2155.455 7  -5728439.684 7  -4428765.76448  22256698.41448
        48.750          36.000  
  22971905.820 6     -1692.431 6   2283686.890 6   1788234.80647  22971897.77047
        46.750          30.500  
  20426316.609 7     -1599.148 7   1952177.741 7   1530902.63748  20426306.68448
        52.000          41.000  
  25347811.594 1     -3521.528 1   1201740.419 1                
        33.500  
  21974636.156 6      1050.383 6  -4415641.303 6  -3396641.33348  21974624.94148
        47.500          36.000  
  22525668.000 7     -3337.959 7   6747340.713 7   5252441.17547  22525657.07847
        47.750          31.500  
  23345104.688 6      2767.578 6  -5652892.973 6  -5779486.49447  23345095.05547
        44.750          27.000  
 11  3 24  2 48 45.0000000  0 11G03G05G06G07G08G10G13G16G19G23G28   
  22007185.242 6     -1423.590 6   1199627.461 6    957078.05647  22007176.78147
        47.500          33.000  
  24183284.141 1       879.842 1   -861097.633 1                
        33.500  
  23604925.711 5     -1949.051 5   2870577.836 5   2249683.62847  23604918.30547
        42.000          26.750  
  20666996.180 7       842.138 7  -2991272.111 7  -2295253.23849  20666985.96149
        49.500          42.000  
  22250559.492 7      2153.734 7  -5760745.699 7  -4453939.27148  22250550.68048
        48.250          35.750  
  22976757.672 6     -1699.680 6   2309182.097 6   1808101.19447  22976749.27047
        46.000          30.000  
  20430905.383 7     -1607.731 7   1976293.712 7   1549694.30348  20430896.27748
        52.250          41.250  
  25357861.086 1     -3521.017 1   1254555.672 1                
        33.000  
  21971665.297 6      1040.931 6  -4431255.262 6  -3408808.03248  21971653.73048
        47.000          35.750  
  22535209.797 6     -3342.740 6   6797481.816 6   5291512.15847  22535198.40647
        47.500          32.500  
  23337216.773 6      2763.549 6  -5694346.202 6  -5811787.69847  23337206.96547
        44.500          28.250  
 11  3 24  2 49  0.0000000  0 11G03G05G06G07G08G10G13G16G19G23G28   
  22011277.484 6     -1433.500 6   1221129.960 6    973833.25947  22011268.37947
        47.000          32.000  
  24180796.891 1       870.970 1   -874162.176 1  -2163277.39255  24180785.38355
        33.500          18.500  
  23610512.086 6     -1956.718 6   2899928.608 6   2272554.36247  23610503.50847
        43.000          27.750  
  20664603.000 7       838.308 7  -3003846.732 7  -2305051.63449  20664593.13349
        50.500          41.750  
  22244416.570 7      2152.043 7  -5793026.345 7  -4479092.99948  22244408.10948
        48.750          35.750  
  22981629.242 6     -1706.871 6   2334785.157 6   1828051.62947  22981621.42647
        46.250          30.000  
  20435519.031 7     -1616.287 7   2000538.019 7   1568585.97048  20435509.51648
        51.250          41.000  
  25367908.102 1     -3520.440 1   1307362.271 1                
        30.500  
  21968720.516 7      1031.502 7  -4446727.786 7  -3420864.51648  21968709.53548
        47.750          36.250  
  22544765.438 7     -3347.465 7   6847693.789 7   5330638.36147  22544753.63747
        48.750          32.750  
  23329339.477 6      2759.543 6  -5735739.350 6  -5844042.06747  23329330.25447
        44.500          28.000  
 11  3 24  2 49 15.0000000  0 11G03G05G06G07G08G10G13G16G19G23G28   
  22015397.219 6     -1443.424 6   1242781.327 6    990704.45447  22015388.87547
        47.250          31.750  
  24178336.383 2       862.079 2   -887093.365 2  -2173353.63145  24178325.28545
        35.500          17.750  
  23616119.695 6     -1964.380 6   2929394.313 6   2295514.64847  23616110.18047
        43.000          27.000  
  20662221.164 7       834.453 7  -3016363.533 7  -2314804.96949  20662211.18049
        50.500          42.000  
  22238278.797 7      2150.352 7  -5825281.619 7  -4504226.96648  22238270.10248
        48.500          35.000  
  22986522.469 6     -1714.064 6   2360496.117 6   1848086.13147  22986513.94947
        46.500          29.000  
  20440157.008 7     -1624.848 7   2024910.732 7   1587577.68848  20440147.43448
        52.000          41.000  
  25377957.258 1     -3519.880 1   1360160.474 1                
        32.000  
  21965803.516 6      1022.046 6  -4462058.483 6  -3432810.50248  21965792.06648
        46.750          36.250  
  22554334.367 7     -3352.196 7   6897976.733 7   5369819.85847  22554321.80547
        48.250          32.250  
  23321474.289 6      2755.518 6  -5777072.121 6  -5876249.39447  23321464.71547
        45.500          28.000  
 11  3 24  2 49 30.0000000  0 11G03G05G06G07G08G10G13G16G19G23G28   
  22019545.906 6     -1453.297 6   1264580.784 6   1007691.04847  22019536.44947
        47.250          32.750  
  24175902.273 4       853.225 4   -899891.740 4  -2183326.33945  24175890.53145
        38.250          16.750  
  23621748.617 6     -1972.003 6   2958974.354 6   2318564.02447  23621738.63347
        43.000          27.000  
  20659850.039 7       830.640 7  -3028823.133 7  -2324513.74249  20659840.23049
        50.500          41.750  
  22232145.398 7      2148.675 7  -5857511.740 7  -4529341.32148  22232136.58648
        48.000          35.000  
  22991435.445 6     -1721.197 6   2386314.070 6   1868204.00347  22991426.92647
        46.500          30.000  
  20444819.820 8     -1633.369 8   2049411.266 8   1606669.00848  20444809.13348
        52.500          40.750  
  25388003.039 1     -3519.286 1   1412949.768 1                
        31.000  
  21962912.906 7      1012.610 7  -4477247.635 7  -3444646.18348  21962901.75048
        47.750          36.000  
  22563915.547 7     -3356.875 7   6948329.861 7   5409056.04347  22563903.98047
        48.000          32.750  
  23313620.180 6      2751.518 6  -5818344.891 6  -5908409.96747  23313611.25047
        44.500          27.500  
 11  3 24  2 49 45.0000000  0 11G03G05G06G07G08G10G13G16G19G23G28   
  22023723.227 7     -1463.444 7   1286532.446 7   1024796.24747  22023714.18047
        48.000          32.500  
  24173492.477 4       844.068 4   -912552.766 4  -2193192.16745  24173482.60945
        38.000          17.250  
  23627399.680 6     -1979.895 6   2988672.780 6   2341705.65946  23627389.87146
        42.500          25.500  
  20657491.031 7       826.529 7  -3041221.072 7  -2334174.46349  20657480.98849
        50.000          41.750  
  22226017.766 7      2146.707 7  -5889712.340 7  -4554432.68348  22226008.77748
        48.000          35.500  
  22996369.875 6     -1728.610 6   2412243.217 6   1888408.53747  22996361.23847
        46.000          29.750  
  20449506.805 7     -1642.184 7   2074044.028 7   1625863.35648  20449496.64548
        51.000          40.750  
  25398048.04711     -3518.59411                                
        28.750  
  21960050.539 6      1002.859 6  -4492290.520 6  -3456367.89148  21960038.79748
        46.500          36.000  
  22573511.016 6     -3361.830 6   6998757.303 6   5448350.14747  22573499.97747
        47.500          32.000  
  23305778.516 6      2747.215 6  -5859553.116 6  -5940520.25447  23305769.35247
        44.500          27.500  
 11  3 24  2 50  0.0000000  0 11G03G05G06G07G08G10G13G16G19G23G28   
  22027927.766 6     -1473.064 6   1308628.408 6   1042013.88547  22027918.83647
        47.000          32.250  
  24171106.914 3       835.417 3   -925084.018 3  -2202956.75245  24171097.98445
        35.750          18.250  
  23633071.750 5     -1987.259 5   3018481.671 5   2364933.38446  23633062.11746
        42.000          26.000  
  20655141.969 7       822.931 7  -3053565.041 7  -2343793.12849  20655132.04349
        51.000          42.000  
  22219894.414 7      2145.254 7  -5921891.154 7  -4579507.05848  22219885.71948
        48.250          35.500  
  23001323.578 6     -1735.480 6   2438275.411 6   1908693.35347  23001315.46947
        47.000          30.000  
  20454217.898 7     -1650.481 7   2098801.244 7   1645154.68648  20454208.03148
        51.000          41.000  
  25408089.91411     -3517.93811    -56914.03411                
        28.750  
  21957214.211 6       993.606 6  -4507194.608 6  -3467981.45048  21957202.82048
        47.250          36.000  
  22583118.844 6     -3366.250 6   7049251.051 6   5487695.91347  22583108.68447
        47.500          32.250  
  23297946.945 6      2743.424 6  -5900704.473 6  -5972586.22846  23297937.72346
        45.000          26.000  
 11  3 24  2 50 15.0000000  0 11G03G05G06G07G08G10G13G16G19G23G28   
  22032159.773 6     -1482.671 6   1330868.472 6   1059343.80847  22032150.84447
        47.250          32.250  
  24168746.633 2       826.769 2   -937485.556 2  -2212620.27545  24168737.41045
        34.750          18.250  
  23638764.383 6     -1994.597 6   3048400.632 6   2388246.85646  23638756.15646
        42.500          26.250  
  20652803.164 7       819.322 7  -3065854.875 7  -2353369.60649  20652793.35549
        50.750          41.500  
  22213775.117 7      2143.801 7  -5954048.167 7  -4604564.46148  22213766.42248
        48.250          35.250  
  23006296.711 6     -1742.318 6   2464410.182 6   1929058.11047  23006288.25047
        46.000          30.000  
  20458952.648 7     -1658.754 7   2123682.549 7   1664542.71548  20458943.36748
        50.750          40.750  
  25418132.305 1     -3517.235 1     -4155.511 1                
        32.500  
  21954404.328 6       984.357 6  -4521959.959 6  -3479486.90348  21954393.34848
        46.500          36.000  
  22592739.930 6     -3370.659 6   7099810.935 6   5527093.22947  22592729.71147
        47.000          32.500  
  23290128.016 6      2739.622 6  -5941798.808 6  -6004607.77147  23290118.44147
        45.000          27.750  
 11  3 24  2 50 30.0000000  0 11G03G05G06G07G08G10G13G16G19G23G28   
  22036420.742 6     -1492.756 6   1353259.810 6   1076791.60847  22036412.04747
        47.000          32.750  
  24166413.805 2       817.645 2   -949750.230 2  -2222177.13645  24166402.35545
        34.000          18.500  
  23644481.055 5     -2002.424 5   3078436.988 5   2411651.82546  23644472.82846
        42.000          26.250  
  20650476.211 7       815.229 7  -3078083.316 7  -2362898.25349  20650466.05149
        50.500          41.500  
  22207660.906 7      2141.857 7  -5986176.027 7  -4629599.13548  22207652.56348
        48.000          35.500  
  23011290.773 6     -1749.625 6   2490654.564 6   1949508.26047  23011282.43047
        46.000          29.500  
  20463712.398 7     -1667.502 7   2148695.082 7   1684032.99548  20463702.82448
        51.500          40.750  
  25428169.641 1     -3516.834 1     48597.005 1                
        31.000  
  21951622.594 6       974.600 6  -4536578.960 6  -3490878.31648  21951611.43848
        47.250          36.500  
  22602375.617 7     -3375.532 7   7150443.918 7   5566547.49247  22602364.75447
        47.750          32.250  
  23282320.016 6      2735.331 6  -5982828.773 6  -6036579.14447  23282310.38347
        45.750          28.000  
 11  3 24  2 50 45.0000000  0 11G03G05G06G07G08G10G13G16G19G23G28   
  22040709.766 7     -1502.584 7   1375798.567 7   1094354.28647  22040701.01247
        47.750          32.500  
  24164105.953 3       808.746 3   -961881.415 3  -2231630.03345  24164094.73845
        35.750          17.750  
  23650218.195 6     -2009.971 6   3108586.560 6   2435145.00147  23650209.91047
        42.500          27.000  
  20648160.219 7       811.364 7  -3090253.776 7  -2372381.71449  20648150.17649
        50.000          41.500  
  22201552.570 7      2140.155 7  -6018278.354 7  -4654613.92748  22201543.64148
        48.750          36.000  
  23016305.406 6     -1756.675 6   2517004.684 6   1970040.81947  23016296.71147
        46.500          30.000  
  20468496.570 7     -1676.012 7   2173835.256 7   1703622.74048  20468486.76248
        51.500          41.000  
  25438205.25011     -3516.43411    101339.95311                
        32.500  
  21948867.867 6       965.074 6  -4551055.071 6  -3502158.38148  21948856.88748
        46.250          36.000  
  22612024.672 7     -3380.141 7   7201146.038 7   5606055.63047  22612013.63347
        48.000          31.250  
  23274523.539 6      2731.271 6  -6023797.832 6  -6068503.08147  23274514.19947
        45.750          28.000  
 11  3 24  2 51  0.0000000  0 11G03G05G06G07G08G10G13G16G19G23G28   
  22045027.586 6     -1512.751 6   1398489.832 6   1112035.78347  22045019.00847
        47.500          32.000  
  24161824.273 3       799.490 3   -973873.758 3  -2240974.72745  24161813.52745
        36.500          17.750  
  23655978.344 5     -2017.870 5   3138854.614 5   2458730.48847  23655969.70747
        42.000          27.000  
  20645856.359 7       807.152 7  -3102361.050 7  -2381815.94849  20645846.14149
        50.500          42.000  
  22195449.313 7      2138.095 7  -6050349.774 7  -4679604.62548  22195440.32448
        48.750          35.500  
  23021340.906 6     -1764.058 6   2543465.548 6   1990659.67047  23021332.15247
        45.750          29.750  
  20473305.875 7     -1684.867 7   2199108.263 7   1723315.98848  20473295.89148
        51.750          41.000  
  25448242.28911     -3515.68811                                
        30.750  
  21946141.625 6       955.185 6  -4565382.848 6  -3513322.86148  21946129.88348
        45.500          36.000  
  22621687.461 7     -3385.084 7   7251922.304 7   5645621.53347  22621676.01247
        48.250          31.250  
  23266740.039 6      2726.849 6  -6064700.561 6  -6100375.30747  23266730.75847
        45.250          27.750  
 11  3 24  2 51 15.0000000  0 11G03G05G06G07G08G10G13G16G19G23G28   
  22049371.445 6     -1521.829 6   1421317.263 6   1129823.39547  22049362.28147
        47.250          32.000  
  24159564.602 4       791.300 4   -985743.260 4  -2250223.68245  24159554.91045
        37.500          17.750  
  23661757.797 5     -2024.690 5   3169224.966 5   2482395.70346  23661748.69146
        42.000          25.500  
  20643561.234 7       803.996 7  -3114420.987 7  -2391213.29549  20643551.42649
        50.000          42.000  
  22189349.063 7      2137.089 7  -6082406.113 7  -4704583.57348  22189340.25048
        48.250          35.250  
  23026393.906 6     -1770.357 6   2570020.906 6   2011352.15247  23026386.20747
        45.500          30.500  
  20478137.180 7     -1692.652 7   2224498.049 7   1743100.23248  20478127.43048
        51.250          41.000  
  25458271.64111     -3514.59411    206795.44611                
        30.000  
  21943439.898 6       946.349 6  -4579578.081 6  -3524384.05948  21943429.15248
        46.500          36.500  
  22631360.438 7     -3388.947 7   7302756.510 7   5685232.58547  22631349.22347
        48.000          31.500  
  23258966.195 6      2723.491 6  -6105552.921 6  -6132208.29447  23258956.68047
        44.000          28.250  
 11  3 24  2 51 30.0000000  0 11G03G05G06G07G08G10G13G16G19G23G28   
  22053745.031 6     -1532.024 6   1444297.620 6   1147730.17747  22053735.80947
        46.500          32.000  
  24157331.633 3       781.998 3   -997473.231 3  -2259363.94745  24157321.82445
        37.250          16.750  
  23667558.859 5     -2032.604 5   3199714.033 5   2506153.42046  23667549.63746
        41.000          24.500  
  20641278.813 7       799.706 7  -3126416.584 7  -2400560.49449  20641268.88749
        51.000          42.500  
  22183255.086 7      2134.962 7  -6114430.542 7  -4729537.66248  22183246.39148
        48.000          35.250  
  23031468.508 6     -1777.749 6   2596687.140 6   2032131.02647  23031460.51647
        44.500          29.500  
  20482994.500 7     -1701.550 7   2250021.292 7   1762988.48048  20482984.69148
        50.500          41.000  
  25468303.695 1     -3514.201 1    259508.468 1                
        32.750  
  21940767.180 7       936.375 7  -4593623.700 7  -3535328.67348  21940756.08248
        48.000          36.250  
  22641048.688 7     -3393.914 7   7353665.227 7   5724901.70247  22641036.82847
        48.250          31.500  
  23251205.094 6      2718.998 6  -6146337.894 6  -6163988.78147  23251195.75447
        44.500          28.250  
 11  3 24  2 51 45.0000000  0 11G03G05G06G07G08G10G13G16G19G23G28   
  22058146.422 6     -1541.835 6   1467425.148 6   1165751.62547  22058136.84847
        47.000          32.500  
  24155124.688 3       773.046 3  -1009068.915 3  -2268399.54945  24155114.29345
        36.000          16.250  
  23673381.938 5     -2040.136 5   3230316.067 5   2529999.16846  23673372.77346
        39.250          24.000  
  20639007.133 7       795.794 7  -3138353.495 7  -2409861.96449  20638997.32449
        50.250          42.500  
  22177166.188 7      2133.195 7  -6146428.472 7  -4754471.10048  22177157.55148
        48.000          35.500  
  23036562.875 6     -1784.763 6   2623458.578 6   2052991.87247  23036554.82447
        46.250          29.750  
  20487875.734 7     -1710.066 7   2275672.288 7   1782976.26548  20487865.75048
        51.750          41.000  
  25478330.125 1     -3513.530 1    312211.414 1                
        29.750  
  21938121.695 6       926.765 6  -4607525.169 6  -3546160.97248  21938110.42248
        46.500          36.250  
  22650747.938 6     -3398.499 6   7404642.709 6   5764624.40447  22650737.42647
        47.500          32.500  
  23243455.797 6      2714.870 6  -6187060.946 6  -6195720.99347  23243446.28147
        45.250          27.500  
 11  3 24  2 52  0.0000000  0 11G03G05G06G07G08G10G13G16G19G23G28   
  22062574.922 6     -1551.615 6   1490699.370 6   1183887.38547  22062565.81647
        47.000          32.000  
  24152943.539 2       764.118 2  -1020530.680 2  -2277330.77445  24152933.67245
        35.500          17.750  
  23679226.492 5     -2047.634 5   3261030.574 5   2553932.55846  23679217.56346
        40.750          25.000  
  20636746.805 7       791.901 7  -3150232.015 7  -2419117.94349  20636736.93849
        50.000          42.000  
  22171082.070 7      2131.448 7  -6178400.187 7  -4779384.10148  22171073.78548
        48.000          35.000  
  23041676.813 6     -1791.730 6   2650334.525 6   2073934.15447  23041668.64547
        46.000          29.250  
  20492781.016 7     -1718.558 7   2301450.658 7   1803063.30248  20492771.26648
        51.500          40.500  
  25488358.79711     -3512.85811    364903.90011                
        30.750  
  21935503.727 6       917.164 6  -4621282.630 6  -3556881.04948  21935492.51248
        46.750          36.250  
  22660461.617 6     -3403.039 6   7455688.288 6   5804400.17947  22660451.34047
        47.250          31.500  
  23235717.813 6      2710.757 6  -6227722.303 6  -6227405.14747  23235709.00047
        45.000          28.750  
 11  3 24  2 52 15.0000000  0 11G03G05G06G07G08G10G13G16G19G23G28   
  22067031.477 6     -1561.359 6   1514119.752 6   1202137.03947  22067022.43047
        47.250          32.000  
  24150789.398 2       755.205 2  -1031858.759 2  -2286157.88645  24150778.59445
        35.250          18.250  
  23685093.164 5     -2055.091 5   3291856.936 5   2577953.11346  23685083.64846
        41.250          24.000  
  20634497.531 7       788.024 7  -3162052.371 7  -2428328.60249  20634487.54749
        49.750          42.500  
  22165003.516 7      2129.728 7  -6210346.105 7  -4804277.01648  22164994.29348
        48.500          35.000  
  23046810.844 6     -1798.646 6   2677314.213 6   2094957.27947  23046802.91047
        44.750          29.750  
  20497710.391 7     -1727.016 7   2327355.903 7   1823249.20348  20497700.52348
        51.000          40.750  
  25498382.109 1     -3512.078 1    417585.077 1                
        32.500  
  21932913.055 6       907.570 6  -4634896.173 6  -3567488.98648  21932902.30948
        46.750          36.250  
  22670187.781 6     -3407.536 6   7506801.324 6   5844228.51347  22670177.27047
        47.250          30.750  
  23227992.477 6      2706.653 6  -6268322.101 6  -6259041.33347  23227982.72747
        45.250          27.500  
 11  3 24  2 52 30.0000000  0 11G03G05G06G07G08G10G13G16G19G23G28   
  22071516.266 6     -1571.120 6   1537686.550 6   1220500.78547  22071507.10247
        46.750          31.500  
  24148660.422 2       746.261 2  -1043052.671 2  -2294880.40146  24148649.44146
        34.500          19.000  
  23690980.820 5     -2062.562 5   3322795.362 5   2602060.95246  23690971.24646
        41.000          24.500  
  20632259.242 7       784.105 7  -3173813.951 7  -2437493.46949  20632249.60949
        50.750          42.750  
  22158928.984 6      2127.974 6  -6242265.716 6  -4829149.42548  22158920.28948
        47.250          35.750  
  23051964.703 5     -1805.573 5   2704397.810 5   2116061.38447  23051956.71147
        42.000          29.000  
  20502664.242 7     -1735.507 7   2353388.506 7   1843534.35248  20502654.43448
        50.000          40.500  
  25508406.836 3     -3511.353 3    470255.370 3                
        36.250  
  21930350.172 6       897.938 6  -4648365.238 6  -3577984.33448  21930338.66448
        47.500          36.500  
  22679927.320 6     -3412.048 6   7557982.050 6   5884109.59247  22679916.75047
        47.250          31.500  
  23220277.984 6      2702.523 6  -6308859.944 6  -6290629.24647  23220268.46947
        45.000          27.250  
 11  3 24  2 52 45.0000000  0 11G03G05G06G07G08G10G13G16G19G23G28   
  22076028.141 6     -1580.826 6   1561398.939 6   1238977.97647  22076019.27047
        47.000          31.250  
  24146553.773 2       737.350 2  -1054112.926 2  -2303498.79245  24146544.31645
        35.500          17.250  
  23696889.445 5     -2069.987 5   3353845.173 5   2626255.60946  23696880.86746
        40.500          24.500  
  20630032.102 7       780.211 7  -3185517.116 7  -2446612.80549  20630022.29349
        50.750          42.000  
  22152859.422 7      2126.247 7  -6274159.423 7  -4854001.65048  22152850.72748
        48.000          35.500  
  23057138.266 5     -1812.444 5   2731584.466 5   2137245.78547  23057129.68847
        42.250          29.500  
  20507642.281 7     -1743.949 7   2379547.746 7   1863918.17748  20507632.70748
        50.000          40.750  
  25518428.750 1     -3510.605 1    522914.449 1                
        32.500  
  21927814.844 6       888.327 6  -4661690.138 6  -3588367.36748  21927803.45348
        47.250          36.000  
  22689680.133 7     -3416.504 7   7609229.605 7   5924042.74447  22689669.09447
        47.750          30.750  
  23212575.531 6      2698.415 6  -6349336.173 6  -6322169.14847  23212566.25047
        45.250          27.500  
 11  3 24  2 53  0.0000000  0 11G03G05G06G07G08G10G13G16G19G23G28   
  22080568.141 6     -1590.547 6   1585257.151 6   1257568.78847  22080559.50447
        46.500          31.250  
  24144473.953 3       728.408 3  -1065039.042 3  -2312012.67645  24144464.96545
        37.000          18.250  
  23702818.922 5     -2077.416 5   3385006.420 5   2650537.11146  23702810.22746
        40.500          24.250  
  20627816.305 7       776.293 7  -3197161.508 7  -2455686.35249  20627806.49649
        50.500          41.750  
  22146795.688 7      2124.491 7  -6306026.796 7  -4878833.35248  22146786.58248
        48.500          35.500  
  23062331.602 6     -1819.322 6   2758874.293 6   2158510.57747  23062323.14147
        43.000          29.250  
  20512644.508 7     -1752.413 7   2405833.942 7   1884400.92748  20512634.99248
        50.500          41.000  
  25528442.367 2     -3509.858 2    575562.325 2                
        34.250  
  21925306.375 6       878.663 6  -4674870.078 6  -3598637.43548  21925295.04348
        47.500          36.000  
  22699445.297 7     -3420.985 7   7660544.386 7   5964028.27547  22699434.02347
        47.750          31.000  
  23204885.344 6      2694.269 6  -6389750.211 6  -6353660.60147  23204875.59447
        46.000          28.250  
 11  3 24  2 53 15.0000000  0 11G03G05G06G07G08G10G13G16G19G23G28   
  22085136.094 6     -1600.238 6   1609260.716 6   1276272.87847  22085127.22347
        47.000          31.750  
  24142421.531 3       719.481 3  -1075831.253 3  -2320422.18346  24142410.90246
        37.000          19.000  
  23708768.703 5     -2084.815 5   3416278.645 5   2674905.08746  23708760.82846
        40.750          22.750  
  20625611.688 7       772.381 7  -3208747.219 7  -2464714.16349  20625601.93849
        50.250          41.750  
  22140736.688 6      2122.736 6  -6337867.829 6  -4903644.52948  22140727.64148
        47.000          36.250  
  23067544.320 6     -1826.171 6   2786266.861 6   2179855.42147  23067535.80147
        44.750          29.750  
  20517670.859 7     -1760.859 7   2432246.832 7   1904982.39748  20517661.05148
        51.250          40.750  
  25538464.492 3     -3509.076 3    628198.465 3                
        35.750  
  21922825.984 6       869.013 6  -4687905.270 6  -3608794.71348  21922814.30148
        47.000          36.000  
  22709223.172 6     -3425.432 6   7711925.868 6   6004065.77647  22709211.72347
        47.250          31.250  
  23197206.070 6      2690.132 6  -6430102.195 6  -6385103.68147  23197196.49647
        45.000          29.000  
 11  3 24  2 53 30.0000000  0 11G03G05G06G07G08G10G13G16G19G23G28   
  22089731.500 6     -1609.928 6   1633409.639 6   1295090.22247  22089722.27747
        46.500          32.250  
  24140392.367 4       710.537 4  -1086489.301 4  -2328727.14046  24140383.02746
        38.500          19.000  
  23714741.086 5     -2092.211 5   3447661.807 5   2699359.49246  23714733.03546
        39.750          22.250  
  20623418.094 7       768.463 7  -3220274.169 7  -2473696.19049  20623408.34449
        51.000          42.250  
  22134682.391 6      2120.972 6  -6369682.411 6  -4928435.08948  22134673.52048
        47.500          35.750  
  23072775.813 6     -1832.998 6   2813761.829 6   2201280.05347  23072768.17247
        43.000          30.000  
  20522720.891 7     -1769.298 7   2458786.306 7   1925662.51148  20522711.02348
        51.000          40.500  
  25548478.203 3     -3508.287 3    680822.772 3                
        37.250  
  21920373.047 7       859.348 7  -4700795.491 7  -3618839.01848  21920361.53948
        47.750          36.750  
  22719012.922 6     -3429.855 6   7763373.693 6   6044154.97247  22719001.82447
        47.500          31.500  
  23189539.961 6      2685.984 6  -6470391.963 6  -6416498.28547  23189530.38747
        45.000          27.000  
 11  3 24  2 53 45.0000000  0 11G03G05G06G07G08G10G13G16G19G23G28   
  22094354.234 6     -1619.586 6   1657703.434 6   1314020.44547  22094345.01247
        47.250          32.000  
  24138390.453 4       701.617 4  -1097013.553 4  -2336927.87745  24138380.58645
        37.500          17.750  
  23720734.648 5     -2099.559 5   3479155.199 5   2723899.82746  23720725.13346
        40.500          24.250  
  20621235.805 7       764.562 7  -3231742.602 7  -2482632.62249  20621225.64549
        50.500          42.000  
  22128633.289 6      2119.236 6  -6401470.949 6  -4953205.35948  22128624.24248
        47.250          36.250  
  23078027.750 5     -1839.769 5   2841358.361 5   2222783.83847  23078019.34847
        42.000          29.000  
  20527794.602 7     -1777.697 7   2485451.757 7   1946440.78248  20527784.67648
        49.500          40.500  
  25558488.406 4     -3507.461 4    733434.681 4                
        38.500  
  21917947.742 7       849.693 7  -4713540.891 7  -3628770.48748  21917936.17648
        48.000          36.250  
  22728815.008 6     -3434.237 6   7814887.241 6   6084295.38847  22728804.49647
        47.250          30.000  
  23181884.648 6      2681.852 6  -6510619.741 6  -6447844.58347  23181874.89847
        45.500          28.500  
 11  3 24  2 54  0.0000000  0 11G03G05G06G07G08G10G13G16G19G23G28   
  22099005.086 6     -1629.280 6   1682142.627 6   1333063.98047  22098995.98047
        46.250          31.500  
  24136413.195 3       692.642 3  -1107403.183 3  -2345023.69345  24136402.50845
        37.250          18.500  
  23726749.172 5     -2106.945 5   3510759.377 5   2748526.44346  23726738.83646
        39.750          23.000  
  20619064.758 7       760.595 7  -3243151.528 7  -2491522.67449  20619054.71549
        51.000          42.000  
  22122588.977 7      2117.425 7  -6433232.319 7  -4977954.46548  22122580.51648
        47.750          35.750  
  23083298.539 6     -1846.581 6   2869057.076 6   2244367.25647  23083289.78547
        44.500          30.000  
  20532893.766 7     -1786.153 7   2512244.056 7   1967317.89648  20532883.78148
        51.750          40.750  
  25568496.539 3     -3506.684 3    786034.934 3   2250767.00356  25568488.48856
        37.000          19.750  
  21915550.180 7       839.973 7  -4726140.482 7  -3638588.33248  21915538.61348
        48.000          36.500  
  22738629.508 6     -3438.663 6   7866467.180 6   6124487.54547  22738619.81647
        46.500          30.500  
  23174241.234 6      2677.653 6  -6550784.539 6  -6479141.81147  23174231.48447
        45.000          28.000  
 11  3 24  2 54 15.0000000  0 11G03G05G06G07G08G10G13G16G19G23G28   
  22103683.109 6     -1638.948 6   1706726.844 6   1352220.52447  22103674.18047
        46.250          31.250  
  24134461.469 3       683.665 3  -1117658.152 3  -2353014.55646  24134451.42646
        36.000          19.250  
  23732785.195 5     -2114.324 5   3542474.231 5   2773239.30646  23732774.09846
        42.000          23.750  
  20616904.625 7       756.629 7  -3254500.956 7  -2500366.37949  20616894.93449
        50.250          41.750  
  22116550.508 6      2115.609 6  -6464966.449 6  -5002682.34048  22116541.69548
        47.250          36.000  
  23088588.977 6     -1853.372 6   2896857.659 6   2266030.05047  23088580.75047
        44.750          29.750  
  20538016.438 7     -1794.605 7   2539163.136 7   1988293.79648  20538006.45348
        51.000          41.000  
  25578503.930 3     -3505.898 3    838623.408 3   2291745.03145  25578495.99645
        36.000          16.250  
  21913180.250 7       830.237 7  -4738594.038 7  -3648292.38348  21913169.15248
        48.500          36.500  
  22748457.945 6     -3443.076 6   7918113.314 6   6164731.29747  22748447.66847
        47.000          30.500  
  23166610.039 6      2673.449 6  -6590886.281 6  -6510389.89947  23166600.69947
        45.000          28.000  
 11  3 24  2 54 30.0000000  0 11G03G05G06G07G08G10G13G16G19G23G28   
  22108388.852 6     -1648.545 6   1731455.015 6   1371489.22947  22108379.74647
        45.500          32.000  
  24132536.070 4       674.740 4  -1127779.247 4  -2360901.14745  24132526.14545
        39.000          18.500  
  23738840.281 5     -2121.641 5   3574298.844 5   2798037.68646  23738830.94146
        41.000          23.750  
  20614756.297 7       752.719 7  -3265791.748 7  -2509164.38349  20614746.48849
        50.750          42.000  
  22110516.617 6      2113.863 6  -6496674.396 6  -5027389.80648  22110507.86348
        47.500          35.500  
  23093898.352 6     -1860.083 6   2924758.911 6   2287771.28647  23093889.83247
        44.500          30.000  
  20543162.672 7     -1802.994 7   2566208.049 7   2009367.74848  20543153.44948
        51.500          41.250  
  25588509.766 4     -3505.031 4    891198.866 4   2332712.90946  25588499.72346
        38.500          19.000  
  21910837.977 7       820.543 7  -4750902.179 7  -3657883.12448  21910826.93848
        48.500          36.000  
  22758298.695 6     -3447.411 6   7969824.481 6   6205025.70347  22758288.00847
        47.500          29.750  
  23158990.844 6      2669.291 6  -6630925.644 6  -6541589.38247  23158981.44547
        45.750          29.000  
 11  3 24  2 54 45.0000000  0 11G03G05G06G07G08G10G13G16G19G23G28   
  22113121.336 6     -1658.167 6   1756327.518 6   1390870.39147  22113112.69947
        45.500          30.500  
  24130634.719 4       665.775 4  -1137765.871 4  -2368682.93746  24130626.08246
        38.500          19.250  
  23744917.852 5     -2128.959 5   3606233.223 5   2822921.60546  23744908.33646
        40.250          22.500  
  20612619.164 7       748.758 7  -3277023.120 7  -2517916.08949  20612609.18049
        51.500          42.500  
  22104487.477 6      2112.081 6  -6528355.606 6  -5052076.44848  22104478.72348
        47.250          36.500  
  23099226.648 6     -1866.819 6   2952761.194 6   2309591.23847  23099218.65647
        42.750          29.500  
  20548333.047 7     -1811.406 7   2593379.143 7   2030540.02548  20548323.47348
        50.500          40.500  
  25598510.117 4     -3504.171 4    943761.435 4   2373670.79946  25598502.94546
        37.750          19.500  
  21908523.891 7       810.798 7  -4763064.148 7  -3667359.96648  21908512.44148
        48.000          36.500  
  22768152.156 7     -3451.761 7   8021600.902 7   6245370.95447  22768140.64847
        47.750          31.000  
  23151383.352 6      2665.091 6  -6670902.005 6  -6572739.77547  23151373.89547
        45.500          28.250  
 11  3 24  2 55  0.0000000  0 11G03G05G06G07G08G10G13G16G19G23G28   
  22117881.969 6     -1667.780 6   1781344.224 6   1410363.93447  22117873.27347
        46.500          30.750  
  24128759.586 4       656.824 4  -1147618.231 4  -2376360.11246  24128751.30146
        38.250          19.750  
  23751014.000 5     -2136.232 5   3638276.710 5   2847890.60446  23751005.89146
        39.500          22.500  
  20610493.109 7       744.798 7  -3288195.087 7  -2526621.50949  20610482.94949
        50.250          42.250  
  22098463.789 6      2110.290 6  -6560009.951 6  -5076742.14648  22098455.38748
        46.750          35.750  
  23104574.719 5     -1873.527 5   2980864.102 5   2331489.59347  23104566.31647
        41.500          29.500  
  20553527.508 7     -1819.803 7   2620676.192 7   2051810.44848  20553517.99248
        49.750          41.000  
  25608510.680 4     -3503.335 4    996311.456 4   2414618.85545  25608502.21945
        38.500          18.500  
  21906237.484 7       801.051 7  -4775079.911 7  -3676722.88148  21906226.44548
        49.000          36.750  
  22778018.164 7     -3456.092 7   8073442.288 7   6285766.82347  22778005.89547
        47.750          30.750  
  23143788.648 6      2660.891 6  -6710815.375 6  -6603841.08947  23143779.07447
        45.500          28.250  
 11  3 24  2 55 15.0000000  0 11G03G05G06G07G08G10G13G16G19G23G28   
  22122670.320 6     -1677.329 6   1806504.157 6   1429969.08447  22122660.92247
        47.500          31.000  
  24126911.648 5       647.911 5  -1157336.898 5  -2383933.10745  24126900.60945
        39.750          18.500  
  23757132.086 5     -2143.485 5   3670428.984 5   2872944.33546  23757124.73846
        40.500          22.500  
  20608378.430 7       740.882 7  -3299308.322 7  -2535281.16249  20608368.56349
        50.500          42.250  
  22092445.070 6      2108.537 6  -6591638.007 6  -5101387.37148  22092436.66848
        47.000          36.000  
  23109941.750 6     -1880.162 6   3009066.539 6   2353465.50947  23109933.64147
        42.750          30.000  
  20558746.055 7     -1828.147 7   2648098.403 7   2073178.39248  20558736.12948
        50.500          40.500  
  25618508.898 5     -3502.419 5   1048847.745 5   2455556.26846  25618498.85546
        40.500          20.250  
  21903978.344 7       791.359 7  -4786950.301 7  -3685972.51748  21903967.30548
        48.000          36.750  
  22787894.625 7     -3460.358 7   8125347.656 7   6326212.53747  22787883.41047
        48.000          30.750  
  23136204.773 6      2656.727 6  -6750666.275 6  -6634893.71747  23136195.25847
        45.750          28.500  
 11  3 24  2 55 30.0000000  0 11G03G05G06G07G08G10G13G16G19G23G28   
  22127485.648 6     -1686.922 6   1831807.983 6   1449686.36247  22127476.30947
        47.000          31.250  
  24125088.852 5       638.941 5  -1166921.008 5  -2391401.25846  24125077.63746
        40.250          19.000  
  23763272.344 5     -2150.751 5   3702690.252 5   2898082.99546  23763263.53146
        42.000          22.750  
  20606275.336 7       736.907 7  -3310361.925 7  -2543894.35049  20606265.11749
        51.000          42.000  
  22086432.148 6      2106.725 6  -6623238.882 6  -5126011.40848  22086423.51248
        46.750          35.500  
  23115327.039 6     -1886.841 6   3037369.153 6   2375519.48647  23115319.63347
        45.500          30.000  
  20563988.203 7     -1836.542 7   2675646.531 7   2094644.45648  20563978.33648
        50.500          41.000  
  25628503.727 4     -3501.557 4   1101371.103 4   2496483.59546  25628493.85946
        38.750          20.500  
  21901747.438 7       781.585 7  -4798674.072 7  -3695107.91248  21901736.04748
        48.000          36.750  
  22797784.070 7     -3464.653 7   8177317.444 7   6366708.46647  22797772.62147
        48.000          30.250  
  23128633.773 6      2652.502 6  -6790453.809 6  -6665896.97947  23128623.84847
        45.000          28.250  
 11  3 24  2 55 45.0000000  0 11G03G05G06G07G08G10G13G16G19G23G28   
  22132328.234 6     -1696.494 6   1857255.388 6   1469515.51247  22132319.71547
        47.250          30.500  
  24123288.203 4       629.968 4  -1176370.535 4  -2398764.52946  24123279.62546
        38.250          19.000  
  23769433.305 6     -2158.004 6   3735060.315 6   2923306.41146  23769422.79346
        42.500          23.250  
  20604182.391 7       732.930 7  -3321355.879 7  -2552461.06749  20604172.93449
        50.500          42.500  
  22080423.477 6      2104.913 6  -6654812.572 6  -5150614.27148  22080415.01648
        46.500          35.750  
  23120732.219 6     -1893.486 6   3065771.449 6   2397651.14247  23120723.99247
        45.250          29.750  
  20569254.008 7     -1844.929 7   2703320.464 7   2116208.55748  20569244.08248
        50.000          40.750  
  25638496.188 4     -3500.675 4   1153881.224 4   2537400.58846  25638486.14546
        39.000          19.750  
  21899544.117 7       771.801 7  -4810251.084 7  -3704128.95348  21899533.19548
        49.000          37.500  
  22807685.734 6     -3468.935 6   8229351.475 6   6407254.44747  22807674.52047
        47.000          30.000  
  23121074.820 6      2648.276 6  -6830177.947 6  -6696850.82447  23121064.36747
        45.250          28.750  
 11  3 24  2 56  0.0000000  0 11G03G05G06G07G08G10G13G16G19G23G28   
  22137197.758 6     -1706.044 6   1882846.046 6   1489456.28947  22137188.41847
        47.250          29.750  
  24121515.742 3       620.978 3  -1185685.205 3  -2406022.71245  24121507.75045
        36.750          18.500  
  23775613.898 6     -2165.240 6   3767538.910 6   2948614.40246  23775602.50846
        43.000          22.500  
  20602102.266 7       728.943 7  -3332290.017 7  -2560981.16549  20602092.34049
        50.750          42.750  
  22074420.688 6      2103.099 6  -6686359.065 6  -5175195.94648  22074412.16848
        46.500          36.250  
  23126155.461 6     -1900.112 6   3094273.129 6   2419860.23647  23126147.64547
        45.000          28.750  
  20574544.109 7     -1853.309 7   2731120.094 7   2137870.60548  20574534.65248
        49.750          40.500  
  25648485.969 5     -3499.780 5   1206377.926 5   2578307.09546  25648475.80946
        39.500          19.500  
  21897369.484 7       761.999 7  -4821681.063 7  -3713035.40748  21897357.74248
        48.750          37.000  
  22817599.188 6     -3473.215 6   8281449.700 6   6447850.45747  22817588.44147
        47.000          30.250  
  23113526.664 6      2644.036 6  -6869838.481 6  -6727755.12247  23113517.91047
        45.250          28.000  
 11  3 24  2 56 15.0000000  0 11G03G05G06G07G08G10G13G16G19G23G28   
  22142094.984 6     -1715.737 6   1908582.103 6   1509510.36747  22142085.87947
        47.000          31.000  
  24119769.664 4       611.857 4  -1194863.064 4  -2413174.29845  24119761.20345
        38.000          18.500  
  23781815.023 6     -2172.627 6   3800128.309 6   2974008.71447  23781803.69147
        42.500          26.500  
  20600033.125 7       724.801 7  -3343162.037 7  -2569452.86249  20600023.37549
        50.500          42.750  
  22068423.070 6      2101.133 6  -6717876.066 6  -5199754.63148  22068414.31648
        47.250          36.000  
  23131598.523 6     -1906.855 6   3122875.956 6   2442148.13847  23131590.00447
        44.750          28.500  
  20579858.742 7     -1861.819 7   2759047.378 7   2159632.11848  20579848.69948
        50.500          41.000  
  25658473.977 5     -3499.023 5   1258863.275 5   2619204.85946  25658463.34846
        40.500          19.750  
  21895222.672 7       752.045 7  -4832961.732 7  -3721825.52648  21895211.10548
        48.250          36.500  
  22827525.484 6     -3477.606 6   8333613.794 6   6488497.81947  22827514.62147
        46.500          29.750  
  23105992.742 6      2639.650 6  -6909433.229 6  -6758608.14547  23105983.10947
        44.750          28.250  
 11  3 24  2 56 30.0000000  0 11G03G05G06G07G08G10G13G16G19G23G28   
  22147019.375 6     -1725.100 6   1934458.608 6   1529673.87947  22147009.68447
        47.500          30.250  
  24118048.703 5       603.051 5  -1203908.832 5  -2420222.92545  24118039.53945
        39.500          17.750  
  23788035.563 5     -2179.667 5   3832823.319 5   2999485.34346  23788025.57846
        41.500          23.750  
  20597975.508 7       720.965 7  -3353976.508 7  -2577879.72149  20597965.34849
        51.250          42.250  
  22062430.391 6      2099.478 6  -6749368.242 6  -5224293.96448  22062421.57848
        46.500          36.000  
  23137060.008 6     -1913.266 6   3151574.941 6   2464510.98347  23137051.89847
        45.000          29.500  
  20585196.859 7     -1870.016 7   2787097.618 7   2181489.44448  20585186.58248
        50.000          40.750  
  25668458.242 5     -3497.941 5   1311332.391 5   2660089.90746  25668448.14146
        40.250          22.000  
  21893103.648 7       742.388 7  -4844097.547 7  -3730502.77248  21893092.19948
        48.500          36.500  
  22837463.867 6     -3481.677 6   8385838.949 6   6529192.73747  22837452.88747
        46.500          29.500  
  23098469.289 6      2635.563 6  -6948966.673 6  -6789413.40647  23098459.71547
        45.250          29.000  
 11  3 24  2 56 45.0000000  0 11G03G05G06G07G08G10G13G16G19G23G28   
  22151970.547 6     -1734.599 6   1960477.586 6   1549948.41347  22151960.79747
        45.750          31.000  
  24116353.234 4       594.088 4  -1212820.148 4  -2427166.84345  24116343.66045
        38.750          18.250  
  23794276.281 5     -2186.842 5   3865625.947 5   3025045.85046  23794268.52346
        41.000          24.000  
  20595928.883 7       716.979 7  -3364731.191 7  -2586259.98749  20595918.95749
        50.500          42.000  
  22056443.125 6      2097.665 6  -6780833.212 6  -5248812.10348  22056434.19548
        47.000          37.000  
  23142539.914 6     -1919.807 6   3180372.041 6   2486950.28047  23142531.74647
        43.500          29.750  
  20590558.273 7     -1878.357 7   2815272.973 7   2203444.25748  20590548.64148
        50.000          40.750  
  25678440.766 5     -3496.982 5   1363787.127 5   2700963.72246  25678430.25446
        41.000          22.500  
  21891011.969 7       732.583 7  -4855086.298 7  -3739065.42248  21891000.98848
        48.250          36.750  
  22847414.102 6     -3485.876 6   8438127.086 6   6569936.72047  22847403.12147
        46.250          30.250  
  23090958.344 6      2631.326 6  -6988436.564 6  -6820169.14847  23090949.12147
        45.750          28.500  
 11  3 24  2 57  0.0000000  0 11G03G05G06G07G08G10G13G16G19G23G28   
  22156948.281 6     -1744.073 6   1986638.675 6   1570333.67647  22156939.29347
        46.500          31.000  
  24114683.867 4       585.120 4  -1221596.949 4  -2434005.90445  24114673.18045
        38.000          18.250  
  23800539.445 5     -2193.991 5   3898535.815 5   3050689.90946  23800531.45346
        40.500          22.000  
  20593893.570 7       712.995 7  -3375426.120 7  -2594593.68549  20593883.58649
        51.000          42.000  
  22050460.563 6      2095.844 6  -6812270.868 6  -5273308.96248  22050451.63348
        47.500          36.500  
  23148038.813 5     -1926.322 5   3209266.876 5   2509465.72747  23148030.17647
        42.000          30.250  
  20595943.445 7     -1886.675 7   2843573.101 7   2225496.30248  20595933.75448
        49.000          40.500  
  25688419.219 5     -3496.014 5   1416227.340 5   2741826.25446  25688409.58646
        41.500          22.500  
  21888949.289 7       722.764 7  -4865927.759 7  -3747513.29348  21888938.13348
        49.000          36.750  
  22857376.281 6     -3490.052 6   8490477.865 6   6610729.52547  22857365.47747
        47.000          29.750  
  23083460.063 6      2627.086 6  -7027842.857 6  -6850875.34247  23083450.66447
        45.500          29.250  
 11  3 24  2 57 15.0000000  0 12G03G05G06G07G08G10G11G13G16G19G23G28
  22161954.391 6     -1753.736 6   2012944.715 6   1590831.89647  22161945.05147
        45.500          30.500  
  24113039.164 4       575.952 4  -1230236.236 4  -2440737.82045  24113029.12145
        37.750          18.500  
  23806823.789 5     -2201.341 5   3931555.934 5   3076419.87946  23806815.62146
        42.250          24.750  
  20591870.672 7       708.792 7  -3386058.004 7  -2602878.26149  20591860.45349
        51.250          42.500  
  22044483.484 7      2093.816 7  -6843678.113 7  -5297782.12148  22044474.90648
        48.250          36.500  
  23153556.445 5     -1933.026 5   3238262.260 5   2532059.52747  23153547.98447
        41.500          30.000  
  25761582.53915      2531.70315    245500.90315                
        41.000  
  20601353.234 7     -1895.195 7   2872001.024 7   2247647.93448  20601343.30948
        48.250          40.500  
  25698395.039 4     -3495.250 4   1468656.083 4   2782679.80446  25698386.52046
        38.000          20.750  
  21886915.102 7       712.728 7  -4876618.684 7  -3755843.86648  21886903.47748
        49.000          37.000  
  22867351.047 6     -3494.413 6   8542894.059 6   6651573.29647  22867339.30547
        46.500          30.250  
  23075973.992 6      2622.629 6  -7067182.297 6  -6881529.42547  23075964.53547
        45.000          28.500  
 11  3 24  2 57 30.0000000  0 12G03G05G06G07G08G10G11G13G16G19G23G28
  22166983.859 6     -1761.960 6   2039374.122 6   1611426.24447  22166974.63747
        45.000          30.250  
  24111417.203 3       568.220 3  -1238759.530 3  -2447379.34246  24111407.27746
        36.500          19.250  
  23813125.227 6     -2207.237 6   3964664.487 6   3102218.75046  23813116.35546
        43.500          25.250  
  20589855.047 7       706.019 7  -3396648.282 7  -2611130.42149  20589845.35549
        51.750          42.500  
  22038508.555 7      2093.211 7  -6875076.271 7  -5322248.19548  22038499.74248
        48.000          36.250  
  23159088.672 5     -1938.281 5   3267336.472 5   2554714.75947  23159080.62147
        41.500          28.750  
  25754377.961 5      2533.758 5    207494.531 5                
        39.500  
  20606783.336 7     -1902.274 7   2900535.128 7   2269882.29148  20606773.35248
        48.750          39.750  
  25708365.820 3     -3493.053 3   1521051.877 3   2823507.73945  25708356.18845
        37.250          18.250  
  21884905.141 7       704.114 7  -4887180.397 7  -3764073.76248  21884893.39848
        47.750          37.000  
  22877333.039 6     -3497.332 6   8595354.039 6   6692451.17947  22877322.52747
        47.000          29.250  
  23068496.234 6      2619.588 6  -7106476.123 6  -6912147.97047  23068486.83647
        45.000          28.500  
 11  3 24  2 57 45.0000000  0 12G03G05G06G07G08G10G11G13G16G19G23G28
  22172043.141 6     -1772.319 6   2065958.901 6   1632141.66747  22172033.80147
        47.000          30.500  
  24109822.594 3       558.335 3  -1247134.550 3  -2453905.31346  24109814.25046
        36.500          19.000  
  23819448.320 6     -2215.255 6   3997893.308 6   3128111.32246  23819439.44946
        43.500          25.500  
  20587853.898 7       701.098 7  -3407164.754 7  -2619325.05949  20587844.09049
        50.500          42.500  
  22032541.992 6      2090.471 6  -6906433.333 6  -5346682.26048  22032532.65248
        46.500          36.250  
  23164642.414 5     -1945.656 5   3296521.319 5   2577456.19147  23164634.18847
        42.000          29.500  
  25747143.180 5      2535.442 5    169462.903 5                
        41.750  
  20612239.453 7     -1911.484 7   2929207.389 7   2292224.31048  20612229.35248
        50.500          40.250  
  25718336.656 5     -3492.970 5   1573446.428 5   2864334.67545  25718326.20345
        39.250          18.250  
  21882925.656 7       693.356 7  -4897580.734 7  -3772177.90248  21882914.50048
        48.250          36.750  
  22887330.977 6     -3502.377 6   8647889.693 6   6733388.04747  22887319.82047
        46.500          28.500  
  23061033.578 6      2614.408 6  -7145692.239 6  -6942705.96847  23061024.29747
        44.500          29.000  
 11  3 24  2 58  0.0000000  0 12G03G05G06G07G08G10G11G13G16G19G23G28
  22177129.156 6     -1781.807 6   2092686.002 6   1652967.97847  22177119.58247
        47.500          31.500  
  24108255.281 3       549.294 3  -1255373.967 3  -2460325.67746  24108245.82446
        37.000          19.500  
  23825791.727 6     -2222.406 6   4031229.391 6   3154087.49246  23825782.85546
        43.500          25.000  
  20585864.250 7       697.024 7  -3417620.111 7  -2627472.08349  20585853.73849
        51.500          42.250  
  22026580.398 7      2088.576 7  -6937761.973 7  -5371094.16448  22026571.41048
        48.000          36.750  
  23170214.289 5     -1952.152 5   3325803.592 5   2600273.53547  23170206.23847
        42.250          28.750  
  25739898.055 5      2537.934 5    131393.893 5                
        42.250  
  20617719.156 7     -1919.855 7   2958005.221 7   2314664.16548  20617709.23048
        49.500          40.500  
  25728304.133 5     -3492.027 5   1625826.831 5   2905150.65646  25728294.14846
        40.750          21.500  
  21880975.102 7       683.426 7  -4907832.129 7  -3780165.99048  21880963.77048
        48.000          36.750  
  22897340.055 6     -3506.530 6   8700487.649 6   6774373.46047  22897328.66447
        46.250          29.250  
  23053583.344 6      2610.069 6  -7184843.269 6  -6973213.24147  23053573.88747
        44.250          28.500  
 11  3 24  2 58 15.0000000  0 12G03G05G06G07G08G10G11G13G16G19G23G28
  22182241.977 6     -1791.230 6   2119554.449 6   1673904.43147  22182232.46147
        47.000          29.750  
  24106713.453 4       540.282 4  -1263478.203 4  -2466640.70746  24106703.76246
        38.000          19.500  
  23832155.094 6     -2229.511 6   4064672.055 6   3180146.71146  23832145.75446
        42.750          25.500  
  20583886.156 7       692.972 7  -3428014.692 7  -2635571.75049  20583876.52349
        50.500          42.000  
  22020623.969 6      2086.696 6  -6969062.410 6  -5395484.09648  22020614.98048
        47.500          36.500  
  23175804.875 5     -1958.596 5   3355182.529 5   2623166.21647  23175796.88347
        42.000          29.000  
  25732640.883 6      2540.461 6     93286.980 6                
        43.000  
  20623222.711 7     -1928.181 7   2986927.939 7   2337201.35048  20623213.19548
        49.750          40.000  
  25738269.531 5     -3491.045 5   1678192.503 5   2945955.08146  25738259.19546
        40.000          22.500  
  21879052.477 7       673.518 7  -4917934.904 7  -3788038.26048  21879041.61348
        48.500          36.250  
  22907360.672 6     -3510.668 6   8753147.662 6   6815407.21447  22907349.98447
        45.250          29.500  
  23046145.664 6      2605.746 6  -7223929.460 6  -7003669.99347  23046135.73847
        43.750          29.250  
 11  3 24  2 58 30.0000000  0 12G03G05G06G07G08G10G11G13G16G19G23G28
  22187381.914 6     -1800.651 6   2146564.214 6   1694951.00947  22187371.87147
        46.750          30.750  
  24105196.719 4       531.283 4  -1271447.447 4  -2472850.47246  24105187.55546
        39.000          19.000  
  23838537.367 5     -2236.604 5   4098221.119 5   3206288.84846  23838529.60946
        41.250          25.000  
  20581919.906 7       688.908 7  -3438348.306 7  -2643623.90149  20581909.80549
        50.500          42.000  
  22014672.781 6      2084.821 6  -7000334.720 6  -5419852.10748  22014663.91048
        46.500          36.250  
  23181413.898 6     -1965.011 6   3384657.693 6   2646133.88147  23181405.78947
        42.750          29.500  
  25725378.586 4      2542.966 4     55142.488 4                
        38.250  
  20628750.555 7     -1936.484 7   3015975.201 7   2359835.58248  20628740.62948
        50.000          40.250  
  25748231.039 4     -3490.052 4   1730543.282 4   2986747.90746  25748220.76246
        39.000          20.250  
  21877158.648 7       663.610 7  -4927889.052 7  -3795794.72348  21877147.14148
        48.750          37.000  
  22917393.125 6     -3514.787 6   8805869.473 6   6856489.14847  22917382.37947
        46.750          29.500  
  23038720.594 6      2601.426 6  -7262950.853 6  -7034076.24547  23038710.72747
        45.250          29.000  
 11  3 24  2 58 45.0000000  0 12G03G05G06G07G08G10G11G13G16G19G23G28
  22192548.625 6     -1810.109 6   2173715.853 6   1716108.13347  22192539.05147
        47.500          30.250  
  24103704.891 4       522.234 4  -1279280.951 4  -2478954.49646  24103696.48846
        38.000          19.250  
  23844941.766 5     -2243.723 5   4131876.971 5   3232514.21146  23844933.83246
        42.000          25.750  
  20579965.125 7       684.809 7  -3448620.448 7  -2651628.16249  20579955.25849
        50.500          41.750  
  22008727.328 6      2082.899 6  -7031578.199 6  -5444197.65848  22008718.22348
        47.500          36.750  
  23187041.305 6     -1971.454 6   3414229.505 6   2669176.83947  23187033.60547
        42.750          29.250  
  25718091.844 2      2545.389 2     16961.659 2                
        35.250  
  20634301.977 7     -1944.819 7   3045147.493 7   2382567.23148  20634291.99248
        50.000          40.750  
  25758190.328 4     -3489.093 4   1782879.670 4   3027529.47646  25758180.34446
        39.000          19.500  
  21875293.039 7       653.639 7  -4937693.631 7  -3803434.64648  21875281.12148
        48.250          36.500  
  22927438.008 6     -3518.923 6   8858653.323 6   6897619.40647  22927426.73447
        46.500          29.500  
  23031307.438 6      2597.054 6  -7301906.664 6  -7064431.40747  23031297.68847
        45.750          29.250  
 11  3 24  2 59  0.0000000  0 12G03G05G06G07G08G10G11G13G16G19G23G28
  22197742.258 6     -1819.530 6   2201008.796 6   1737375.36047  22197732.68447
        46.500          30.750  
  24102240.484 4       513.202 4  -1286978.987 4  -2484952.96646  24102230.96946
        38.000          19.750  
  23851368.156 5     -2250.802 5   4165639.002 5   3258822.27946  23851358.81646
        42.250          26.000  
  20578022.047 7       680.718 7  -3458831.220 7  -2659584.59649  20578012.12149
        51.000          41.750  
  22002787.789 6      2080.985 6  -7062792.971 6  -5468520.83848  22002778.68448
        46.750          36.500  
  23192687.289 6     -1977.856 6   3443897.352 6   2692294.62847  23192679.18047
        43.000          28.250  
  25710822.430 3      2547.812 3    -21255.526 3                
        36.000  
  20639877.211 7     -1953.144 7   3074444.652 7   2405396.18348  20639867.22748
        49.500          40.500  
  25768146.523 5     -3488.101 5   1835201.183 5   3068299.55446  25768137.18446
        40.000          19.750  
  21873455.609 6       643.679 6  -4947348.813 6  -3810958.15048  21873444.04348
        47.500          36.250  
  22937494.508 6     -3523.019 6   8911498.603 6   6938797.53747  22937483.05947
        46.250          29.500  
  23023906.633 6      2592.693 6  -7340797.054 6  -7094735.59547  23023896.82447
        44.500          29.500  
 11  3 24  2 59 15.0000000  0 12G03G05G06G07G08G10G11G13G16G19G23G28
  22202962.359 6     -1828.833 6   2228441.292 6   1758751.33847  22202953.19547
        47.000          31.000  
  24100802.539 4       504.277 4  -1294543.141 4  -2490847.11645  24100792.26245
        38.500          18.500  
  23857813.422 6     -2257.763 6   4199505.454 6   3285211.73046  23857804.08246
        42.500          25.500  
  20576090.391 7       676.717 7  -3468981.970 7  -2667494.25749  20576080.23049
        50.750          42.500  
  21996852.805 6      2079.163 6  -7093980.416 6  -5492822.73048  21996843.87548
        46.000          36.250  
  23198350.320 5     -1984.127 5   3473659.259 5   2715485.71747  23198342.27047
        42.000          29.250  
  25703540.430 5      2550.338 5    -59510.591 5                
        39.250  
  20645475.445 7     -1961.341 7   3103864.774 7   2428320.94448  20645465.57848
        48.750          40.250  
  25778099.469 5     -3486.996 5   1887506.120 5   3109056.68146  25778089.36746
        39.500          19.750  
  21871646.305 6       633.807 6  -4956855.922 6  -3818366.27048  21871634.44548
        46.750          36.500  
  22947561.758 6     -3526.991 6   8964403.474 6   6980022.10247  22947550.13347
        46.750          29.000  
  23016517.789 6      2588.429 6  -7379623.492 6  -7124989.95047  23016508.68447
        42.500          29.500  
 11  3 24  2 59 30.0000000  0 12G03G05G06G07G08G10G11G13G16G19G23G28
  22208209.063 6     -1838.149 6   2256013.523 6   1780236.19747  22208199.95747
        45.750          30.250  
  24099388.641 5       495.314 5  -1301972.851 5  -2496636.50946  24099378.65646
        40.250          19.000  
  23864277.672 6     -2264.738 6   4233476.527 6   3311682.67146  23864269.03546
        42.750          26.000  
  20574170.242 7       672.686 7  -3479072.267 7  -2675356.81549  20574160.02349
        51.000          42.500  
  21990922.852 6      2077.305 6  -7125139.997 6  -5517102.90348  21990914.27348
        47.000          36.500  
  23204031.711 5     -1990.413 5   3503515.460 5   2738750.27747  23204024.12947
        41.000          29.250  
  25696251.883 5      2552.799 5    -97802.574 5                
        40.750  
  20651096.961 7     -1969.565 7   3133408.251 7   2451341.83648  20651086.97748
        48.250          40.250  
  25788050.188 4     -3485.907 4   1939794.729 4   3149801.11346  25788039.67646
        39.000          19.000  
  21869865.125 7       623.894 7  -4966214.331 7  -3825658.52248  21869853.67648
        48.000          37.250  
  22957641.039 6     -3530.977 6   9017368.135 6   7021293.24447  22957628.88747
        46.000          29.250  
  23009142.133 6      2584.122 6  -7418385.326 6  -7155193.96247  23009132.61747
        43.750          28.500  
 11  3 24  2 59 45.0000000  0 12G03G05G06G07G08G10G11G13G16G19G23G28
  22213482.234 6     -1847.475 6   2283725.652 6   1801830.06147  22213473.18847
        46.250          30.250  
  24098000.109 4       486.306 4  -1309267.435 4  -2502320.59346  24097990.06646
        39.000          19.500  
  23870762.859 6     -2271.733 6   4267552.515 6   3338235.37747  23870754.10547
        43.250          26.500  
  20572261.578 7       668.608 7  -3489101.384 7  -2683171.69549  20572251.30149
        50.750          42.250  
  21984998.961 6      2075.403 6  -7156271.043 6  -5541360.83148  21984990.26648
        46.000          36.500  
  23209731.531 5     -1996.724 5   3533466.314 5   2762088.60247  23209723.30547
        41.000          28.250  
  25688959.055 5      2555.211 5   -136130.739 5                
        40.250  
  20656742.680 7     -1977.819 7   3163075.540 7   2474459.19748  20656733.04748
        48.500          40.000  
  25797997.844 5     -3484.857 5   1992067.586 5   3190533.21246  25797986.86346
        39.500          19.500  
  21868113.180 7       613.940 7  -4975423.436 7  -3832834.43548  21868101.61348
        48.500          37.250  
  22967730.883 6     -3534.987 6   9070392.943 6   7062611.27347  22967719.55147
        46.000          29.000  
  23001778.117 6      2579.776 6  -7457081.967 6  -7185347.16147  23001768.83647
        45.000          29.000  
 11  3 24  3  0  0.0000000  0 12G03G05G06G07G08G10G11G13G16G19G23G28
  22218782.063 6     -1856.739 6   2311576.734 6   1823532.21147  22218772.84047
        46.000          30.500  
  24096636.805 4       477.365 4  -1316427.918 4  -2507900.19246  24096628.34446
        39.000          19.250  
  23877266.313 5     -2278.650 5   4301732.270 5   3364868.95647  23877258.73047
        41.750          26.500  
  20570364.844 7       664.583 7  -3499070.134 7  -2690939.54649  20570355.09449
        51.000          42.000  
  21979079.977 6      2073.568 6  -7187374.557 6  -5565597.31348  21979071.16448
        46.250          36.500  
  23215448.867 5     -2002.938 5   3563510.391 5   2785499.56547  23215440.17247
        41.250          28.500  
  25681662.094 4      2557.671 4   -174495.801 4                
        38.250  
  20662411.758 7     -1986.007 7   3192865.638 7   2497672.25548  20662402.06648
        48.500          40.000  
  25807942.695 4     -3483.718 4   2044323.363 4   3231252.03045  25807931.18845
        39.000          17.750  
  21866389.008 7       604.045 7  -4984484.114 7  -3839894.68048  21866377.38348
        48.500          37.000  
  22977831.961 6     -3538.914 6   9123476.658 6   7103975.18747  22977820.86347
        46.500          28.500  
  22994426.844 6      2575.480 6  -7495714.174 6  -7215450.16747  22994417.32847
        45.500          30.000  
 11  3 24  3  0 15.0000000  0 12G03G05G06G07G08G10G11G13G16G19G23G28
  22224108.977 6     -1866.022 6   2339567.062 6   1845342.85847  22224099.22747
        45.000          29.500  
  24095300.156 4       468.396 4  -1323453.854 4  -2513374.95446  24095291.16846
        38.750          20.000  
  23883790.242 5     -2285.583 5   4336016.016 5   3391583.57546  23883781.84046
        42.000          26.000  
  20568479.234 7       660.529 7  -3508978.075 7  -2698660.00949  20568469.25049
        50.500          42.500  
  21973166.664 6      2071.692 6  -7218449.938 6  -5589811.87948  21973157.73448
        46.500          36.500  
  23221183.727 5     -2009.170 5   3593647.941 5   2808983.36147  23221175.73447
        41.000          29.000  
  25674352.586 5      2560.068 5   -212896.824 5                
        41.000  
  20668104.063 7     -1994.218 7   3222778.915 7   2520981.29748  20668094.07848
        47.750          40.500  
  25817882.930 5     -3482.612 5   2096562.545 5   3271957.88246  25817871.94946
        39.500          19.000  
  21864692.781 7       594.103 7  -4993395.652 7  -3846838.72948  21864681.39148
        48.750          37.250  
  22987944.898 6     -3542.866 6   9176619.642 6   7145385.29747  22987933.62547
        45.500          28.750  
  22987087.969 6      2571.166 6  -7534281.659 6  -7245502.73147  22987078.74647
        45.750          29.750  
 11  3 24  3  0 30.0000000  0 12G03G05G06G07G08G10G11G13G16G19G23G28
  22229462.117 6     -1875.301 6   2367696.583 6   1867261.97247  22229452.48447
        44.500          30.750  
  24093989.250 4       459.392 4  -1330344.738 4  -2518744.44846  24093980.20346
        39.000          19.000  
  23890333.734 5     -2292.529 5   4370403.944 5   3418379.38347  23890325.03947
        40.750          26.500  
  20566605.805 7       656.436 7  -3518824.612 7  -2706332.62649  20566596.05549
        50.250          42.750  
  21967258.641 6      2069.777 6  -7249496.586 6  -5614004.05248  21967249.59448
        47.000          36.500  
  23226936.500 5     -2015.405 5   3623879.012 5   2832540.03447  23226928.44947
        41.250          29.250  
  25667036.563 5      2562.412 5   -251332.997 5                
        40.750  
  20673819.484 7     -2002.445 7   3252815.585 7   2544386.49148  20673809.96948
        48.000          40.000  
  25827819.609 3     -3481.525 3   2148785.418 3   3312651.05246  25827809.62546
        37.000          20.000  
  21863025.602 7       584.116 7  -5002157.396 7  -3853666.04948  21863014.15248
        49.000          37.000  
  22998068.906 6     -3546.825 6   9229822.011 6   7186841.67047  22998057.51647
        46.250          29.250  
  22979760.445 6      2566.785 6  -7572783.431 6  -7275504.09347  22979751.28147
        45.500          30.500  
 11  3 24  3  0 45.0000000  0 12G03G05G06G07G08G10G11G13G16G19G23G28
  22234840.852 6     -1884.538 6   2395964.656 6   1889289.04247  22234831.21947
        44.500          31.000  
  24092703.500 5       450.429 5  -1337101.178 5  -2524009.22446  24092693.80946
        40.250          19.750  
  23896896.836 5     -2299.416 5   4404895.183 5   3445255.69246  23896888.08246
        41.250          25.750  
  20564743.711 7       652.372 7  -3528610.198 7  -2713957.74849  20564733.31649
        50.750          42.750  
  21961356.633 6      2067.896 6  -7280515.028 6  -5638174.25348  21961347.29348
        47.250          36.750  
  23232706.148 5     -2021.578 5   3654202.682 5   2856168.84747  23232698.62547
        41.000          28.500  
  25659718.930 5      2564.787 5   -289804.801 5                
        41.500  
  20679558.867 7     -2010.623 7   3282974.925 7   2567887.27048  20679549.23448
        48.750          40.000  
  25837754.133 4     -3480.392 4   2200991.297 4   3353330.96045  25837744.26645
        38.750          18.500  
  21861386.930 7       574.164 7  -5010769.852 7  -3860377.04548  21861375.07048
        48.000          37.000  
  23008204.352 6     -3550.722 6   9283082.847 6   7228343.61447  23008192.90247
        45.250          29.250  
  22972446.641 6      2562.444 6  -7611220.088 6  -7305454.70647  22972437.00847
        45.500          29.750  
 11  3 24  3  1  0.0000000  0 12G03G05G06G07G08G10G11G13G16G19G23G28
  22240246.461 6     -1893.720 6   2424370.450 6   1911423.42447  22240236.77047
        43.750          30.500  
  24091442.773 5       441.507 5  -1343723.781 5  -2529169.71345  24091432.96545
        39.750          18.500  
  23903481.055 6     -2306.245 6   4439488.864 6   3472211.81146  23903470.71946
        42.500          26.000  
  20562892.531 7       648.341 7  -3538335.309 7  -2721535.74949  20562882.95749
        50.000          42.000  
  21955459.055 6      2066.058 6  -7311505.899 6  -5662322.95548  21955449.89148
        47.000          37.000  
  23238494.609 5     -2027.686 5   3684617.980 5   2879869.07747  23238486.26647
        41.000          29.250  
  25652416.523 5      2567.181 5   -328312.509 5                
        40.000  
  20685321.383 7     -2018.755 7   3313256.242 7   2591483.09448  20685311.45748
        49.500          40.500  
  25847685.234 3     -3479.189 3   2253179.130 3   3393996.83746  25847674.84046
        36.750          20.000  
  21859776.000 7       564.249 7  -5019233.584 7  -3866972.14448  21859764.84448
        48.000          37.250  
  23018349.797 6     -3554.562 6   9336401.270 6   7269890.41647  23018339.05147
        45.750          29.250  
  22965144.750 6      2558.143 6  -7649592.235 6  -7335355.07747  22965134.94147
        46.000          30.250  
 11  3 24  3  1 15.0000000  0 12G03G05G06G07G08G10G11G13G16G19G23G28
  22245676.031 6     -1902.118 6   2452902.223 6   1933655.97647  22245666.63347
        45.250          30.500  
  24090206.156 5       433.340 5  -1350223.877 5  -2534234.72246  24090196.46546
        40.000          19.750  
  23910081.758 5     -2312.303 5   4474173.403 5   3499238.72246  23910070.83646
        42.250          26.000  
  20561051.695 7       645.049 7  -3548011.051 7  -2729075.27549  20561041.59449
        50.000          42.500  
  21949564.477 7      2064.968 7  -7342480.423 7  -5686458.93148  21949555.60548
        48.000          36.750  
  23244298.297 5     -2033.018 5   3715113.256 5   2903631.61847  23244289.60247
        40.750          28.500  
  25645078.969 6      2570.309 6   -366867.139 6                
        43.500  
  20691104.453 7     -2026.115 7   3343647.961 7   2615164.95648  20691094.52748
        49.000          40.000  
  25857610.352 3     -3477.240 3   2305337.729 3   3434639.91945  25857600.07445
        36.000          17.250  
  21858191.508 7       555.072 7  -5027559.666 7  -3873459.98248  21858179.94148
        48.250          37.250  
  23028504.898 6     -3557.630 6   9389765.727 6   7311473.10447  23028494.27047
        44.750          27.250  
  22957853.102 6      2554.586 6  -7687911.024 6  -7365213.85647  22957843.29347
        46.500          30.500  
 11  3 24  3  1 30.0000000  0 12G03G05G06G07G08G10G11G13G16G19G23G28
  22251133.586 6     -1912.207 6   2481585.326 6   1956006.44947  22251124.94947
        45.500          30.000  
  24088997.266 4       423.474 4  -1356575.991 4  -2539184.41646  24088987.57446
        38.750          19.750  
  23916703.586 6     -2320.044 6   4508974.063 6   3526356.11247  23916693.13347
        42.500          26.500  
  20559224.430 7       640.085 7  -3557612.324 7  -2736556.78249  20559214.44549
        50.250          42.500  
  21943678.266 7      2062.174 7  -7373413.026 7  -5710562.23648  21943669.68848
        48.500          36.750  
  23250121.234 5     -2040.031 5   3745713.719 5   2927476.12647  23250112.24647
        41.500          29.000  
  25637736.492 5      2571.718 5   -405442.903 5                
        41.500  
  20696913.625 7     -2035.176 7   3374175.597 7   2638952.71548  20696903.87548
        49.000          40.250  
  25867534.906 3     -3476.972 3   2357492.303 3   3475279.87245  25867525.03945
        36.250          16.250  
  21856638.352 7       544.186 7  -5035722.459 7  -3879820.58848  21856626.90248
        48.000          37.250  
  23038673.109 6     -3562.388 6   9443201.543 6   7353111.39247  23038662.65647
        45.500          28.500  
  22950576.414 6      2549.329 6  -7726150.966 6  -7395011.20347  22950566.60547
        46.000          30.750  
 11  3 24  3  1 45.0000000  0 12G03G05G06G07G08G10G11G13G16G19G23G28
  22256618.578 6     -1921.376 6   2510405.969 6   1978464.10147  22256609.23847
        45.250          30.000  
  24087813.219 4       414.501 4  -1362793.510 4  -2544029.24046  24087804.75846
        37.750          19.250  
  23923344.844 5     -2326.866 5   4543877.050 5   3553553.24847  23923335.73847
        42.250          26.500  
  20557408.953 7       635.991 7  -3567152.191 7  -2743990.43949  20557399.26249
        50.000          42.500  
  21937797.289 7      2060.270 7  -7404317.082 7  -5734643.30048  21937788.24248
        48.750          37.000  
  23255961.320 5     -2046.113 5   3776405.412 5   2951391.71347  23255953.44547
        41.250          27.500  
  25630388.461 5      2573.993 5   -444052.803 5                
        39.750  
  20702746.055 7     -2043.324 7   3404825.459 7   2662835.72048  20702736.65648
        49.250          40.250  
  25877455.898 3     -3475.789 3   2409629.131 3   3515906.01545  25877446.03145
        36.750          16.750  
  21855113.438 7       534.194 7  -5043735.374 7  -3886064.40148  21855102.45748
        48.500          36.750  
  23048852.383 6     -3566.219 6   9496694.824 6   7394794.45647  23048841.75447
        44.750          26.500  
  22943311.398 6      2544.959 6  -7764325.353 6  -7424757.45647  22943301.82447
        45.250          30.000  
 11  3 24  3  2  0.0000000  0 12G03G05G06G07G08G10G11G13G16G19G23G28
  22262129.070 6     -1930.563 6   2539364.416 6   2001029.12847  22262120.19947
        45.500          30.250  
  24086655.797 4       405.519 4  -1368876.292 4  -2548769.07446  24086647.57046
        38.000          20.000  
  23930005.023 5     -2333.686 5   4578882.334 5   3580830.07246  23929996.97346
        40.750          24.500  
  20555605.930 7       631.883 7  -3576630.438 7  -2751376.07549  20555595.35949
        50.500          42.500  
  21931922.180 7      2058.333 7  -7435192.072 7  -5758701.71048  21931913.48448
        48.750          36.500  
  23261819.758 5     -2052.202 5   3807188.437 5   2975378.52247  23261811.18047
        41.250          27.500  
  25623034.109 4      2576.234 4   -482696.316 4                
        39.000  
  20708601.930 7     -2051.479 7   3435597.641 7   2686814.03848  20708592.29748
        50.000          40.500  
  25887374.445 3     -3474.626 3   2461748.526 3   3556518.52345  25887364.46145
        36.000          16.750  
  21853617.398 7       524.181 7  -5051598.094 7  -3892191.17948  21853605.83248
        49.000          37.250  
  23059043.125 6     -3570.045 6   9550245.492 6   7436522.24547  23059032.32047
        45.000          28.000  
  22936060.180 6      2540.569 6  -7802433.888 6  -7454452.40747  22936049.78547
        45.500          30.000  
 11  3 24  3  2 15.0000000  0 12G03G05G06G07G08G10G11G13G16G19G23G28
  22267665.938 6     -1939.750 6   2568460.663 6   2023701.52847  22267656.83247
        44.500          30.750  
  24085524.297 5       396.501 5  -1374823.812 5  -2553403.51746  24085515.66046
        39.500          20.250  
  23936685.117 5     -2340.531 5   4613990.302 5   3608186.94447  23936678.59047
        40.000          26.500  
  20553814.094 7       627.733 7  -3586046.434 7  -2758713.18649  20553803.81649
        50.500          42.500  
  21926052.367 7      2056.349 7  -7466037.307 7  -5782736.94048  21926043.20348
        48.250          37.000  
  23267693.938 5     -2058.301 5   3838062.947 5   2999436.56347  23267686.12147
        40.750          29.250  
  25615661.445 4      2578.429 4   -521372.758 4                
        39.000  
  20714481.242 7     -2059.655 7   3466492.471 7   2710887.92748  20714471.02348
        49.750          40.500  
  25897289.000 2     -3473.484 2   2513850.793 2   3597117.73945  25897279.01645
        34.250          15.500  
  21852150.141 7       514.111 7  -5059309.752 7  -3898200.24948  21852138.63348
        48.000          37.000  
  23069245.266 6     -3573.896 6   9603853.925 6   7478295.03447  23069233.58247
        45.000          28.750  
  22928820.797 6      2536.144 6  -7840476.045 6  -7484095.62747  22928811.10547
        45.750          30.500  
 11  3 24  3  2 30.0000000  0 12G03G05G06G07G08G10G11G13G16G19G23G28
  22273231.516 6     -1949.902 6   2597709.200 6   2046492.60247  22273222.05947
        43.500          31.750  
  24084422.398 5       386.500 5  -1380621.316 5  -2557921.04446  24084411.94546
        40.000          20.000  
  23943387.945 5     -2348.325 5   4649215.176 5   3635634.90446  23943381.59446
        39.250          25.250  
  20552036.594 7       622.597 7  -3595385.387 7  -2765990.27649  20552026.49249
        50.500          42.250  
  21920191.141 7      2053.413 7  -7496838.495 7  -5806737.84648  21920182.09448
        48.500          37.250  
  23273589.156 5     -2065.356 5   3869043.284 5   3023577.07247  23273581.16447
        41.000          28.500  
  25608283.711 3      2579.614 3   -560066.970 3                
        37.000  
  20720386.484 7     -2068.801 7   3497524.488 7   2735068.72148  20720376.44148
        49.500          40.250  
  25907203.797 3     -3473.312 3   2565950.466 3   3637714.88445  25907193.05145
        36.000          16.750  
  21850713.742 6       503.056 6  -5066855.593 6  -3904080.10848  21850702.46948
        47.000          37.000  
  23079460.156 6     -3578.708 6   9657534.538 6   7520124.06147  23079448.64847
        45.750          27.250  
  22921597.336 6      2530.728 6  -7878436.967 6  -7513675.55547  22921587.52747
        44.500          30.500  
 11  3 24  3  2 45.0000000  0 12G03G05G06G07G08G10G11G13G16G19G23G28
  22278820.313 6     -1957.946 6   2627078.391 6   2069377.69047  22278810.85547
        44.750          30.750  
  24083340.500 4       378.593 4  -1386300.213 4  -2562346.16546  24083331.51246
        38.750          20.250  
  23950107.539 4     -2354.023 4   4684525.517 4   3663149.48246  23950100.71946
        39.000          25.750  
  20550268.227 7       619.544 7  -3604678.548 7  -2773231.69349  20550257.71549
        49.750          42.250  
  21914332.297 7      2052.539 7  -7527626.587 7  -5830728.55348  21914323.60248
        47.750          36.500  
  23279499.125 5     -2070.292 5   3900097.663 5   3047775.26447  23279491.19147
        41.250          29.250  
  25600913.320 3      2582.886 3   -598810.256 3                
        37.250  
  20726311.805 7     -2075.849 7   3528662.223 7   2759331.88648  20726301.87948
        50.500          40.500  
  25917111.570 2     -3471.027 2   2618015.876 2   3678285.36845  25917100.29745
        35.000          17.750  
  21849303.266 6       494.099 6  -5074267.073 6  -3909855.27448  21849291.75848
        45.750          37.250  
  23089683.242 6     -3581.413 6   9711255.731 6   7561984.72047  23089671.67647
        45.500          27.250  
  22914383.133 6      2527.406 6  -7916348.059 6  -7543216.64747  22914373.38347
        45.250          30.500  
 11  3 24  3  3  0.0000000  0 12G03G05G06G07G08G10G11G13G16G19G23G28
  22284435.117 6     -1967.000 6   2656583.387 6   2092368.59447  22284425.66047
        43.750          30.000  
  24082285.672 4       369.675 4  -1391845.336 4  -2566667.08446  24082276.09846
        38.500          20.500  
  23956847.438 5     -2360.720 5   4719936.312 5   3690742.31546  23956839.38746
        41.000          25.250  
  20548511.227 7       615.464 7  -3613910.513 7  -2780425.41749  20548500.89149
        50.750          42.250  
  21908478.688 7      2050.648 7  -7558386.314 7  -5854697.14848  21908469.93448
        47.750          37.000  
  23285426.125 5     -2076.222 5   3931241.000 5   3072042.77847  23285417.25447
        41.250          29.250  
  25593535.531 3      2585.107 3   -637586.858 3                
        37.000  
  20732260.273 7     -2083.912 7   3559920.900 7   2783689.29148  20732250.28948
        50.500          40.000  
  25927015.445 3     -3469.769 3   2670062.404 3   3718841.07445  25927004.40645
        36.750          16.750  
  21847921.828 6       484.108 6  -5081528.696 6  -3915513.67148  21847909.91048
        47.000          36.750  
  23099917.234 6     -3585.114 6   9765032.441 6   7603888.63147  23099904.61347
        45.000          26.750  
  22907181.625 6      2523.029 6  -7954193.501 6  -7572706.59347  22907171.58247
        45.250          31.000  
 11  3 24  3  3 15.0000000  0 12G03G05G06G07G08G10G11G13G16G19G23G28
  22290075.281 6     -1976.022 6   2686223.716 6   2115464.95347  22290065.88347
        43.500          31.250  
  24081255.516 4       360.760 4  -1397256.739 4  -2570883.73946  24081247.17246
        39.000          20.250  
  23963605.758 5     -2367.383 5   4755447.056 5   3718413.01446  23963595.65646
        41.750          25.500  
  20546766.273 7       611.390 7  -3623081.368 7  -2787571.54049  20546756.11349
        50.250          42.250  
  21902630.961 7      2048.765 7  -7589117.795 7  -5878643.73748  21902621.85548
        47.750          37.000  
  23291368.844 5     -2082.120 5   3962472.806 5   3096379.24947  23291360.55947
        40.750          28.500  
  25586177.797 4      2587.329 4   -676396.794 4                
        38.000  
  20738231.211 7     -2091.950 7   3591300.155 7   2808140.65248  20738221.46148
        49.250          40.250  
  25936915.938 3     -3468.488 3   2722089.719 3   3759381.86545  25936905.60245
        36.750          16.750  
  21846568.156 6       474.121 6  -5088640.511 6  -3921055.32848  21846556.06348
        46.750          36.500  
  23110161.195 6     -3588.783 6   9818864.183 6   7645835.44047  23110148.45747
        45.250          27.000  
  22899991.930 6      2518.679 6  -7991973.692 6  -7602145.69647  22899981.88747
        45.500          30.500  
 11  3 24  3  3 30.0000000  0 12G03G05G06G07G08G10G11G13G16G19G23G28
  22295737.297 6     -1983.618 6   2715977.984 6   2138650.10547  22295728.01647
        44.250          30.750  
  24080247.305 5       353.257 5  -1402555.590 5  -2575012.70446  24080238.72746
        39.750          21.500  
  23970378.867 5     -2372.629 5   4791036.491 5   3746145.01746  23970368.06346
        41.000          24.250  
  20545028.477 7       608.723 7  -3632212.217 7  -2794686.47349  20545018.14149
        50.000          41.500  
  21896784.125 7      2048.288 7  -7619842.108 7  -5902584.72948  21896775.25448
        47.750          36.500  
  23297324.078 5     -2086.596 5   3993771.744 5   3120768.02347  23297316.67247
        41.000          27.500  
  25578789.094 5      2590.936 5   -715260.834 5                
        39.500  
  20744221.188 7     -2098.569 7   3622778.687 7   2832669.37148  20744211.73048
        49.250          40.000  
  25946808.117 3     -3465.777 3   2774076.380 3   3799890.94145  25946798.19145
        37.000          18.250  
  21845239.328 6       465.528 6  -5095623.433 6  -3926496.55248  21845227.41048
        47.500          36.500  
  23120410.695 6     -3591.028 6   9872729.599 6   7687808.47047  23120398.83647
        45.000          27.250  
  22892810.773 6      2515.737 6  -8029709.752 6  -7631550.41347  22892801.02347
        45.500          31.000  
 11  3 24  3  3 45.0000000  0 12G03G05G06G07G08G10G11G13G16G19G23G28
  22301430.008 6     -1994.266 6   2745891.971 6   2161959.70347  22301420.78547
        43.000          30.750  
  24079268.578 5       342.674 5  -1407695.707 5  -2579017.97946  24079259.82446
        39.500          20.000  
  23977174.813 5     -2380.919 5   4826750.280 5   3773973.94446  23977163.77346
        41.000          25.500  
  20543307.148 7       602.972 7  -3641256.800 7  -2801734.19049  20543297.04749
        50.250          41.750  
  21890947.703 6      2044.726 6  -7650513.001 6  -5926484.10148  21890938.53948
        47.500          37.000  
  23303302.461 5     -2094.116 5   4025183.478 5   3145244.68947  23303294.23447
        40.750          28.500  
  25571391.078 5      2591.439 5   -754132.417 5                
        41.250  
  20750239.133 7     -2108.253 7   3654402.479 7   2857311.28048  20750229.55948
        48.500          40.250  
  25956702.914 3     -3466.126 3   2826068.275 3   3840404.12745  25956692.16845
        36.500          15.500  
  21843943.563 7       453.853 7  -5102431.230 7  -3931801.31048  21843932.23048
        47.750          36.500  
  23130675.086 6     -3596.328 6   9926674.519 6   7729843.45547  23130664.57447
        43.500          28.000  
  22885646.500 6      2509.700 6  -8067355.254 6  -7660884.56147  22885636.80947
        46.000          30.250  
 11  3 24  3  4  0.0000000  0 12G03G05G06G07G08G10G11G13G16G19G23G28
  22307148.109 6     -2003.275 6   2775941.099 6   2185374.60747  22307138.53547
        43.250          31.000  
  24078317.711 5       333.721 5  -1412701.521 5  -2582918.66346  24078307.55146
        40.250          20.750  
  23983988.859 5     -2387.573 5   4862563.868 5   3801880.63046  23983979.34446
        40.500          24.250  
  20541597.859 7       598.846 7  -3650239.495 7  -2808733.67849  20541587.75849
        50.500          41.500  
  21885117.055 7      2042.781 7  -7681154.723 7  -5950360.73848  21885108.24248
        47.750          37.250  
  23309296.305 5     -2099.980 5   4056683.182 5   3169789.89647  23309287.90247
        41.250          28.500  
  25563987.750 4      2593.550 4   -793035.661 4                
        39.000  
  20756280.547 7     -2116.295 7   3686146.898 7   2882047.18948  20756270.50448
        49.000          40.500  
  25966592.086 2     -3464.862 2   2878041.203 2   3880902.57745  25966581.57445
        34.500          15.500  
  21842677.227 6       443.805 6  -5109088.308 6  -3936988.62948  21842665.60248
        47.500          36.500  
  23140950.195 6     -3599.986 6   9980674.311 6   7771921.20047  23140940.27047
        43.250          27.750  
  22878495.563 6      2505.293 6  -8104934.649 6  -7690167.17747  22878486.16447
        45.750          29.500  
 11  3 24  3  4 15.0000000  0 12G03G05G06G07G08G10G11G13G16G19G23G28
  22312892.016 6     -2012.276 6   2806125.245 6   2208894.72647  22312882.55947
        44.500          30.250  
  24077391.234 5       324.770 5  -1417573.065 5  -2586714.68046  24077381.19146
        40.750          21.500  
  23990822.031 5     -2394.210 5   4898477.024 5   3829864.93746  23990813.86346
        40.000          23.750  
  20539900.250 7       594.707 7  -3659160.095 7  -2815684.78349  20539890.09049
        50.500          41.750  
  21879291.703 7      2040.836 7  -7711767.265 7  -5974214.63948  21879282.53948
        48.250          37.250  
  23315307.383 5     -2105.837 5   4088270.739 5   3194403.57647  23315298.62947
        41.250          28.500  
  25556578.875 4      2595.633 4   -831970.158 4                
        39.000  
  20762344.242 7     -2124.332 7   3718011.884 7   2906877.03348  20762334.02348
        50.000          40.250  
  25976478.258 1     -3463.581 1   2929994.922 1   3921386.09145  25976467.51245
        33.500          14.750  
  21841439.070 7       433.739 7  -5115594.396 7  -3942058.28748  21841427.03548
        48.500          36.250  
  23151236.234 6     -3603.636 6  10034728.848 6   7814041.62147  23151226.42647
        42.500          28.000  
  22871357.180 6      2500.874 6  -8142447.753 6  -7719398.16047  22871347.66447
        46.500          29.250  
 11  3 24  3  4 30.0000000  0 12G03G05G06G07G08G10G11G13G16G19G23G28
  22318661.234 6     -2021.212 6   2836443.417 6   2232519.27547  22318652.01247
        44.500          31.500  
  24076488.125 5       315.868 5  -1422311.089 5  -2590406.64146  24076479.43046
        40.500          22.500  
  23997674.547 4     -2400.778 4   4934488.695 4   3857925.98646  23997667.25846
        39.000          23.000  
  20538214.742 7       590.615 7  -3668019.324 7  -2822588.06749  20538204.34849
        50.750          42.000  
  21873471.641 7      2038.922 7  -7742351.095 7  -5998046.17348  21873462.47748
        48.000          37.500  
  23321334.594 5     -2111.621 5   4119945.058 5   3219084.85747  23321326.60247
        41.250          28.000  
  25549165.281 5      2597.754 5   -870936.470 5                
        39.500  
  20768430.477 7     -2132.304 7   3749996.437 7   2931800.05648  20768420.66848
        50.250          40.000  
  25986361.672 1     -3462.227 1   2981928.329 1                
        26.750  
  21840230.227 7       423.694 7  -5121949.808 7  -3947010.54748  21840218.07448
        48.500          36.500  
  23161533.094 6     -3607.216 6  10088837.091 6   7856203.89047  23161522.93447
        43.500          27.750  
  22864231.414 6      2496.495 6  -8179895.185 6  -7748577.96347  22864221.54747
        46.500          29.750  
 11  3 24  3  4 45.0000000  0 11G03G05G06G07G08G10G11G13G19G23G28   
  22324455.313 6     -2029.857 6   2866891.273 6   2256244.88447  22324445.73847
        44.500          30.000  
  24075610.820 5       307.240 5  -1426919.684 5  -2593997.74146  24075602.35946
        39.750          22.000  
  24004545.383 5     -2407.056 5   4970594.530 5   3886060.41746  24004538.62146
        39.250          25.500  
  20536539.789 7       586.782 7  -3676821.061 7  -2829446.55649  20536529.62949
        49.750          42.000  
  21867656.375 7      2037.280 7  -7772910.300 7  -6021858.51848  21867647.27048
        48.250          37.000  
  23327377.297 6     -2117.097 6   4151701.517 6   3243830.14147  23327369.83247
        43.250          29.000  
  25541743.117 5      2600.122 5   -909938.303 5   -683718.73456  25541734.83256
        40.500          20.000  
  20774538.492 7     -2139.999 7   3782096.422 7   2956813.02748  20774528.68448
        50.500          39.750  
  21839048.086 7       413.955 7  -5128159.139 7  -3951848.96948  21839036.34448
        47.750          37.000  
  23171840.148 6     -3610.504 6  10142994.646 6   7898404.57447  23171828.99247
        45.000          28.500  
  22857117.281 6      2492.386 6  -8217280.973 6  -7777709.72447  22857107.00447
        47.500          31.500  
 11  3 24  3  5  0.0000000  0 11G03G05G06G07G08G10G11G13G19G23G28   
  22330275.805 6     -2039.180 6   2897478.977 6   2280079.46247  22330266.69947
        43.750          30.500  
  24074761.398 5       297.915 5  -1431388.415 5  -2597479.88446  24074751.41446
        40.750          21.250  
  24011436.977 5     -2414.022 5   5006804.854 5   3914276.24946  24011428.75046
        41.250          23.750  
  20534877.781 7       582.247 7  -3685554.761 7  -2836252.02649  20534867.50449
        50.750          42.500  
  21861847.883 7      2034.941 7  -7803434.410 7  -6045643.51548  21861838.95348
        48.750          38.000  
  23333438.547 6     -2123.259 6   4183550.395 6   3268647.43247  23333430.73047
        44.000          28.500  
  25534315.813 5      2601.774 5   -948964.906 5   -714129.07646  25534308.05546
        40.500          19.500  
  20780670.875 7     -2148.385 7   3814322.191 7   2981924.01348  20780661.24248
        51.250          39.750  
  21837896.359 7       403.498 7  -5134211.605 7  -3956565.15848  21837885.20348
        48.000          36.500  
  23182158.125 6     -3614.470 6  10197211.695 6   7940651.60747  23182146.09047
        46.250          27.250  
  22850016.641 6      2487.561 6  -8254594.388 6  -7806785.11147  22850006.77347
        46.250          30.500  
 11  3 24  3  5 15.0000000  0 11G03G05G06G07G08G10G11G13G19G23G28   
  22336121.797 6     -2048.075 6   2928200.098 6   2304017.99847  22336112.69147
        44.250          30.750  
  24073937.234 5       288.999 5  -1435723.401 5  -2600857.78946  24073926.95746
        41.750          22.750  
  24018348.234 5     -2420.561 5   5043113.263 5   3942568.52046  24018338.25046
        41.250          24.500  
  20533227.445 7       578.108 7  -3694226.384 7  -2843009.12849  20533217.57849
        50.500          42.000  
  21856044.656 7      2032.999 7  -7833929.388 7  -6069405.81948  21856035.78548
        48.000          37.000  
  23339515.773 6     -2128.992 6   4215485.280 6   3293531.73947  23339507.19547
        44.750          28.000  
  25526883.836 5      2603.811 5   -988022.073 5   -744563.17045  25526875.55145
        39.750          18.500  
  20786826.172 7     -2156.351 7   3846667.450 7   3007128.10548  20786816.65648
        51.000          40.000  
  21836773.352 7       393.436 7  -5140113.147 7  -3961163.75248  21836761.31648
        48.500          36.750  
  23192486.070 6     -3618.015 6  10251481.922 6   7982940.07047  23192473.74247
        46.500          29.000  
  22842928.938 6      2483.136 6  -8291841.426 6  -7835808.77147  22842919.07047
        46.000          29.750  
 11  3 24  3  5 30.0000000  0 11G03G05G06G07G08G10G11G13G19G23G28   
  22341993.484 6     -2056.976 6   2959054.736 6   2328060.56747  22341984.26247
        45.000          30.750  
  24073137.141 5       280.047 5  -1439924.113 5  -2604131.07046  24073128.68046
        41.000          22.000  
  24025275.383 5     -2427.110 5   5079519.915 5   3970937.32446  24025265.80946
        42.000          25.000  
  20531589.461 7       573.931 7  -3702835.342 7  -2849717.39149  20531578.94949
        50.000          42.500  
  21850247.297 7      2031.034 7  -7864394.892 7  -6093145.15648  21850238.48448
        48.000          36.750  
  23345608.820 6     -2134.722 6   4247506.115 6   3318483.01447  23345600.59447
        44.500          28.500  
  25519444.820 4      2605.790 4  -1027108.919 4   -775020.46845  25519437.29745
        38.250          17.750  
  20793004.273 7     -2164.337 7   3879132.511 7   3032425.55148  20792994.52348
        51.000          40.000  
  21835679.320 7       383.339 7  -5145863.235 7  -3965644.32348  21835667.52048
        49.250          37.250  
  23202822.930 6     -3621.569 6  10305805.464 6   8025270.08647  23202811.48047
        46.750          28.500  
  22835853.250 6      2478.693 6  -8329021.818 6  -7864780.49847  22835844.02747
        46.500          30.250  
 11  3 24  3  5 45.0000000  0 11G03G05G06G07G08G10G11G13G19G23G28   
  22347890.297 6     -2065.931 6   2990043.704 6   2352207.80947  22347881.89547
        45.750          30.000  
  24072362.992 5       271.046 5  -1443989.803 5  -2607299.15446  24072354.35546
        39.250          21.750  
  24032222.328 5     -2433.703 5   5116025.456 5   3999383.18546  24032211.05546
        41.000          24.500  
  20529963.320 7       569.694 7  -3711380.750 7  -2856376.14549  20529953.10249
        50.250          42.000  
  21844455.828 7      2028.984 7  -7894829.652 7  -6116860.53548  21844446.72348
        49.000          37.500  
  23351718.898 6     -2140.497 6   4279613.574 6   3343501.80247  23351710.02747
        43.750          28.000  
  25512003.141 4      2607.700 4  -1066224.421 4   -805500.06245  25511993.97745
        38.500          16.250  
  20799205.211 7     -2172.374 7   3911718.124 7   3057816.93248  20799195.05148
        51.250          39.500  
  21834613.922 7       373.171 7  -5151460.794 7  -3970006.04748  21834602.41448
        48.500          37.000  
  23213169.992 6     -3625.163 6  10360182.902 6   8067642.08847  23213158.54347
        45.000          28.500  
  22828790.898 6      2474.178 6  -8366134.481 6  -7893699.43047  22828781.26647
        46.250          29.750  
 11  3 24  3  6  0.0000000  0 11G03G05G06G07G08G10G11G13G19G23G28   
  22353812.563 6     -2074.844 6   3021166.361 6   2376459.23547  22353803.75047
        45.750          29.750  
  24071614.531 5       262.072 5  -1447920.877 5  -2610362.32846  24071605.66046
        40.750          21.000  
  24039186.594 5     -2440.239 5   5152629.035 5   4027905.46046  24039176.31646
        40.500          24.000  
  20528348.992 7       565.493 7  -3719863.149 7  -2862985.80149  20528338.83249
        50.000          42.500  
  21838669.633 7      2026.962 7  -7925234.088 7  -6140552.28048  21838660.70348
        48.000          36.750  
  23357844.977 6     -2146.213 6   4311806.765 6   3368587.40747  23357836.75047
        44.500          28.250  
  25504553.047 3      2609.610 3  -1105368.566 3   -836002.00245  25504544.41045
        37.000          16.250  
  20805428.734 7     -2180.364 7   3944423.588 7   3083301.70048  20805418.69148
        50.750          40.500  
  21833577.961 7       363.030 7  -5156906.249 7  -3974249.23848  21833566.27748
        48.500          37.000  
  23223526.742 6     -3628.706 6  10414613.487 6   8110055.52847  23223516.69947
        43.750          27.750  
  22821741.141 6      2469.691 6  -8403179.844 6  -7922565.93347  22821731.91847
        46.250          29.750  
 11  3 24  3  6 15.0000000  0 11G03G05G06G07G08G10G11G13G19G23G28   
  22359760.336 6     -2083.747 6   3052422.563 6   2400814.71247  22359751.69947
        45.500          30.250  
  24070891.797 5       253.091 5  -1451717.243 5  -2613320.52946  24070883.57046
        40.500          22.000  
  24046170.422 4     -2446.773 4   5189330.623 4   4056504.11346  24046160.20346
        38.750          23.000  
  20526746.711 7       561.265 7  -3728282.120 7  -2869546.02749  20526736.96149
        50.250          42.500  
  21832890.016 7      2024.918 7  -7955607.851 7  -6164220.13048  21832880.85248
        48.750          37.000  
  23363987.570 5     -2151.939 5   4344085.853 5   3393739.96147  23363978.87547
        41.250          28.500  
  25497100.398 4      2611.493 4  -1144540.966 4   -866525.93145  25497090.00445
        37.500          16.250  
  20811675.328 7     -2188.365 7   3977249.069 7   3108879.99148  20811665.22748
        51.000          40.000  
  21832570.289 7       352.858 7  -5162199.124 7  -3978373.53648  21832558.89848
        48.750          36.750  
  23233893.977 6     -3632.253 6  10469097.277 6   8152510.42147  23233884.28547
        43.250          28.000  
  22814704.750 6      2465.180 6  -8440157.542 6  -7951379.71747  22814695.41047
        47.000          30.750  
 11  3 24  3  6 30.0000000  0 11G03G05G06G07G08G10G11G13G19G23G28   
  22365733.641 6     -2092.598 6   3083811.536 6   2425273.65447  22365725.06347
        45.750          29.750  
  24070196.047 5       244.142 5  -1455379.377 5  -2616174.17546  24070186.94146
        41.000          22.000  
  24053172.063 5     -2453.257 5   5226129.474 5   4085178.57346  24053163.25046
        40.000          22.000  
  20525157.109 7       557.063 7  -3736638.062 7  -2876057.12049  20525146.77349
        51.000          42.250  
  21827115.977 7      2022.910 7  -7985951.503 7  -6187864.51548  21827106.93048
        49.000          37.000  
  23370145.695 5     -2157.590 5   4376449.707 5   3418958.53547  23370137.52747
        41.250          28.750  
  25489642.852 4      2613.384 4  -1183741.724 4   -897071.93345  25489630.11345
        38.500          13.750  
  20817944.328 7     -2196.321 7   4010193.887 7   3134551.26848  20817934.28548
        48.750          39.750  
  21831592.094 7       342.729 7  -5167340.057 7  -3982379.44648  21831580.52748
        48.250          36.750  
  23244271.313 6     -3635.739 6  10523633.365 6   8195006.06647  23244262.44147
        42.500          28.500  
  22807681.047 6      2460.704 6  -8477068.098 6  -7980141.16347  22807671.82447
        47.000          30.750  
 11  3 24  3  6 45.0000000  0 11G03G05G06G07G08G10G11G13G19G23G28   
  22371731.844 6     -2101.408 6   3115332.653 6   2449835.56247  22371723.09047
        45.500          30.250  
  24069524.609 5       235.211 5  -1458907.538 5  -2618923.38746  24069515.38746
        41.500          22.500  
  24060193.422 5     -2459.713 5   5263025.173 5   4113928.46646  24060185.02046
        40.250          22.250  
  20523578.734 7       552.862 7  -3744930.996 7  -2882519.14549  20523568.34049
        50.750          42.000  
  21821347.406 7      2020.904 7  -8016265.065 7  -6211485.45348  21821338.12548
        49.250          36.750  
  23376321.023 5     -2163.213 5   4408897.902 5   3444242.84147  23376312.50447
        41.250          28.500  
  25482178.273 3      2615.265 3  -1222970.696 3   -927639.97645  25482165.77045
        36.500          13.750  
  20824235.891 7     -2204.244 7   4043257.545 7   3160315.15048  20824225.78948
        50.000          40.250  
  21830642.906 7       332.595 7  -5172328.982 7  -3986266.90548  21830630.93048
        49.250          37.000  
  23254660.102 6     -3639.197 6  10578221.321 6   8237542.14147  23254649.82447
        43.000          27.250  
  22800670.148 6      2456.224 6  -8513911.462 6  -8008850.26547  22800660.39847
        47.000          30.750  
 11  3 24  3  7  0.0000000  0 11G03G05G06G07G08G10G11G13G19G23G28   
  22377755.320 6     -2110.211 6   3146985.824 6   2474500.37347  22377746.21547
        45.250          29.750  
  24068878.898 5       226.287 5  -1462301.842 5  -2621568.30146  24068869.55946
        41.250          21.250  
  24067234.500 5     -2466.142 5   5300017.304 5   4142753.52146  24067224.63346
        42.000          22.500  
  20522012.578 7       548.669 7  -3753161.032 7  -2888932.15349  20522002.18449
        50.500          42.000  
  21815584.367 7      2018.901 7  -8046548.581 7  -6235082.97648  21815575.26248
        48.500          37.500  
  23382511.492 6     -2168.799 6   4441429.884 6   3469592.41347  23382503.38347
        44.000          29.250  
  25474702.156 5      2617.139 5  -1262227.778 5   -958229.95645  25474696.09845
        40.000          15.500  
  20830550.461 7     -2212.153 7   4076439.838 7   3186171.48348  20830540.35948
        51.000          40.000  
  21829722.352 7       322.472 7  -5177166.069 7  -3990036.05248  21829710.25848
        49.000          37.250  
  23265058.633 6     -3642.632 6  10632860.795 6   8280118.34947  23265047.71147
        43.500          28.250  
  22793672.109 6      2451.752 6  -8550687.741 6  -8037507.09047  22793661.77347
        47.000          30.750  
 11  3 24  3  7 15.0000000  0 11G03G05G06G07G08G10G11G13G19G23G28   
  22383803.953 6     -2119.018 6   3178771.101 6   2499268.12347  22383794.43847
        46.250          30.000  
  24068257.406 5       217.332 5  -1465561.828 5  -2624108.57746  24068248.77046
        40.750          22.000  
  24074292.570 5     -2472.587 5   5337106.116 5   4171653.88146  24074282.93846
        41.000          22.250  
  20520458.836 7       544.423 7  -3761327.376 7  -2895295.53249  20520448.38349
        50.500          42.000  
  21809827.594 7      2016.855 7  -8076801.403 7  -6258656.58448  21809818.48848
        48.750          37.000  
  23388717.617 6     -2174.396 6   4474045.817 6   3495007.40847  23388709.85947
        44.750          28.750  
  25467227.055 5      2618.952 5  -1301512.054 5   -988841.03245  25467220.70345
        40.500          14.750  
  20836887.430 7     -2220.077 7   4109740.996 7   3212120.43448  20836878.03148
        51.750          40.000  
  21828830.922 7       312.304 7  -5181850.630 7  -3993686.34348  21828819.18048
        48.000          37.500  
  23275466.031 6     -3646.077 6  10687551.955 6   8322734.81247  23275455.10947
        44.250          27.000  
  22786686.438 6      2447.245 6  -8587396.417 6  -8066111.24047  22786676.74647
        47.000          30.750  
 11  3 24  3  7 30.0000000  0 11G03G05G06G07G08G10G11G13G19G23G28   
  22389877.547 6     -2127.810 6   3210688.254 6   2524138.63447  22389868.85247
        43.000          29.500  
  24067662.547 5       208.369 5  -1468687.364 5  -2626544.04846  24067654.55546
        40.000          21.750  
  24081368.703 5     -2479.021 5   5374291.429 5   4200629.43746  24081359.48046
        41.000          22.000  
  20518916.922 7       540.178 7  -3769430.048 7  -2901609.29349  20518906.70349
        50.000          42.250  
  21804076.266 7      2014.795 7  -8107023.327 7  -6282206.12548  21804067.62948
        48.750          37.000  
  23394940.781 6     -2179.982 6   4506745.552 6   3520487.70947  23394932.67247
        44.000          28.500  
  25459743.242 6      2620.736 6  -1340823.087 6  -1019473.04945  25459740.58245
        43.000          14.750  
  20843247.008 7     -2228.009 7   4143161.135 7   3238162.09248  20843237.19948
        51.000          39.750  
  21827968.406 7       302.117 7  -5186382.392 7  -3997217.57048  21827956.89848
        48.000          37.250  
  23285884.000 6     -3649.524 6  10742294.822 6   8365391.57047  23285871.90647
        45.500          28.500  
  22779713.742 6      2442.715 6  -8624037.148 6  -8094662.44547  22779703.99247
        46.500          30.500  
 11  3 24  3  7 45.0000000  0 11G03G05G06G07G08G10G11G13G19G23G28   
  22395976.406 5     -2136.554 5   3242736.566 5   2549111.33847  22395967.00847
        42.000          30.000  
  24067093.789 5       199.442 5  -1471678.999 5  -2628875.19146  24067085.68046
        40.500          22.500  
  24088462.188 5     -2485.411 5   5411572.600 5   4229679.70646  24088453.49246
        39.500          22.250  
  20517387.000 7       535.954 7  -3777469.364 7  -2907873.69349  20517376.60549
        50.750          42.250  
  21798331.320 7      2012.758 7  -8137214.697 7  -6305731.84448  21798322.39148
        49.000          37.250  
  23401179.250 5     -2185.505 5   4539528.125 5   3546032.56947  23401171.08247
        42.000          29.000  
  25452261.977 5      2622.535 5  -1380161.109 5  -1050125.98245  25452255.80145
        42.000          15.500  
  20849629.555 7     -2235.903 7   4176699.683 7   3264296.01748  20849619.33648
        51.750          40.250  
  21827134.820 7       291.960 7  -5190761.786 7  -4000630.07048  21827123.54748
        48.250          38.000  
  23296311.000 6     -3652.921 6  10797088.641 6   8408088.02347  23296299.37547
        45.250          27.000  
  22772754.039 6      2438.216 6  -8660610.387 6  -8123161.05547  22772743.93847
        47.000          30.750  
 11  3 24  3  8  0.0000000  0 11G03G05G06G07G08G10G11G13G19G23G28   
  22402099.641 6     -2145.298 6   3274916.028 6   2574186.25647  22402090.88747
        45.000          30.500  
  24066550.086 5       190.505 5  -1474536.573 5  -2631101.87246  24066541.50846
        40.250          21.500  
  24095573.922 4     -2491.790 4   5448949.446 4   4258804.52846  24095565.81346
        38.000          21.000  
  20515868.977 7       531.711 7  -3785445.034 7  -2914088.48849  20515858.93449
        51.000          42.250  
  21792592.188 7      2010.699 7  -8167375.185 7  -6329233.50948  21792583.14148
        49.500          38.000  
  23407433.258 6     -2191.024 6   4572393.486 6   3571641.92447  23407424.85547
        45.000          28.000  
  25444770.547 5      2624.291 5  -1419525.479 5  -1080799.61445  25444765.30945
        41.000          15.500  
  20856033.648 7     -2243.796 7   4210356.628 7   3290522.20348  20856023.72348
        51.250          40.000  
  21826330.602 7       281.780 7  -5194988.487 7  -4003923.59548  21826319.15248
        48.000          37.000  
  23306746.859 6     -3656.303 6  10851933.182 6   8450824.01147  23306736.11347
        44.250          28.000  
  22765807.383 6      2433.686 6  -8697115.678 6  -8151606.71747  22765797.63347
        47.000          31.250  
 11  3 24  3  8 15.0000000  0 11G03G05G06G07G08G10G11G13G19G23G28   
  22408247.898 6     -2154.016 6   3307226.269 6   2599363.07347  22408238.61747
        45.250          29.750  
  24066032.781 5       181.580 5  -1477260.267 5  -2633224.26246  24066023.09046
        41.000          21.500  
  24102704.367 4     -2498.136 4   5486421.484 4   4288003.49046  24102695.90646
        38.500          20.500  
  20514363.367 7       527.478 7  -3793357.202 7  -2920253.81549  20514353.20749
        51.500          42.250  
  21786858.547 7      2008.655 7  -8197505.015 7  -6352711.27548  21786849.32448
        48.750          37.750  
  23413702.906 6     -2196.509 6   4605341.122 6   3597315.40947  23413694.79747
        44.750          28.250  
  25437274.078 5      2626.049 5  -1458916.218 5  -1111493.75545  25437268.54745
        39.750          14.750  
  20862460.773 7     -2251.666 7   4244131.613 7   3316840.36948  20862450.84848
        51.000          40.000  
  21825555.328 7       271.614 7  -5199062.691 7  -4007098.28348  21825543.00048
        48.250          37.000  
  23317192.000 6     -3659.654 6  10906827.997 6   8493599.16847  23317182.01647
        43.500          27.750  
  22758873.477 6      2429.172 6  -8733553.252 6  -8179999.61747  22758863.78547
        47.000          31.500  
 11  3 24  3  8 30.0000000  0 11G03G05G06G07G08G10G11G13G19G23G28   
  22414427.289 6     -2164.637 6   3339695.819 6   2624664.01947  22414417.71547
        45.500          30.000  
  24065544.719 5       170.736 5  -1479821.312 5  -2635219.87246  24065536.08246
        41.250          22.000  
  24109857.813 3     -2506.387 3   5524017.292 3   4317298.95446  24109850.05546
        37.000          20.500  
  20512875.531 7       521.312 7  -3801176.889 7  -2926347.06249  20512865.54749
        50.500          42.250  
  21781136.422 7      2004.678 7  -8227575.189 7  -6376142.56348  21781127.25848
        49.000          37.250  
  23419992.531 5     -2203.879 5   4638399.309 5   3623075.01147  23419984.89147
        40.500          28.250  
  25429734.781 1      2625.845 1  -1498303.887 1                
        33.000  
  20868916.250 7     -2261.444 7   4278053.266 7   3343272.82648  20868906.44148
        50.250          39.750  
  21824814.727 7       259.516 7  -5202955.438 7  -4010131.58048  21824803.10248
        47.750          36.750  
  23327652.641 6     -3664.912 6  10961801.680 6   8536435.80247  23327642.83247
        43.000          26.750  
  22751957.453 6      2422.733 6  -8769894.241 6  -8208317.25347  22751948.05547
        47.500          31.750  
 11  3 24  3  8 45.0000000  0 11G03G05G06G07G08G10G11G13G19G23G28   
  22420625.664 6     -2171.648 6   3372270.545 6   2650046.92047  22420616.73447
        44.500          30.500  
  24065077.727 5       163.486 5  -1482273.607 5  -2637130.75546  24065069.14846
        40.000          21.750  
  24117025.352 4     -2511.027 4   5561682.701 4   4346648.61946  24117016.77346
        37.750          20.750  
  20511394.898 7       518.732 7  -3808957.865 7  -2932410.15149  20511384.73849
        50.500          42.500  
  21775415.227 7      2004.283 7  -8257639.428 7  -6399569.22148  21775406.29748
        49.250          37.500  
  23426295.047 5     -2207.646 5   4671513.995 5   3648878.67147  23426286.70347
        40.750          28.250  
  25422234.008 5      2629.233 5  -1537742.379 5                
        39.750  
  20875389.008 7     -2267.609 7   4312067.396 7   3369777.33848  20875379.60948
        51.250          39.500  
  21824098.531 7       251.005 7  -5206720.509 7  -4013065.38748  21824086.20348
        49.000          36.750  
  23338117.859 6     -3666.556 6  11016800.016 6   8579291.63347  23338108.40247
        43.250          28.000  
  22745050.648 6      2419.880 6  -8806192.436 6  -8236601.54847  22745041.13347
        47.000          31.750  
 11  3 24  3  9  0.0000000  0 11G03G05G06G07G08G10G11G13G19G23G28   
  22426848.422 5     -2180.013 5   3404970.735 5   2675527.59747  22426839.08247
        42.250          30.250  
  24064635.039 5       154.866 5  -1484596.594 5  -2638940.87746  24064626.57846
        40.000          21.000  
  24124210.945 4     -2517.023 4   5599438.045 4   4376068.41246  24124200.84446
        39.000          21.500  
  20509925.414 7       514.764 7  -3816679.322 7  -2938426.85849  20509915.43049
        51.250          42.000  
  21769699.445 7      2002.512 7  -8287677.101 7  -6422975.17748  21769689.81348
        49.500          38.000  
  23432611.547 5     -2212.766 5   4704705.487 5   3674742.15747  23432603.14547
        42.000          28.750  
  25414723.234 4      2631.214 4  -1577210.594 4                
        37.750  
  20881883.328 7     -2275.158 7   4346194.764 7   3396370.08848  20881873.34448
        51.000          39.500  
  21823409.766 7       241.113 7  -5210337.209 7  -4015883.57848  21823398.02348
        48.750          37.250  
  23348593.461 6     -3669.554 6  11071843.324 6   8622182.51847  23348582.83247
        44.000          27.250  
  22738155.727 6      2415.646 6  -8842427.131 6  -8264836.34447  22738146.32847
        47.000          31.750  
 11  3 24  3  9 15.0000000  0 11G03G05G06G07G08G10G11G13G19G23G28   
  22433095.531 6     -2188.646 6   3437800.423 6   2701109.17647  22433086.07447
        42.500          29.000  
  24064219.703 5       145.959 5  -1486785.982 5  -2640646.89446  24064210.12946
        40.500          22.750  
  24131414.711 5     -2523.303 5   5637287.589 5   4405561.52846  24131402.96946
        40.000          20.250  
  20508468.320 7       510.509 7  -3824336.952 7  -2944393.83649  20508457.98449
        50.750          42.000  
  21763989.414 7      2000.450 7  -8317683.846 7  -6446357.03948  21763980.13348
        49.000          37.250  
  23438943.430 6     -2218.157 6   4737977.848 6   3700668.66647  23438934.61747
        43.750          28.500  
  25407209.906 5      2632.885 5  -1616703.872 5                
        40.500  
  20888399.648 7     -2282.969 7   4380439.294 7   3423054.13048  20888389.78148
        51.500          39.750  
  21822750.805 7       230.932 7  -5213801.185 7  -4018582.77448  21822738.77048
        49.500          37.250  
  23359077.336 6     -3672.836 6  11126935.865 6   8665111.75847  23359066.35547
        44.750          27.250  
  22731273.094 6      2411.108 6  -8878593.754 6  -8293018.10947  22731264.10547
        46.500          31.000  
 11  3 24  3  9 30.0000000  0 11G03G05G06G07G08G10G11G13G19G23G28   
  22439368.086 6     -2197.277 6   3470759.584 6   2726791.63147  22439358.27747
        44.500          30.000  
  24063828.844 5       137.039 5  -1488841.569 5  -2642248.66046  24063818.97746
        41.500          22.000  
  24138635.664 5     -2529.569 5   5675231.125 5   4435127.92346  24138624.15646
        39.500          20.500  
  20507022.914 7       506.228 7  -3831930.368 7  -2950310.78149  20507012.87149
        51.000          42.750  
  21758284.703 7      1998.362 7  -8347659.271 7  -6469714.49348  21758275.89148
        49.000          37.750  
  23445289.867 6     -2223.534 6   4771330.865 6   3726658.01247  23445281.46547
        44.000          29.250  
  25399692.133 5      2634.519 5  -1656221.651 5                
        40.250  
  20894938.711 7     -2290.782 7   4414801.019 7   3449829.49448  20894928.19948
        52.000          39.250  
  21822120.445 7       220.721 7  -5217112.001 7  -4021162.61748  21822108.64548
        48.500          37.250  
  23369570.563 6     -3676.109 6  11182077.499 6   8708079.24147  23369559.46547
        44.750          26.750  
  22724403.523 6      2406.554 6  -8914692.061 6  -8321146.63547  22724394.53547
        47.000          31.250  
 11  3 24  3  9 45.0000000  0 11G03G05G06G07G08G10G11G13G19G23G28   
  22445663.758 6     -2205.925 6   3503848.462 6   2752575.17347  22445655.18047
        45.250          29.250  
  24063461.727 5       128.092 5  -1490762.952 5  -2643745.83746  24063453.09046
        40.250          22.250  
  24145874.586 5     -2535.841 5   5713268.735 5   4464767.59946  24145863.37146
        40.500          19.750  
  20505590.500 7       501.915 7  -3839459.096 7  -2956177.30849  20505580.39849
        50.750          42.750  
  21752586.953 7      1996.251 7  -8377603.039 7  -6493047.27448  21752578.02348
        49.500          36.500  
  23451651.242 5     -2228.908 5   4804764.484 5   3752710.17047  23451643.36747
        41.500          28.500  
  25392165.656 4      2636.110 4  -1695763.301 4                
        38.000  
  20901499.742 7     -2298.609 7   4449280.151 7   3476696.34548  20901489.64148
        51.000          39.250  
  21821519.594 7       210.486 7  -5220269.296 7  -4023622.83748  21821508.20348
        49.000          37.250  
  23380073.492 6     -3679.391 6  11237268.366 6   8751085.09547  23380062.16047
        45.250          26.750  
  22717547.422 6      2401.968 6  -8950721.580 6  -8349221.58047  22717538.14147
        47.500          31.750  
 11  3 24  3 10  0.0000000  0 11G03G05G06G07G08G10G11G13G19G23G28   
  22451984.523 6     -2214.554 6   3537066.770 6   2778459.57547  22451976.23847
        46.250          29.250  
  24063121.930 4       119.150 4  -1492550.208 4  -2645138.52046  24063113.58646
        38.750          21.250  
  24153130.758 4     -2542.107 4   5751400.335 4   4494480.54046  24153120.18846
        38.750          20.250  
  20504170.539 7       497.585 7  -3846922.872 7  -2961993.22849  20504160.14549
        51.750          42.250  
  21746894.320 7      1994.114 7  -8407514.752 7  -6516355.08848  21746885.62548
        50.000          37.750  
  23458028.555 6     -2234.265 6   4838278.466 6   3778824.95247  23458021.20747
        43.500          28.500  
  25384635.063 2      2637.658 2  -1735328.176 2                
        35.000  
  20908083.125 7     -2306.437 7   4483876.703 7   3503654.69748  20908073.55148
        51.000          39.250  
  21820948.219 7       200.232 7  -5223272.780 7  -4025963.20548  21820936.47748
        48.500          37.000  
  23390585.297 6     -3682.664 6  11292508.326 6   8794129.20447  23390573.90647
        46.250          27.500  
  22710704.242 6      2397.370 6  -8986682.133 6  -8377242.76847  22710694.84447
        47.250          31.000  
 11  3 24  3 10 15.0000000  0 11G03G05G06G07G08G10G11G13G19G23G28   
  22458330.734 6     -2223.148 6   3570413.988 6   2804444.42447  22458322.21547
        46.250          29.750  
  24062808.141 5       110.233 5  -1494203.706 5  -2646426.95846  24062798.74246
        40.250          22.000  
  24160402.914 4     -2548.333 4   5789625.333 4   4524266.26946  24160393.69146
        39.000          20.500  
  20502762.156 7       493.272 7  -3854321.957 7  -2967758.73849  20502752.11349
        51.000          42.250  
  21741208.664 7      1991.992 7  -8437394.625 7  -6539638.07848  21741200.20348
        49.500          37.000  
  23464422.383 6     -2239.584 6   4871872.221 6   3805001.89447  23464413.39547
        45.000          27.250  
  25377105.102 4      2639.205 4  -1774916.249 4                
        37.750  
  20914688.883 7     -2314.237 7   4518590.254 7   3530704.21748  20914679.13348
        51.750          39.000  
  21820405.813 7       189.991 7  -5226122.643 7  -4028183.86448  21820394.18848
        49.000          36.750  
  23401106.484 6     -3685.895 6  11347796.752 6   8837211.07946  23401095.56346
        44.750          26.250  
  22703874.102 6      2392.787 6  -9022573.941 6  -8405210.39747  22703865.23047
        46.750          32.000  
 11  3 24  3 10 30.0000000  0 11G03G05G06G07G08G10G11G13G19G23G28   
  22464701.031 6     -2231.655 6   3603888.810 6   2830528.69747  22464691.98447
        45.000          30.000  
  24062518.281 5       101.384 5  -1495724.471 5  -2647611.96846  24062509.46946
        40.500          22.250  
  24167693.602 4     -2554.464 4   5827942.287 4   4554123.63746  24167685.84446
        38.750          19.500  
  20501366.188 7       489.037 7  -3861657.507 7  -2973474.75049  20501355.79349
        51.500          42.000  
  21735528.648 7      1989.938 7  -8467243.694 7  -6562897.08148  21735519.36748
        49.000          37.500  
  23470830.305 5     -2244.804 5   4905544.283 5   3831239.85347  23470821.14147
        42.250          27.000  
  25369570.086 4      2640.814 4  -1814528.456 4                
        38.250  
  20921316.617 7     -2321.940 7   4553419.351 7   3557843.77348  20921306.51648
        50.000          39.000  
  21819892.313 7       179.831 7  -5228820.112 7  -4030285.77848  21819880.86348
        47.750          36.750  
  23411636.641 6     -3689.026 6  11403132.145 6   8880329.54147  23411625.77747
        44.750          27.000  
  22697057.180 6      2388.287 6  -9058398.241 6  -8433125.41247  22697047.72347
        46.000          31.250  
 11  3 24  3 10 45.0000000  0 11G03G05G06G07G08G10G11G13G19G23G28   
  22471088.023 6     -2237.599 6   3637452.794 6   2856682.44947  22471078.62547
        43.500          30.000  
  24062246.633 5        95.063 5  -1497150.410 5  -2648723.10546  24062238.28946
        41.500          21.500  
  24174995.219 2     -2558.037 2   5866312.847 2   4584022.76145  24174987.57845
        35.500          18.250  
  20499975.445 7       487.315 7  -3868967.231 7  -2979170.62749  20499965.34449
        50.750          42.250  
  21729847.383 7      1990.410 7  -8497099.843 7  -6586161.59848  21729838.21948
        49.000          37.500  
  23477245.297 6     -2247.467 6   4939256.285 6   3857508.93247  23477236.48447
        42.750          27.500  
  25362048.883 5      2644.924 5  -1854202.309 5                
        40.000  
  20927959.430 7     -2327.114 7   4588326.063 7   3585043.80048  20927949.32848
        50.750          39.000  
  21819401.289 7       172.190 7  -5231402.959 7  -4032298.37048  21819389.37148
        48.250          37.000  
  23422169.031 6     -3689.614 6  11458476.361 6   8923454.88447  23422157.11347
        45.500          27.500  
  22690244.945 6      2386.299 6  -9094192.731 6  -8461017.20647  22690235.84047
        46.250          30.750  
 11  3 24  3 11  0.0000000  0 11G03G05G06G07G08G10G11G13G19G23G28   
  22477506.594 6     -2248.614 6   3671182.004 6   2882964.95547  22477497.84047
        46.500          30.250  
  24062008.547 5        83.656 5  -1498405.247 5  -2649700.91746  24061998.85546
        41.500          22.500  
  24182320.563 3     -2566.697 3   5904813.300 3   4614023.14345  24182314.38745
        36.000          18.250  
  20498603.773 7       480.493 7  -3876174.619 7  -2984786.76149  20498593.67249
        51.000          42.500  
  21724178.734 7      1985.786 7  -8526886.640 7  -6609372.07548  21724169.74648
        48.750          37.250  
  23483682.102 6     -2255.201 6   4973084.299 6   3883868.42247  23483673.81647
        45.000          28.250  
  25354500.352 5      2643.928 5  -1893861.236 5                
        41.000  
  20934631.266 7     -2337.364 7   4623386.521 7   3612363.63748  20934621.10548
        51.750          39.250  
  21818945.969 7       159.449 7  -5233794.692 7  -4034162.04848  21818934.40248
        49.500          37.250  
  23432716.703 6     -3695.280 6  11513905.558 6   8966646.43947  23432705.13747
        45.750          27.500  
  22683454.148 6      2379.215 6  -9129880.951 6  -8488826.17847  22683445.10247
        47.000          31.500  
 11  3 24  3 11 15.0000000  0 11G03G05G06G07G08G10G11G13G19G23G28   
  22483949.938 6     -2257.267 6   3705041.016 6   2909348.60247  22483940.36347
        46.500          30.250  
  24061795.445 5        74.608 5  -1499524.373 5  -2650572.95246  24061785.28546
        41.000          21.750  
  24189665.930 4     -2572.988 4   5943408.127 4   4644097.08045  24189657.87945
        37.500          17.750  
  20497245.133 7       476.010 7  -3883314.764 7  -2990350.50449  20497235.09049
        50.750          43.000  
  21718517.234 7      1983.499 7  -8556639.124 7  -6632555.81748  21718507.83648
        49.500          37.500  
  23490134.531 6     -2260.563 6   5006992.739 6   3910290.57947  23490125.89547
        44.750          27.750  
  25346948.797 5      2645.266 5  -1933540.224 5                
        39.250  
  20941325.445 7     -2345.246 7   4658565.210 7   3639775.59048  20941315.22748
        51.500          39.500  
  21818520.477 6       149.061 6  -5236030.609 6  -4035904.31148  21818508.67648
        47.250          37.500  
  23443273.133 6     -3698.580 6  11569384.258 6   9009876.58847  23443262.44547
        45.000          28.000  
  22676676.844 6      2374.477 6  -9165498.112 6  -8516579.80347  22676667.09447
        47.500          31.500  
 11  3 24  3 11 30.0000000  0 11G03G05G06G07G08G10G11G13G19G23G28   
  22490417.266 6     -2265.677 6   3739026.177 6   2935830.55647  22490408.33647
        46.500          30.250  
  24061606.797 4        65.804 4  -1500511.436 4  -2651342.08346  24061598.33646
        38.000          22.250  
  24197028.711 4     -2579.033 4   5982093.619 4   4674241.59345  24197018.90245
        38.000          18.250  
  20495898.664 7       471.756 7  -3890391.104 7  -2995864.52749  20495888.27049
        50.500          42.500  
  21712861.203 7      1981.427 7  -8586360.525 7  -6655715.33548  21712852.21548
        49.500          37.250  
  23496601.266 6     -2265.677 6   5040977.887 6   3936772.50147  23496593.68447
        45.000          27.500  
  25339397.469 3      2646.806 3  -1973242.321 3                
        36.500  
  20948041.461 7     -2352.891 7   4693858.579 7   3667276.91348  20948031.65248
        52.000          39.500  
  21818123.922 7       138.892 7  -5238113.991 7  -4037527.71448  21818112.47348
        48.750          37.500  
  23453838.531 6     -3701.629 6  11624908.690 6   9053142.36046  23453828.13746
        44.000          26.000  
  22669912.203 6      2369.959 6  -9201047.491 6  -8544280.59447  22669902.74647
        47.250          32.250  
 11  3 24  3 11 45.0000000  0 11G03G05G06G07G08G10G11G13G19G23G28   
  22496908.555 6     -2274.121 6   3773137.996 6   2962411.19347  22496899.21547
        44.750          30.500  
  24061443.906 4        56.940 4  -1501365.536 4  -2652007.62746  24061435.85546
        37.500          22.750  
  24204408.477 4     -2585.109 4   6020870.254 4   4704457.12745  24204396.91045
        39.000          18.250  
  20494564.242 7       467.439 7  -3897402.691 7  -3001328.09549  20494554.37549
        50.500          42.500  
  21707211.813 7      1979.313 7  -8616050.216 7  -6678850.14848  21707202.59048
        48.500          37.500  
  23503083.891 6     -2270.820 6   5075040.182 6   3963314.52847  23503075.43047
        44.250          27.000  
  25331839.344 1      2648.257 1  -2012966.181 1                
        33.750  
  20954779.758 7     -2360.583 7   4729267.329 7   3694868.14248  20954769.59848
        51.000          39.500  
  21817756.813 7       128.665 7  -5240043.963 7  -4039031.58048  21817745.07048
        48.000          36.500  
  23464413.086 6     -3704.712 6  11680479.371 6   9096444.16547  23464403.39547
        43.250          26.750  
  22663160.086 6      2365.377 6  -9236528.145 6  -8571927.84547  22663150.80547
        47.000          32.250  
 11  3 24  3 12  0.0000000  0 11G03G05G06G07G08G10G11G13G19G23G28   
  22503432.000 6     -2285.370 6   3807418.549 6   2989123.31647  22503422.83647
        45.000          29.750  
  24061316.688 5        45.242 5  -1502044.172 5  -2652536.45146  24061306.58646
        40.750          21.500  
  24211813.531 4     -2594.007 4   6059780.361 4   4734776.65445  24211800.43845
        39.000          17.250  
  20493250.656 7       460.286 7  -3904306.982 7  -3006708.05349  20493240.20349
        50.500          42.750  
  21701575.797 7      1974.342 7  -8645665.349 7  -6701926.85948  21701567.33648
        48.000          37.500  
  23509588.023 6     -2278.770 6   5109221.734 6   3989949.49147  23509579.91447
        45.000          28.250  
  25324248.930 2      2646.860 2  -2052669.079 2                
        35.250  
  20961547.359 7     -2371.096 7   4764833.767 7   3722582.24048  20961537.25848
        51.000          39.500  
  21817426.586 7       115.601 7  -5241777.972 7  -4040382.74748  21817415.02048
        49.000          37.250  
  23475004.156 6     -3710.612 6  11736138.555 6   9139814.95147  23474994.28947
        43.000          27.250  
  22656430.125 6      2357.966 6  -9271897.634 6  -8599488.46547  22656420.19947
        47.500          31.250  
 11  3 24  3 12 15.0000000  0 11G03G05G06G07G08G10G11G13G19G23G28   
  22509971.297 6     -2291.069 6   3841784.581 6   3015902.05447  22509962.25047
        46.250          28.750  
  24061203.828 5        39.106 5  -1502630.762 5  -2652993.51646  24061194.60546
        40.500          21.250  
  24219227.172 4     -2597.326 4   6098740.256 4   4765135.04545  24219214.84445
        39.000          16.250  
  20491940.750 7       458.675 7  -3911187.109 7  -3012069.18549  20491930.82449
        50.500          42.250  
  21695939.016 7      1974.910 7  -8675289.002 7  -6725010.21248  21695929.61748
        48.500          37.750  
  23516099.992 6     -2281.144 6   5143438.899 6   4016612.20147  23516090.88747
        45.000          28.000  
  25316680.227 3      2650.999 3  -2092434.068 3                
        36.250  
  20968329.430 7     -2376.048 7   4800474.484 7   3750354.22648  20968319.62148
        51.250          39.250  
  21817118.617 7       108.082 7  -5243399.204 7  -4041646.03348  21817106.64148
        48.750          37.250  
  23485596.500 6     -3710.947 6  11791802.759 6   9183189.66046  23485587.27746
        43.250          26.250  
  22649704.000 6      2356.091 6  -9307238.992 6  -8627027.17047  22649694.60247
        46.500          32.000  
