     2.11           OBSERVATION DATA    GPS(GPS)            RINEX VERSION / TYPE
cnvtToRINEX 2.11.0  Stan Thomas         02-Apr-11 18:25 UTC PGM / RUN BY / DATE 
----------------------------------------------------------- COMMENT             
BR2                                                         MARKER NAME         
BR2                                                         MARKER NUMBER       
Stan Thomas         University of Utah                      OBSERVER / AGENCY   
4644124574          NetRS               1.12                REC # / TYPE / VERS 
12532422            TRM41249.00                             ANT # / TYPE        
 -1911675.1063 -4567247.4039  4009469.8749                  APPROX POSITION XYZ 
        1.2210        0.0000        0.0000                  ANTENNA: DELTA H/E/N
     1     1     0                                          WAVELENGTH FACT L1/2
     4    C1    L1    L2    P2                              # / TYPES OF OBSERV 
  2011     3    31    16    47   15.0000000     GPS         TIME OF FIRST OBS   
  2011     3    31    23    59   45.0000000     GPS         TIME OF LAST OBS    
     0                                                      RCV CLOCK OFFS APPL 
    15                                                      LEAP SECONDS        
    23                                                      # OF SATELLITES     
   G03   715   715   696   696                              PRN / # OF OBS      
   G04   459   454   437   437                              PRN / # OF OBS      
   G06   761   760   727   727                              PRN / # OF OBS      
   G07   281   281   245   245                              PRN / # OF OBS      
   G09   613   613   607   607                              PRN / # OF OBS      
   G10   141   141   141   141                              PRN / # OF OBS      
   G11  1235  1232  1202  1202                              PRN / # OF OBS      
   G12   413   407   413   413                              PRN / # OF OBS      
   G13   561   550   507   507                              PRN / # OF OBS      
   G14  1352  1345  1330  1330                              PRN / # OF OBS      
   G15   232   231   228   228                              PRN / # OF OBS      
   G16   761   759   751   751                              PRN / # OF OBS      
   G18   810   808   794   794                              PRN / # OF OBS      
   G19   820   817   782   782                              PRN / # OF OBS      
   G20  1083  1078  1062  1062                              PRN / # OF OBS      
   G21   406   404   376   376                              PRN / # OF OBS      
   G22  1093  1088  1081  1081                              PRN / # OF OBS      
   G23   960   959   904   904                              PRN / # OF OBS      
   G24  1301  1299  1267  1267                              PRN / # OF OBS      
   G25   807   804   807   807                              PRN / # OF OBS      
   G27   419   419   418   418                              PRN / # OF OBS      
   G30   909   908   889   889                              PRN / # OF OBS      
   G31  1494  1494  1494  1494                              PRN / # OF OBS      
CARRIER PHASE MEASUREMENTS: PHASE SHIFTS REMOVED            COMMENT             
                                                            END OF HEADER       
 11  3 31 16 47 15.0000000  0 10G03G06G09G14G15G18G19G21G22G27      
  21915849.70316    103774.17916    100250.27658  21915841.53558
  21978989.32017    259053.82317    210646.37158  21978981.15258
  22969453.78916  -1040657.57816   -795361.47257  22969446.67657
  21939204.79716  -1778983.96016  -1347164.15058  21939196.21958
  23606273.48416   1872655.86216   1445517.04657  23606267.25057
  20787582.60217    368605.77317    294317.27258  20787572.44158
  23352391.88316  -1324434.16816  -1001839.10557  23352382.19157
  21279899.53117    991330.59817    771881.33858  21279890.36758
  20780004.31317   -547943.45617   -405733.98858  20779992.62958
  23710003.57015     38812.29315     35254.82157  23709998.09857
 11  3 31 16 47 30.0000000  0 10G03G06G09G14G15G18G19G21G22G27      
  21916994.867 7    109791.160 7    104938.81447  21916986.40647
  21980781.063 7    268469.212 7    217983.01748  21980773.24648
  22964762.984 6  -1065308.622 6   -814570.06747  22964755.81347
  21930995.594 6  -1822122.914 6  -1380778.90548  21930987.42648
  23615546.680 6   1921386.148 6   1483488.61947  23615540.15247
  20789599.383 7    379203.867 7    302575.51548  20789589.57448
  23346471.992 6  -1355547.063 6  -1026082.91047  23346461.18847
  21285091.938 7   1018618.208 7    793144.37648  21285082.89148
  20777643.461 7   -560349.133 7   -415400.75548  20777632.12948
  23710598.422 5     41936.615 5     37689.34746  23710592.53946
 11  3 31 16 47 45.0000000  0 10G03G06G09G14G15G18G19G21G22G27      
  21918167.578 7    115953.377 7    109740.52147  21918159.11747
  21982598.094 7    278016.420 7    225422.38548  21982590.04348
  22960096.492 6  -1089829.987 6   -833677.60547  22960089.43847
  21922802.766 6  -1865174.640 6  -1414325.68247  21922794.24647
  23624829.148 6   1970167.427 6   1521499.92847  23624823.38347
  20791626.078 7    389855.061 7    310875.13848  20791616.50448
  23340572.922 6  -1386546.973 6  -1050238.67947  23340562.17647
  21290303.391 7   1046003.769 7    814483.74448  21290294.10948
  20775294.820 7   -572692.725 7   -425019.13748  20775282.72748
  23711217.406 5     45187.036 5     40222.13647  23711210.76247
 11  3 31 16 48  0.0000000  0 10G03G06G09G14G15G18G19G21G22G27      
  21919367.625 6    122261.076 6    114655.59547  21919359.28147
  21984439.813 7    287695.812 7    232964.74348  21984431.35248
  22955454.969 6  -1114220.910 6   -852683.51947  22955447.62147
  21914627.250 6  -1908138.517 6  -1447804.00948  21914618.73048
  23634121.578 6   2018999.832 6   1559551.07247  23634115.81347
  20793663.305 7    400559.619 7    319216.33648  20793653.61348
  23334695.617 6  -1417433.381 6  -1074305.99447  23334684.63747
  21295533.516 7   1073487.737 7    835899.79448  21295524.23448
  20772957.359 7   -584973.977 7   -434588.94948  20772945.85248
  23711859.586 5     48563.958 5     42853.48447  23711853.46947
 11  3 31 16 48 15.0000000  0 10G03G06G09G14G15G18G19G21G22G27      
  21920595.656 7    128714.136 7    119683.93847  21920587.37147
  21986307.328 7    297507.218 7    240609.98148  21986298.45748
  22950838.688 6  -1138481.045 6   -871587.49247  22950831.39847
  21906468.047 6  -1951014.258 6  -1481213.66548  21906459.93848
  23643423.914 6   2067883.166 6   1597641.90347  23643418.09047
  20795710.664 7    411317.602 7    327599.16948  20795700.50448
  23328839.555 6  -1448206.048 6  -1098284.70147  23328829.04347
  21300782.094 7   1101070.000 7    857392.43848  21300772.87148
  20770632.219 7   -597192.847 7   -444110.14548  20770620.71148
  23712526.641 5     52067.445 5     45583.46747  23712519.76247
 11  3 31 16 48 30.0000000  0 10G03G06G09G14G15G18G19G21G22G27      
  21921851.414 7    135312.466 7    124825.48147  21921843.01247
  21988199.047 7    307450.402 7    248357.90148  21988191.05548
  22946247.047 6  -1162610.238 6   -890389.45747  22946239.99247
  21898326.367 6  -1993801.795 6  -1514554.57948  21898317.55548
  23652736.125 6   2116816.641 6   1635771.80547  23652729.77347
  20797767.609 7    422128.815 7    336023.47948  20797757.85948
  23323004.844 6  -1478864.848 6  -1122174.67747  23322994.50847
  21306049.789 7   1128750.428 7    878961.57448  21306040.62548
  20768319.086 7   -609349.357 7   -453582.75448  20768307.28548
  23713217.375 5     55697.413 5     48412.00946  23713210.49646
 11  3 31 16 48 45.0000000  0 10G03G06G09G14G15G18G19G21G22G27      
  21923134.445 6    142055.682 6    130079.91647  21923126.21947
  21990116.391 7    317525.148 7    256208.33748  21990108.28148
  22941680.281 6  -1186608.197 6   -909089.14947  22941673.16847
  21890200.352 6  -2036500.868 6  -1547826.56748  21890192.65248
  23662056.969 6   2165800.115 6   1673940.66247  23662050.96947
  20799835.156 7    432993.095 7    344489.13648  20799825.69948
  23317193.039 6  -1509409.472 6  -1145975.67747  23317182.05947
  21311335.578 7   1156528.821 7    900607.04548  21311326.41448
  20766017.414 7   -621443.828 7   -463007.01748  20766006.08248
  23713932.055 5     59453.724 5     51338.99246  23713926.17246
 11  3 31 16 49  0.0000000  0 10G03G06G09G14G15G18G19G21G22G27      
  21924445.609 7    148944.325 7    135447.66948  21924437.20748
  21992058.266 7    327731.910 7    264161.63648  21992050.68448
  22937138.375 6  -1210474.108 6   -927685.94747  22937131.67247
  21882092.563 6  -2079110.572 6  -1581028.92248  21882083.80948
  23671388.438 6   2214833.696 6   1712148.57547  23671381.61747
  20801912.727 7    443911.060 7    352996.62648  20801902.91848
  23311402.719 6  -1539839.154 6  -1169687.10747  23311391.73847
  21316640.648 7   1184405.753 7    922329.30248  21316631.48448
  20763727.750 7   -633475.677 7   -472382.48248  20763716.12548
  23714671.164 6     63337.008 6     54364.90946  23714664.46146
 11  3 31 16 49 15.0000000  0 10G03G06G09G14G15G18G19G21G22G27      
  21925783.539 6    155977.637 6    140928.15147  21925775.54747
  21994025.930 7    338069.861 7    272217.16848  21994018.17248
  22932622.305 6  -1234208.261 6   -946180.07747  22932615.54347
  21874001.039 6  -2121631.455 6  -1614162.05148  21873992.63748
  23680728.359 6   2263916.555 6   1750394.89047  23680722.00847
  20804000.430 7    454881.951 7    361545.34948  20803990.62148
  23305633.609 6  -1570154.280 6  -1193309.29147  23305623.15647
  21321964.133 7   1212380.561 7    944127.82748  21321955.02748
  20761450.125 7   -645445.450 7   -481709.59248  20761438.79348
  23715434.023 6     67346.630 6     57489.28147  23715427.90647
 11  3 31 16 49 30.0000000  0 10G03G06G09G14G15G18G19G21G22G27      
  21927149.852 6    163155.989 6    146521.66647  21927141.68447
  21996018.219 7    348539.415 7    280375.23748  21996010.22748
  22928131.055 6  -1257809.705 6   -964570.80747  22928123.94147
  21865926.531 6  -2164062.718 6  -1647225.35848  21865918.18848
  23690078.156 6   2313048.877 6   1788679.73347  23690071.62947
  20806098.570 7    465906.263 7    370135.71548  20806088.64548
  23299886.406 6  -1600354.126 6  -1216841.63347  23299875.77747
  21327306.109 7   1240453.746 7    966003.00348  21327297.35548
  20759184.445 7   -657352.769 7   -490988.02148  20759172.76248
  23716221.758 6     71483.226 6     60712.60146  23716215.11346
 11  3 31 16 49 45.0000000  0 10G03G06G09G14G15G18G19G21G22G27      
  21928543.109 7    170479.172 7    152228.02347  21928535.23447
  21998035.578 7    359140.405 7    288635.73548  21998027.23448
  22923665.289 6  -1281278.415 6   -982858.10147  22923658.00047
  21857869.641 6  -2206404.315 6  -1680218.79948  21857860.53548
  23699436.570 6   2362230.135 6   1827002.72047  23699430.16047
  20808206.531 7    476983.905 7    378767.63448  20808196.66448
  23294161.773 6  -1630438.591 6  -1240284.08647  23294151.26247
  21332667.102 7   1268625.070 7    987954.65748  21332657.82048
  20756930.438 7   -669197.736 7   -500217.87248  20756918.75448
  23717032.242 6     75746.660 6     64034.74746  23717026.41846
 11  3 31 16 50  0.0000000  0 10G03G06G09G14G15G18G19G21G22G27      
  21929964.484 6    177946.279 6    158046.52547  21929956.19947
  22000077.766 7    369871.979 7    296997.99148  22000069.89148
  22919224.375 6  -1304614.502 6  -1001042.05047  22919217.32047
  21849829.031 6  -2248656.510 6  -1713142.56748  21849820.57048
  23708805.164 6   2411459.536 6   1865363.22347  23708798.63747
  20810324.242 7    488113.925 7    387440.36348  20810314.55148
  23288459.117 6  -1660408.089 6  -1263636.93347  23288448.31347
  21338046.422 7   1296894.049 7   1009982.40248  21338037.25848
  20754687.906 7   -680980.827 7   -509399.50448  20754676.63348
  23717867.906 6     80136.480 6     67455.37547  23717862.14147
 11  3 31 16 50 15.0000000  0 10G03G06G09G14G15G18G19G21G22G27      
  21931413.250 7    185558.061 7    163977.77347  21931404.67247
  22002144.453 7    380734.795 7    305462.50848  22002137.04748
  22914809.125 6  -1327817.055 6  -1019121.94547  22914801.95347
  21841805.781 6  -2290818.386 6  -1745995.96448  21841797.37948
  23718182.383 6   2460737.518 6   1903761.57347  23718175.62147
  20812452.625 7    499297.011 7    396154.45548  20812442.52348
  23282778.219 6  -1690261.571 6  -1286899.37847  23282767.47347
  21343444.484 7   1325261.172 7   1032086.62348  21343435.08648
  20752457.656 7   -692701.589 7   -518532.56248  20752446.20748
  23718727.180 6     84653.287 6     70974.95947  23718721.12147
 11  3 31 16 50 30.0000000  0 10G03G06G09G14G15G18G19G21G22G27      
  21932888.672 7    193313.983 7    170021.32448  21932880.56348
  22004237.039 7    391728.301 7    314028.85948  22004228.87148
  22910419.102 6  -1350886.120 6  -1037097.83547  22910411.87147
  21833799.898 6  -2332890.098 6  -1778779.10248  21833791.78948
  23727568.734 6   2510063.179 6   1942197.09347  23727562.38347
  20814590.453 7    510532.814 7    404909.59948  20814580.76248
  23277118.906 6  -1719999.036 6  -1310071.42347  23277108.33647
  21348861.109 7   1353726.039 7   1054267.00648  21348852.59048
  20750238.914 7   -704360.392 7   -527617.34948  20750227.58248
  23719611.172 6     89296.706 6     74593.19347  23719604.64547
 11  3 31 16 50 45.0000000  0 10G03G06G09G14G15G18G19G21G22G27      
  21934392.094 6    201213.613 6    176176.87147  21934383.69147
  22006353.719 7    402852.187 7    322696.80948  22006345.43448
  22906054.453 6  -1373821.458 6  -1054969.51247  22906047.86747
  21825810.922 6  -2374871.598 6  -1811491.94448  21825802.34448
  23736964.250 6   2559436.151 6   1980669.44347  23736957.07847
  20816738.547 7    521821.080 7    413705.63948  20816728.85548
  23271481.984 6  -1749620.584 6  -1333153.14947  23271471.70747
  21354296.289 7   1382288.514 7   1076523.44948  21354287.00848
  20748032.016 7   -715957.446 7   -536654.01248  20748020.74248
  23720518.359 6     94066.591 6     78309.98046  23720512.53546
 11  3 31 16 51  0.0000000  0 10G03G06G09G14G15G18G19G21G22G27      
  21935922.414 7    209257.546 7    182444.85248  21935914.83248
  22008495.648 7    414106.908 7    331466.70348  22008487.36348
  22901715.391 6  -1396622.238 6  -1072736.33847  22901708.98047
  21817839.578 7  -2416762.056 7  -1844133.85148  21817830.94148
  23746368.844 6   2608856.714 6   2019178.90847  23746361.73047
  20818896.820 7    533162.458 7    422543.06648  20818887.01248
  23265867.695 6  -1779125.407 6  -1356143.92047  23265857.18447
  21359750.898 7   1410949.120 7   1098856.36748  21359741.61748
  20745837.188 7   -727492.088 7   -545642.05648  20745825.56348
  23721450.555 6     98963.624 6     82125.84747  23721443.96947
 11  3 31 16 51 15.0000000  0 10G03G06G09G14G15G18G19G21G22G27      
  21937480.492 6    217445.408 6    188824.98648  21937472.96948
  22010661.734 7    425492.172 7    340338.32248  22010653.85948
  22897402.469 6  -1419288.307 6  -1090398.19847  22897395.70747
  21809885.500 6  -2458561.342 6  -1876704.71548  21809877.03948
  23755781.969 5   2658324.438 5   2057725.11147  23755775.44147
  20821065.203 7    544556.637 7    431421.62748  20821054.92648
  23260274.758 6  -1808513.320 6  -1379043.59147  23260264.77347
  21365223.188 7   1439707.686 7   1121265.60448  21365214.37548
  20743653.938 7   -738964.448 7   -554581.55848  20743642.60548
  23722406.586 6    103987.687 6     86040.70147  23722400.23447
 11  3 31 16 51 30.0000000  0 10G03G06G09G14G15G18G19G21G22G27      
  21939066.336 6    225776.534 6    195316.76348  21939058.57848
  22012853.195 7    437007.250 7    349311.09448  22012845.43848
  22893114.703 6  -1441819.874 6  -1107955.25147  22893108.00047
  21801948.398 6  -2500269.793 6  -1909204.79748  21801939.64548
  23765204.297 5   2707838.316 5   2096307.27947  23765197.82847
  20823243.250 7    556002.889 7    440340.77648  20823233.26648
  23254704.688 6  -1837784.820 6  -1401852.55747  23254694.05947
  21370714.352 7   1468563.544 7   1143750.65548  21370705.30548
  20741482.898 7   -750375.342 7   -563473.16448  20741470.74648
  23723386.875 6    109138.210 6     90054.09246  23723379.93846
 11  3 31 16 51 45.0000000  0 10G03G06G09G14G15G18G19G21G22G27      
  21940679.102 7    234251.553 7    201920.65147  21940671.16847
  22015069.289 7    448652.697 7    358385.45148  22015061.23848
  22888853.813 6  -1464215.955 6  -1125406.72447  22888846.40647
  21794028.891 7  -2541886.583 7  -1941633.44748  21794020.66448
  23774635.656 5   2757398.739 5   2134925.70547  23774629.12947
  20825431.227 7    567501.931 7    449301.05248  20825421.41848
  23249157.500 6  -1866938.944 6  -1424570.04447  23249146.52047
  21376224.148 7   1497517.259 7   1166311.96648  21376214.86748
  20739323.430 7   -761724.026 7   -572316.30349  20739311.45349
  23724391.352 6    114415.738 6     94166.43447  23724384.70747
 11  3 31 16 52  0.0000000  0 10G03G06G09G14G15G18G19G21G22G27      
  21942318.969 7    242870.034 7    208636.32447  21942311.21147
  22017309.906 7    460428.329 7    367561.24948  22017302.55948
  22884617.234 6  -1486476.378 6  -1142752.47947  22884610.23847
  21786126.672 6  -2583411.627 6  -1973990.61348  21786118.32848
  23784075.297 5   2807005.317 5   2173580.12547  23784068.82847
  20827629.695 7    579053.574 7    458302.32048  20827619.59448
  23243631.766 6  -1895975.542 6  -1447195.96147  23243620.55147
  21381752.406 7   1526568.784 7   1188949.49148  21381743.30148
  20737175.320 7   -773010.700 7   -581111.12249  20737163.57849
  23725419.289 6    119820.272 6     98377.75946  23725413.17246
 11  3 31 16 52 15.0000000  0 10G03G06G09G14G15G18G19G21G22G27      
  21943986.555 6    251631.531 6    215463.44847  21943978.15247
  22019575.445 7    472333.512 7    376837.99548  22019567.04348
  22880406.516 6  -1508601.176 6  -1159992.56347  22880399.98847
  21778242.203 7  -2624844.969 7  -2006276.31948  21778234.09448
  23793524.000 5   2856657.355 5   2212269.95946  23793517.00446
  20829837.648 7    590657.400 7    467344.25148  20829827.78148
  23238128.563 6  -1924894.840 6  -1469730.47747  23238117.69947
  21387299.250 7   1555717.626 7   1211662.84748  21387290.26248
  20735039.484 7   -784235.780 7   -589857.94249  20735027.74249
  23726471.648 6    125351.313 6    102687.65047  23726465.94147
 11  3 31 16 52 30.0000000  0 10G03G06G09G14G15G18G19G21G22G27      
  21945680.867 7    260536.394 7    222402.29247  21945672.69947
  22021865.945 7    484368.499 7    386215.89348  22021857.25048
  22876222.703 6  -1530589.525 6  -1177126.31547  22876215.53147
  21770375.703 7  -2666185.847 7  -2038489.97748  21770367.41848
  23802980.789 5   2906354.908 5   2250995.24546  23802974.49646
  20832055.781 7    602313.808 7    476427.16348  20832046.32448
  23232648.039 6  -1953696.063 6  -1492172.98147  23232637.41047
  21392864.531 7   1584964.412 7   1234452.52048  21392855.48448
  20732914.891 7   -795398.748 7   -598556.36348  20732903.85248
  23727548.445 6    131009.409 6    107096.54147  23727542.73847
 11  3 31 16 52 45.0000000  0 10G03G06G09G14G15G18G19G21G22G27      
  21947402.266 6    269584.447 6    229452.70948  21947394.68448
  22024180.555 7    496533.247 7    395694.90048  22024172.68048
  22872064.320 6  -1552441.188 6  -1194153.56747  22872057.44147
  21762525.930 6  -2707434.225 6  -2070631.55048  21762517.64548
  23812447.414 5   2956097.781 5   2289755.87247  23812440.24247
  20834283.875 7    614022.667 7    485550.92748  20834274.59448
  23227190.055 6  -1982378.956 6  -1514523.29047  23227179.07447
  21398448.797 7   1614308.869 7   1257318.29748  21398439.34048
  20730802.516 7   -806499.771 7   -607206.51448  20730791.06648
  23728649.922 6    136794.562 6    111604.43246  23728643.27746
 11  3 31 16 53  0.0000000  0 10G03G06G09G14G15G18G19G21G22G27      
  21949151.094 6    278774.837 6    236614.02547  21949143.62947
  22026520.430 7    508826.870 7    405274.33748  22026512.02748
  22867932.000 6  -1574156.713 6  -1211074.74047  22867925.29747
  21754694.531 7  -2748590.614 7  -2102701.45048  21754686.59848
  23821921.367 5   3005885.127 5   2328551.12447  23821914.60547
  20836522.555 7    625783.184 7    494714.96148  20836512.21948
  23221753.828 6  -2010944.122 6  -1536781.85647  23221742.84847
  21404051.125 7   1643750.073 7   1280259.47148  21404041.72748
  20728702.000 7   -817539.429 7   -615808.84548  20728690.49248
  23729774.914 6    142706.111 6    116210.82446  23729768.32846
 11  3 31 16 53 15.0000000  0 10G03G06G09G14G15G18G19G21G22G27      
  21950927.672 6    288107.847 6    243886.48248  21950919.62148
  22028883.656 7    521249.711 7    414954.45048  22028876.13348
  22863825.883 6  -1595735.329 6  -1227889.23047  22863818.24247
  21746880.750 7  -2789654.105 7  -2134698.95948  21746872.23048
  23831403.430 5   3055716.773 5   2367380.91646  23831397.25446
  20838769.945 7    637595.669 7    503919.48348  20838760.02048
  23216340.961 6  -2039390.706 6  -1558948.01147  23216330.21547
  21409672.250 7   1673288.538 7   1303276.41748  21409662.79348
  20726612.914 7   -828517.316 7   -624363.05048  20726601.17248
  23730923.656 6    148744.517 6    120916.06647  23730916.95347
 11  3 31 16 53 30.0000000  0 10G03G06G09G14G15G18G19G21G22G27      
  21952730.406 6    297583.944 6    251270.43047  21952722.94147
  22031272.898 7    533802.011 7    424735.44448  22031264.67248
  22859745.852 6  -1617176.115 6  -1244596.31547  22859738.32847
  21739083.930 6  -2830623.971 6  -2166623.52148  21739075.70348
  23840894.891 5   3105593.021 5   2406245.44746  23840888.83246
  20841027.672 7    649460.800 7    513165.02448  20841017.62948
  23210950.508 6  -2067718.103 6  -1581021.30947  23210939.82047
  21415312.016 7   1702924.897 7   1326369.66248  21415302.85248
  20724535.836 7   -839433.004 7   -632868.77948  20724524.38748
  23732096.766 6    154910.309 6    125720.58147  23732091.29347
 11  3 31 16 53 45.0000000  0 10G03G06G09G14G15G18G19G21G22G27      
  21954561.109 6    307202.228 6    258765.17647  21954553.11747
  22033685.625 7    546482.993 7    434616.71848  22033677.69148
  22855691.500 6  -1638479.496 6  -1261196.34747  22855684.79747
  21731305.398 7  -2871501.054 7  -2198475.77048  21731296.70348
  23850394.273 5   3155512.814 5   2445143.90247  23850387.68847
  20843295.414 7    661377.871 7    522451.03548  20843285.48848
  23205582.094 6  -2095926.687 6  -1603002.02347  23205571.99247
  21420969.703 7   1732658.391 7   1349538.59148  21420960.59848
  20722470.180 7   -850287.135 7   -641326.54549  20722458.67249
  23733294.633 6    161202.884 6    130623.88247  23733288.16447
 11  3 31 16 54  0.0000000  0 10G03G06G09G14G15G18G19G21G22G27      
  21956418.320 7    316963.090 7    266371.02647  21956410.73847
  22036123.727 6    559293.115 6    444598.59848  22036116.02748
  22851663.852 6  -1659644.600 6  -1277688.61247  22851657.26647
  21723544.516 7  -2912284.172 7  -2230254.80648  21723536.81648
  23859902.445 5   3205476.482 5   2484076.58547  23859896.21147
  20845573.422 7    673347.277 7    531777.83648  20845563.78948
  23200237.172 6  -2124015.733 6  -1624889.59547  23200227.01247
  21426646.742 7   1762489.334 7   1372783.44848  21426637.69548
  20720416.531 7   -861079.229 7   -649735.97049  20720405.14149
  23734516.266 6    167622.728 6    135626.32646  23734509.68046
 11  3 31 16 54 15.0000000  0 10G03G06G09G14G15G18G19G21G22G27      
  21958302.977 6    326865.738 6    274087.36047  21958294.69147
  22038585.773 7    572231.668 7    454680.56848  22038577.60548
  22847662.602 6  -1680671.554 6  -1294073.22547  22847655.43047
  21715801.305 7  -2952973.741 7  -2261960.94348  21715793.19548
  23869417.891 5   3255483.210 5   2523042.78047  23869412.30147
  20847860.828 7    685368.349 7    541144.89248  20847851.07848
  23194914.203 6  -2151985.542 6  -1646684.23847  23194904.27747
  21432341.734 7   1792417.173 7   1396103.81648  21432332.62948
  20718374.430 7   -871809.847 7   -658097.49749  20718363.15649
  23735761.586 6    174169.198 6    140727.46146  23735755.41046
 11  3 31 16 54 30.0000000  0 10G03G06G09G14G15G18G19G21G22G27      
  21960214.633 6    336910.284 6    281914.25147  21960205.82047
  22041072.070 7    585298.653 7    464862.61148  22041063.84448
  22843687.625 6  -1701560.087 6  -1310349.99547  22843680.86347
  21708076.430 7  -2993569.324 7  -2293593.85548  21708067.79348
  23878942.008 5   3305532.711 5   2562042.32647  23878936.00847
  20850158.172 7    697441.361 7    550552.42348  20850148.36348
  23189614.383 6  -2179835.619 6  -1668385.58947  23189604.45747
  21438055.547 7   1822442.104 7   1419499.83148  21438046.44148
  20716344.180 7   -882478.920 7   -666411.06448  20716332.61348
  23737031.992 6    180842.585 6    145927.48947  23737025.28947
 11  3 31 16 54 45.0000000  0 10G03G06G09G14G15G18G19G21G22G27      
  21962152.953 6    347096.844 6    289851.82047  21962144.55147
  22043583.438 7    598494.195 7    475144.84048  22043575.09448
  22839739.273 6  -1722309.462 6  -1326518.32947  22839732.21947
  21700369.234 7  -3034070.286 7  -2325153.03848  21700361.18448
  23888474.758 5   3355625.062 5   2601075.26147  23888468.75847
  20852465.492 7    709566.521 7    560000.58548  20852455.68448
  23184337.867 6  -2207565.516 6  -1689993.30047  23184328.05947
  21443787.445 7   1852564.386 7   1442971.71248  21443777.93048
  20714326.180 7   -893086.205 7   -674676.48348  20714314.20348
  23738325.578 6    187643.096 6    151226.57447  23738319.22747
 11  3 31 16 55  0.0000000  0 10G03G06G09G14G15G18G19G21G22G27      
  21964118.539 6    357425.180 6    297899.85347  21964109.90247
  22046118.883 7    611817.984 7    485526.98148  22046110.59848
  22835817.266 6  -1742919.539 6  -1342578.12547  22835810.56347
  21692680.227 6  -3074476.767 6  -2356638.59048  21692671.88348
  23898014.703 5   3405759.854 5   2640141.27647  23898009.05547
  20854782.922 7    721743.466 7    569489.09848  20854772.99648
  23179083.695 6  -2235175.250 6  -1711507.37647  23179073.53547
  21449538.188 7   1882783.824 7   1466519.29548  21449528.90648
  20712319.063 7   -903631.829 7   -682893.85748  20712307.08648
  23739644.031 6    194570.634 6    156624.63946  23739638.14846
 11  3 31 16 55 15.0000000  0 10G03G06G09G14G15G18G19G21G22G27      
  21966110.109 6    367894.579 6    306057.80547  21966102.29347
  22048678.195 7    625269.588 7    496008.73148  22048670.61348
  22831922.125 6  -1763390.418 6  -1358529.44647  22831914.89547
  21685009.016 6  -3114788.788 6  -2388050.53348  21685000.55548
  23907563.164 5   3455936.427 5   2679239.83047  23907557.34047
  20857109.453 7    733971.934 7    579017.77048  20857099.87948
  23173853.234 6  -2262664.852 6  -1732927.84147  23173842.72347
  21455307.234 7   1913099.956 7   1490142.22848  21455298.07048
  20710323.984 7   -914115.969 7   -691063.32249  20710312.47749
  23740985.836 6    201624.921 6    162121.46347  23740979.83647
 11  3 31 16 55 30.0000000  0 10G03G06G09G14G15G18G19G21G22G27      
  21968129.570 6    378505.286 6    314325.87247  21968121.52047
  22051262.781 7    638848.871 7    506589.96948  22051254.37948
  22828052.734 6  -1783721.661 6  -1374371.96647  22828045.73847
  21677356.188 7  -3155005.977 7  -2419388.58548  21677347.84448
  23917120.102 6   3506154.660 6   2718370.85247  23917113.10547
  20859446.836 7    746251.956 7    588586.61048  20859436.91048
  23168644.609 6  -2290033.922 6  -1754254.39047  23168634.33247
  21461094.039 7   1943512.838 7   1513840.54448  21461085.57848
  20708340.820 7   -924538.676 7   -699184.90848  20708328.90248
  23742352.805 6    208806.020 6    167717.12047  23742346.74647
 11  3 31 16 55 45.0000000  0 10G03G06G09G14G15G18G19G21G22G27      
  21970175.969 6    389257.202 6    322703.97247  21970167.15647
  22053870.734 6    652555.664 6    517270.56548  22053862.91848
  22824210.266 6  -1803912.968 6  -1390105.44547  22824203.62147
  21669720.914 6  -3195128.227 6  -2450652.65448  21669712.62948
  23926683.367 5   3556414.188 5   2757534.04947  23926678.12947
  20861793.203 7    758583.497 7    598195.59448  20861783.57048
  23163459.594 6  -2317282.260 6  -1775486.85247  23163449.25847
  21466900.117 7   1974022.519 7   1537614.28848  21466891.12948
  20706369.039 7   -934900.127 7   -707258.76849  20706357.29749
  23743743.797 6    216113.926 6    173411.59647  23743737.56347
 11  3 31 16 56  0.0000000  0 10G03G06G09G14G15G18G19G21G22G27      
  21972248.594 6    400150.068 6    331191.90247  21972240.66047
  22056503.797 7    666390.041 7    528050.58048  22056495.45348
  22820395.516 6  -1823963.903 6  -1405729.55547  22820388.52047
  21662104.219 6  -3235155.169 6  -2481842.46448  21662095.87548
  23936255.750 6   3606714.835 6   2796729.29447  23936249.69147
  20864149.516 7    770966.551 7    607844.71148  20864139.88348
  23158297.617 6  -2344409.562 6  -1796624.99947  23158286.93047
  21472724.305 7   2004628.991 7   1561463.45248  21472715.19948
  20704409.023 7   -945200.064 7   -715284.69749  20704397.04749
  23745158.305 6    223548.693 6    179204.88947  23745152.30547
 11  3 31 16 56 15.0000000  0 10G03G06G09G14G15G18G19G21G22G27      
  21974347.758 6    411183.200 6    339789.12547  21974340.11747
  22059160.211 6    680351.222 6    538929.40148  22059152.45348
  22816605.961 6  -1843874.615 6  -1421244.38647  22816599.25847
  21654505.313 6  -3275087.066 6  -2512958.20948  21654496.79348
  23945835.328 5   3657055.673 5   2835955.84647  23945829.56347
  20866515.719 7    783400.546 7    617533.53048  20866506.02748
  23153158.023 6  -2371416.058 6  -1817669.02447  23153148.03947
  21478566.938 7   2035331.661 7   1585387.58148  21478557.89148
  20702460.297 7   -955439.092 7   -723263.16449  20702448.84849
  23746597.969 6    231109.862 6    185096.69647  23746591.26647
 11  3 31 16 56 30.0000000  0 10G03G06G09G14G15G18G19G21G22G27      
  21976474.250 6    422357.448 6    348496.31047  21976466.49247
  22061841.539 6    694440.082 6    549907.70248  22061833.25448
  22812844.352 6  -1863643.984 6  -1436649.07747  22812836.88747
  21646924.906 6  -3314922.670 6  -2543998.92048  21646916.50448
  23955422.688 5   3707437.397 5   2875214.26447  23955416.80547
  20868891.461 7    795886.509 7    627262.83648  20868881.94548
  23148042.414 6  -2398300.572 6  -1838617.98747  23148031.90247
  21484427.977 7   2066131.432 7   1609387.36348  21484418.93048
  20700523.859 7   -965616.198 7   -731193.38049  20700512.05949
  23748060.273 6    238798.362 6    191087.70547  23748054.03947
 11  3 31 16 56 45.0000000  0 10G03G06G09G14G15G18G19G21G22G27      
  21978627.336 6    433672.114 6    357312.91647  21978619.22747
  22064546.344 6    708655.930 6    560984.96948  22064538.64548
  22809109.445 6  -1883272.197 6  -1451943.79947  22809102.44947
  21639362.797 6  -3354662.378 6  -2574964.91148  21639354.39548
  23965017.227 5   3757859.220 5   2914503.91047  23965011.52047
  20871277.695 7    808423.828 7    637032.16348  20871267.65248
  23142949.883 6  -2425063.545 6  -1859472.25447  23142939.02047
  21490307.570 7   2097027.610 7   1633462.28248  21490298.52348
  20698599.125 7   -975731.943 7   -739075.78849  20698587.32449
  23749548.023 6    246613.710 6    197177.57847  23749541.14547
 11  3 31 16 57  0.0000000  0 10G03G06G09G14G15G18G19G21G22G27      
  21980807.594 6    445127.048 6    366238.81947  21980799.66047
  22067275.969 6    722998.437 6    572160.91548  22067267.44948
  22805401.172 6  -1902759.047 6  -1467128.36947  22805394.17647
  21631818.711 6  -3394306.006 6  -2605856.03548  21631810.36748
  23974620.492 5   3808320.783 5   2953824.52847  23974614.14147
  20873673.125 7    821012.412 7    646841.44748  20873663.31648
  23137880.117 6  -2451704.692 6  -1880231.59147  23137869.72347
  21496205.078 7   2128020.205 7   1657612.31848  21496196.26648
  20696685.695 7   -985786.409 7   -746910.43048  20696673.95348
  23751058.820 6    254555.818 6    203366.22047  23751052.29347
 11  3 31 16 57 15.0000000  0 10G03G06G09G14G15G18G19G21G22G27      
  21983014.250 6    456722.266 6    375274.03648  21983005.90648
  22070029.250 6    737467.779 6    583435.71348  22070021.31648
  22801719.219 6  -1922103.904 6  -1482202.28147  22801712.57447
  21624293.508 6  -3433852.932 6  -2636671.80348  21624284.75448
  23984230.742 5   3858822.095 5   2993176.10847  23984224.68447
  20876078.469 7    833652.459 7    656690.81848  20876068.42648
  23132833.359 6  -2478223.453 6  -1900895.55647  23132822.67247
  21502121.258 7   2159109.482 7   1681837.69548  21502112.56348
  20694784.016 7   -995779.365 7   -754697.15649  20694772.27349
  23752594.859 6    262625.019 6    209653.88747  23752588.44947
 11  3 31 16 57 30.0000000  0 10G03G06G09G14G15G18G19G21G22G27      
  21985247.422 6    468457.333 6    384418.22348  21985239.48848
  22072807.016 6    752063.602 6    594809.04448  22072798.84848
  22798065.359 6  -1941306.766 6  -1497165.54347  22798058.24647
  21616785.898 7  -3473303.146 7  -2667412.21748  21616777.08648
  23993848.438 5   3909362.573 5   3032558.21347  23993842.32047
  20878493.203 7    846343.645 7    666580.04248  20878483.74648
  23127810.422 6  -2504619.921 6  -1921464.23447  23127799.96947
  21508055.867 7   2190295.224 7   1706138.23848  21508046.93848
  20692894.086 7  -1005711.065 7   -762436.14748  20692882.52048
  23754154.305 6    270821.021 6    216040.36047  23754148.30547
 11  3 31 16 57 45.0000000  0 10G03G06G09G14G15G18G19G21G22G27      
  21987506.906 6    480331.834 6    393671.05547  21987498.73847
  22075608.531 7    766785.458 7    606280.59948  22075600.24648
  22794438.461 6  -1960367.721 6  -1512018.25047  22794431.23047
  21609297.289 6  -3512656.877 6  -2698077.44348  21609288.65248
  24003473.320 5   3959941.704 5   3071970.44447  24003467.32047
  20880917.977 7    859085.613 7    676508.83848  20880908.28548
  23122811.117 6  -2530894.269 6  -1941937.74447  23122799.96147
  21514008.602 7   2221576.898 7   1730513.53148  21513999.20348
  20691015.703 7  -1015581.849 7   -770127.67649  20691004.31349
  23755738.109 6    279143.478 6    222525.38047  23755731.40647
 11  3 31 16 58  0.0000000  0 10G03G06G09G14G15G18G19G21G22G27      
  21989793.578 6    492346.275 6    403032.93648  21989785.11748
  22078434.289 6    781633.663 6    617850.61348  22078425.53548
  22790837.961 6  -1979285.807 6  -1526759.62747  22790830.96547
  21601826.914 6  -3551913.302 6  -2728666.83848  21601818.68848
  24013105.367 5   4010559.779 5   3111413.01847  24013099.66047
  20883352.313 7    871879.041 7    686477.73748  20883342.97348
  23117834.109 6  -2557045.584 6  -1962315.40047  23117823.53947
  21519979.813 7   2252955.379 7   1754964.26448  21519970.88348
  20689148.781 7  -1025391.052 7   -777771.21049  20689137.56649
  23757345.977 6    287593.035 6    229109.43147  23757339.74247
 11  3 31 16 58 15.0000000  0 10G03G06G09G14G15G18G19G21G22G27      
  21992105.914 6    504500.007 6    412503.36747  21992097.68847
  22081282.625 6    796607.859 6    629518.79448  22081275.04348
  22787265.398 6  -1998061.016 6  -1541389.66147  22787258.63747
  21594375.320 6  -3591072.545 6  -2759180.52748  21594366.50848
  24022745.414 5   4061216.157 5   3150885.43447  24022739.18047
  20885796.625 7    884723.506 7    696486.39448  20885786.87548
  23112880.859 6  -2583074.003 6  -1982597.27947  23112870.58247
  21525969.227 7   2284429.853 7   1779489.79348  21525960.18048
  20687294.195 7  -1035139.086 7   -785367.08048  20687282.21948
  23758977.469 6    296169.293 6    235792.22246  23758971.64546
 11  3 31 16 58 30.0000000  0 10G03G06G09G14G15G18G19G21G22G27      
  21994444.844 6    516793.184 6    422082.43847  21994437.26247
  22084156.859 7    811707.984 7    641285.10848  22084148.57448
  22783719.992 6  -2016692.838 6  -1555907.96847  22783712.99647
  21586941.898 6  -3630134.021 6  -2789618.01748  21586933.73048
  24032392.234 5   4111910.626 5   3190387.52747  24032386.46947
  20888250.867 7    897619.359 7    706535.10948  20888241.29348
  23107951.672 6  -2608979.081 6  -2002783.06447  23107940.92647
  21531976.828 7   2316000.567 7   1804090.31448  21531967.66448
  20685450.656 7  -1044825.736 7   -792915.12649  20685439.09049
  23760634.141 6    304872.406 6    242573.85747  23760627.78947
 11  3 31 16 58 45.0000000  0 10G03G06G09G14G15G18G19G21G22G27      
  21996810.891 6    529225.496 6    431769.93647  21996803.01647
  22087054.055 6    826933.494 6    653149.10948  22087046.29748
  22780202.008 6  -2035181.283 6  -1570314.54547  22780194.95347
  21579527.336 6  -3669097.922 6  -2819979.48348  21579518.69948
  24042046.180 5   4162642.717 5   3229918.94747  24042040.00447
  20890714.281 7    910566.010 7    716623.38748  20890704.59048
  23103045.344 6  -2634760.873 6  -2022872.76747  23103035.24247
  21538002.992 7   2347667.180 7   1828765.55548  21537993.88748
  20683619.172 7  -1054451.260 7   -800415.53149  20683607.13749
  23762314.664 6    313702.221 6    249454.21547  23762307.90247
 11  3 31 16 59  0.0000000  0 10G03G06G09G14G15G18G19G21G22G27      
  21999203.594 6    541796.659 6    441565.62447  21999195.13347
  22089975.414 7    842284.578 7    665110.97348  22089967.12948
  22776710.891 6  -2053526.022 6  -1584609.13847  22776704.12947
  21572131.758 6  -3707963.882 6  -2850264.62948  21572123.12148
  24051707.750 5   4213412.296 5   3269479.56747  24051701.92647
  20893187.852 7    923563.465 7    726751.26748  20893178.21948
  23098163.242 6  -2660419.020 6  -2042866.13147  23098152.43847
  21544047.102 7   2379429.817 7   1853515.62648  21544038.05548
  20681799.266 7  -1064015.537 7   -807868.22249  20681787.64149
  23764018.766 6    322658.804 6    256433.33847  23764012.47347
 11  3 31 16 59 15.0000000  0 10G03G06G09G14G15G18G19G21G22G27      
  22001621.195 6    554506.432 6    451469.33348  22001613.37948
  22092920.250 7    857760.886 7    677170.40848  22092912.55148
  22773247.453 6  -2071726.877 6  -1598791.62047  22773240.39847
  21564754.266 6  -3746731.695 6  -2880473.29348  21564745.57048
  24061376.047 5   4264219.025 5   3309069.12947  24061370.22347
  20895670.742 7    936611.528 7    736918.57348  20895661.05148
  23093303.789 6  -2685953.393 6  -2062763.04847  23093293.04347
  21550109.523 7   2411288.376 7   1878340.44148  21550100.35948
  20679990.617 7  -1073518.883 7   -815273.43549  20679978.93449
  23765746.828 6    331742.065 6    263511.19747  23765741.18047
 11  3 31 16 59 30.0000000  0 10G03G06G09G14G15G18G19G21G22G27      
  22004066.953 6    567354.695 6    461480.94048  22004059.07848
  22095889.672 6    873362.218 6    689327.27448  22095881.09448
  22769811.648 6  -2089783.480 6  -1612861.68047  22769804.30147
  21557395.430 7  -3785401.171 7  -2910605.34448  21557386.91048
  24071051.125 5   4315062.440 5   3348687.28647  24071044.77347
  20898163.656 7    949710.361 7    747125.45048  20898153.78948
  23088468.570 6  -2711363.827 6  -2082563.38747  23088458.11747
  21556190.289 7   2443242.684 7   1903239.87048  21556181.18448
  20678193.883 7  -1082961.150 7   -822631.04248  20678181.96548
  23767499.383 6    340951.873 6    270687.64947  23767493.44147
 11  3 31 16 59 45.0000000  0 10G03G06G09G14G15G18G19G21G22G27      
  22006538.391 6    580341.026 6    471600.14548  22006529.98848
  22098881.883 6    889088.313 6    701581.34648  22098873.59848
  22766402.484 6  -2107695.668 6  -1626819.23347  22766396.07447
  21550055.547 6  -3823972.204 6  -2940660.66848  21550047.49648
  24080732.867 5   4365942.219 5   3388333.78247  24080727.27747
  20900665.602 7    962859.868 7    757371.80048  20900655.91048
  23083656.781 6  -2736650.196 6  -2102267.04247  23083645.97747
  21562289.336 7   2475292.570 7   1928213.76348  21562280.17248
  20676408.773 7  -1092342.540 7   -829941.22349  20676396.97349
  23769276.164 6    350288.242 6    277962.72647  23769270.28147
 11  3 31 17  0  0.0000000  0 10G03G06G09G14G15G18G19G21G22G27      
  22009036.242 6    593465.877 6    481827.28447  22009027.89847
  22101898.539 6    904939.390 6    713932.81348  22101890.60548
  22763021.719 6  -2125462.824 6  -1640663.76247  22763014.84047
  21542734.891 6  -3862444.205 6  -2970638.83548  21542726.07848
  24090422.156 5   4416858.487 5   3428008.70447  24090416.33247
  20903177.711 7    976060.345 7    767657.87348  20903167.78548
  23078868.742 5  -2761811.764 5  -2121873.47147  23078858.05547
  21568406.625 7   2507438.512 7   1953262.51248  21568397.46148
  20674635.000 7  -1101662.640 7   -837203.64649  20674623.43449
  23771077.266 6    359751.440 6    285336.64346  23771070.68046
 11  3 31 17  0 15.0000000  0 10G03G06G09G14G15G18G19G21G22G27      
  22011559.172 6    606728.581 6    492161.82848  22011551.94148
  22104938.320 7    920914.800 7    726381.16648  22104930.44548
  22759668.078 6  -2143085.201 6  -1654395.46347  22759661.60947
  21535432.648 7  -3900817.310 7  -3000539.94448  21535424.30548
  24100118.305 5   4467810.586 5   3467711.54547  24100112.30547
  20905699.266 7    989311.363 7    777983.33648  20905689.92648
  23074104.234 6  -2786848.917 6  -2141382.93547  23074093.84047
  21574541.883 7   2539679.894 7   1978385.63248  21574532.71948
  20672873.109 7  -1110921.980 7   -844418.72549  20672861.54349
  23772902.133 6    369341.143 6    292809.12347  23772895.89847
 11  3 31 17  0 30.0000000  0 10G03G06G09G14G15G18G19G21G22G27      
  22014109.570 6    620128.749 6    502603.49347  22014100.99247
  22108002.281 6    937014.393 6    738926.28448  22107994.17248
  22756342.500 6  -2160562.454 6  -1668014.09547  22756335.68047
  21528149.398 7  -3939091.458 7  -3030363.93348  21528140.70348
  24109820.695 5   4518798.078 5   3507441.95947  24109815.28147
  20908230.461 7   1002612.818 7    788348.08948  20908221.29748
  23069363.156 6  -2811761.441 6  -2160795.29847  23069352.99647
  21580695.492 7   2572016.657 7   2003583.07548  21580686.50448
  20671122.828 7  -1120120.457 7   -851586.37549  20671111.26249
  23774751.102 6    379057.165 6    300380.02047  23774744.75047
 11  3 31 17  0 45.0000000  0 10G03G06G09G14G15G18G19G21G22G27      
  22016685.695 6    633666.370 6    513152.27447  22016677.46947
  22111089.133 7    953237.979 7    751568.01148  22111081.08248
  22753044.281 5  -2177894.125 5  -1681519.29047  22753037.40247
  21520884.977 6  -3977266.281 6  -3060110.53548  21520875.81348
  24119529.992 5   4569820.762 5   3547199.79447  24119524.46147
  20910771.602 7   1015964.628 7    798752.08648  20910761.50048
  23064646.523 5  -2836549.083 5  -2180110.33847  23064636.24647
  21586866.969 7   2604448.846 7   2028854.87348  21586857.86348
  20669383.859 7  -1129258.059 7   -858706.58849  20669371.88349
  23776623.875 6    388899.621 6    308049.45446  23776617.58246
 11  3 31 17  1  0.0000000  0 10G03G06G09G14G15G18G19G21G22G27      
  22019287.656 6    647341.903 6    523808.50047  22019279.95747
  22114200.234 7    969586.155 7    764306.82448  22114192.82848
  22749773.805 6  -2195079.298 6  -1694910.31347  22749767.16047
  21513639.938 7  -4015340.787 7  -3089778.96648  21513630.94948
  24129246.203 5   4620879.252 5   3586985.55147  24129240.32047
  20913322.008 7   1029367.648 7    809195.97848  20913312.25848
  23059953.625 6  -2861210.859 6  -2199327.31547  23059942.99647
  21593057.156 7   2636976.959 7   2054201.40648  21593048.10948
  20667656.711 7  -1138334.144 7   -865778.86749  20667645.02749
  23778520.859 6    398869.118 6    315817.87447  23778514.85947
 11  3 31 17  1 15.0000000  0 10G03G06G09G14G15G18G19G21G22G27      
  22021916.359 6    661154.423 6    534571.47947  22021908.13347
  22117334.766 7    986058.007 7    777142.00948  22117326.89148
  22746531.531 6  -2212118.578 6  -1708187.67447  22746524.59447
  21506413.695 7  -4053315.704 7  -3119369.79248  21506404.53148
  24138968.766 5   4671972.113 5   3626798.06847  24138963.46947
  20915882.305 7   1042820.830 7    819678.97048  20915872.08648
  23055283.547 6  -2885747.398 6  -2218446.68947  23055273.79747
  21599265.117 7   2669600.180 7   2079622.06148  21599255.89548
  20665941.281 7  -1147349.421 7   -872803.76249  20665929.48049
  23780441.805 6    408964.938 6    323684.73746  23780436.33246
 11  3 31 17  1 30.0000000  0 10G03G06G09G14G15G18G19G21G22G27      
  22024570.656 6    675103.763 6    545441.07347  22024562.72347
  22120492.359 6   1002653.002 6    790073.15148  22120484.89548
  22743316.523 6  -2229011.772 6  -1721351.18847  22743309.93847
  21499206.133 7  -4091190.902 7  -3148882.92048  21499197.32048
  24148698.586 5   4723099.279 5   3666637.32747  24148692.93847
  20918451.266 7   1056324.138 7    830201.01248  20918441.69148
  23050639.086 6  -2910158.637 6  -2237468.43447  23050628.34047
  21605491.250 7   2702318.260 7   2105116.63048  21605481.73448
  20664237.055 7  -1156304.096 7   -879781.43849  20664225.78149
  23782387.414 6    419186.906 6    331649.88047  23782381.18047
 11  3 31 17  1 45.0000000  0 10G03G06G09G14G15G18G19G21G22G27      
  22027251.523 6    689190.298 6    556417.57847  22027243.64847
  22123674.109 7   1019371.947 7    803100.87948  22123666.29348
  22740130.352 6  -2245757.900 6  -1734400.11347  22740123.35547
  21492017.438 7  -4128965.514 7  -3178317.67448  21492008.97748
  24158434.523 4   4774260.971 4   3706503.46546  24158428.28946
  20921030.945 7   1069878.231 7    840762.62548  20921021.25448
  23046018.000 6  -2934443.712 6  -2256391.86747  23046007.84047
  21611735.734 7   2735131.821 7   2130685.60248  21611726.27748
  20662544.625 7  -1165197.580 7   -886711.43049  20662532.88349
  23784356.492 6    429535.580 6    339713.77346  23784350.72746
 11  3 31 17  2  0.0000000  0 10G03G06G09G14G15G18G19G21G22G27      
  22029957.969 6    703412.852 6    567500.05947  22029949.97747
  22126879.039 7   1036213.422 7    816224.08748  22126871.22348
  22736971.477 6  -2262357.740 6  -1747335.03847  22736964.77347
  21484848.406 7  -4166640.290 7  -3207674.61948  21484839.65248
  24168175.922 5   4825455.914 5   3746395.54047  24168170.80147
  20923619.711 7   1083481.933 7    851362.90148  20923609.55148
  23041420.289 5  -2958603.248 5  -2275217.48047  23041409.83647
  21617997.609 7   2768040.084 7   2156328.35748  21617988.79748
  20660864.094 7  -1174030.810 7   -893594.47049  20660851.88349
  23786349.320 6    440010.052 6    347875.68047  23786343.49647
 11  3 31 17  2 15.0000000  0 10G03G06G09G14G15G18G19G21G22G27      
  22032691.063 6    717772.538 6    578689.41247  22032682.30947
  22130107.625 6   1053178.647 6    829443.71848  22130099.45748
  22733840.563 6  -2278809.681 6  -1760154.72747  22733833.91847
  21477698.281 7  -4204213.922 7  -3236952.76148  21477689.58648
  24177924.789 5   4876685.083 5   3786314.28546  24177919.60946
  20926218.242 7   1097136.658 7    862002.93048  20926208.08248
  23036847.234 6  -2982635.881 6  -2293944.20147  23036836.66447
  21624278.367 7   2801044.043 7   2182045.69348  21624269.20348
  20659194.773 7  -1182802.481 7   -900429.53949  20659183.09049
  23788366.766 6    450611.562 6    356136.57146  23788361.46946
 11  3 31 17  2 30.0000000  0 10G03G06G09G14G15G18G19G21G22G27      
  22035449.211 6    732267.785 6    589984.38847  22035440.80947
  22133359.359 6   1070266.132 6    842758.62048  22133351.30948
  22730737.617 6  -2295114.815 6  -1772860.02447  22730730.97347
  21470567.336 7  -4241687.172 7  -3266152.67948  21470558.34848
  24187680.094 5   4927946.931 5   3826258.47246  24187674.09446
  20928825.984 7   1110841.210 7    872681.78748  20928816.35248
  23032297.875 5  -3006542.677 5  -2312572.87347  23032287.01247
  21630576.680 7   2834142.437 7   2207836.60448  21630567.28148
  20657537.031 7  -1191513.998 7   -907217.74449  20657525.23049
  23790408.906 6    461338.765 6    364495.43146  23790402.61346
 11  3 31 17  2 45.0000000  0 10G03G06G09G14G15G18G19G21G22G27      
  22038233.117 6    746899.021 6    601385.33147  22038225.35947
  22136634.375 6   1087476.070 6    856168.93648  22136626.09048
  22727663.133 6  -2311272.474 6  -1785450.40247  22727656.13747
  21463455.789 7  -4279059.394 7  -3295273.88348  21463446.80148
  24197440.414 5   4979241.493 5   3866228.17846  24197434.88346
  20931442.961 7   1124595.503 7    883399.40948  20931433.32848
  23027772.625 6  -3030323.022 6  -2331103.00847  23027761.82047
  21636893.289 7   2867335.392 7   2233701.20448  21636884.12548
  20655890.648 7  -1200164.842 7   -913958.66449  20655878.96549
  23792474.039 6    472191.932 6    372952.43047  23792468.03947
 11  3 31 17  3  0.0000000  0 10G03G06G09G14G15G18G19G21G22G27      
  22041043.719 6    761666.257 6    612892.25147  22041035.08247
  22139932.273 6   1104808.492 6    869674.69948  22139924.28148
  22724616.266 6  -2327282.124 6  -1797925.44647  22724609.56347
  21456362.906 7  -4316330.249 7  -3324316.09348  21456354.21148
  24207207.422 4   5030568.787 4   3906223.35646  24207202.41846
  20934069.891 7   1138400.014 7    894156.16048  20934060.37548
  23023271.125 6  -3053976.521 6  -2349534.31147  23023260.67247
  21643227.719 7   2900623.283 7   2259639.78448  21643218.73048
  20654256.172 7  -1208755.000 7   -920652.29549  20654244.54749
  23794563.055 6    483171.342 6    381507.79246  23794557.34846
 11  3 31 17  3 15.0000000  0 10G03G06G09G14G15G18G19G21G22G27      
  22043879.266 6    776569.092 6    624504.82447  22043870.74647
  22143253.844 6   1122263.167 6    883275.72548  22143245.67648
  22721598.242 5  -2343143.544 5  -1810284.99347  22721591.77347
  21449290.141 7  -4353499.600 7  -3353279.20148  21449281.32848
  24216981.680 4   5081928.647 4   3946243.94946  24216976.32446
  20936706.703 6   1152254.709 6    904952.01848  20936696.95348
  23018794.617 6  -3077503.018 6  -2367866.64447  23018783.93047
  21649579.945 7   2934006.014 7   2285652.25948  21649570.95748
  20652633.188 7  -1217284.343 7   -927298.54249  20652621.21149
  23796676.586 6    494276.966 6    390161.51546  23796670.29346
 11  3 31 17  3 30.0000000  0 10G03G06G09G14G15G18G19G21G22G27      
  22046740.734 6    791607.469 6    636223.01847  22046732.91847
  22146598.234 6   1139840.136 6    896972.03748  22146590.47748
  22718608.133 6  -2358856.442 6  -1822528.80947  22718601.60547
  21442236.055 7  -4390567.152 7  -3382162.99548  21442227.59448
  24226761.328 5   5133320.755 5   3986289.65946  24226756.03146
  20939352.758 7   1166159.562 7    915786.95448  20939342.89148
  23014341.688 6  -3100902.078 6  -2386099.67647  23014331.46947
  21655950.516 7   2967483.481 7   2311738.55648  21655941.99648
  20651021.516 7  -1225752.788 7   -933897.33949  20651010.06649
  23798814.438 6    505508.951 6    398913.70347  23798807.67647
 11  3 31 17  3 45.0000000  0 10G03G06G09G14G15G18G19G21G22G27      
  22049628.523 6    806780.757 6    648046.33347  22049620.12147
  22149966.602 6   1157538.466 6    910762.92648  22149958.19948
  22715646.594 6  -2374421.094 6  -1834657.10647  22715639.36347
  21435202.203 7  -4427533.293 7  -3410967.77548  21435193.15648
  24236547.438 5   5184744.306 5   4026359.84646  24236541.67246
  20942008.234 7   1180113.979 7    926660.51148  20941998.19148
  23009913.203 6  -3124174.138 6  -2404233.74447  23009902.63347
  21662338.969 7   3001055.117 7   2337898.24148  21662329.92248
  20649421.602 7  -1234160.943 7   -940449.15249  20649409.80149
  23800975.516 6    516866.499 6    407763.71847  23800969.28147
 11  3 31 17  4  0.0000000  0 10G03G06G09G14G15G18G19G21G22G27      
  22052541.531 6    822088.877 6    659974.72847  22052533.59847
  22153357.547 6   1175358.272 6    924648.46948  22153349.55548
  22712713.008 6  -2389837.061 6  -1846669.54647  22712706.01247
  21428186.656 7  -4464397.566 7  -3439693.16148  21428177.78548
  24246339.203 4   5236199.181 4   4066454.46446  24246333.20346
  20944673.023 7   1194118.158 7    937572.84448  20944663.44948
  23005508.719 6  -3147318.854 6  -2422268.58347  23005498.44147
  21668745.375 7   3034721.018 7   2364131.36348  21668736.56348
  20647833.227 7  -1242508.715 7   -946953.90949  20647821.36749
  23803160.719 6    528349.767 6    416711.70846  23803154.54346
 11  3 31 17  4 15.0000000  0 10G03G06G09G14G15G18G19G21G22G27      
  22055479.883 6    837531.869 6    672008.20747  22055472.35947
  22156771.867 6   1193299.502 6    938628.62448  22156763.81648
  22709807.773 6  -2405103.919 6  -1858565.80047  22709801.12947
  21421191.547 7  -4501159.561 7  -3468338.85048  21421182.61748
  24256135.672 5   5287685.233 5   4106573.37446  24256130.25846
  20947347.680 7   1208172.197 7    948524.03048  20947337.10948
  23001129.039 6  -3170335.819 6  -2440203.88947  23001118.58647
  21675169.695 7   3068481.312 7   2390438.04648  21675161.17648
  20646256.000 7  -1250795.830 7   -953411.40949  20646244.43449
  23805369.945 6    539958.965 6    425757.82546  23805363.88746
 11  3 31 17  4 30.0000000  0 10G03G06G09G14G15G18G19G21G22G27      
  22058444.531 6    853109.429 6    684146.54147  22058437.00847
  22160209.016 6   1211361.901 6    952703.19348  22160201.19948
  22706931.188 6  -2420221.389 6  -1870345.61347  22706924.48447
  21414215.188 7  -4537819.065 7  -3496904.69148  21414206.31648
  24265939.688 4   5339202.319 4   4146716.46446  24265933.98046
  20950031.156 7   1222276.043 7    959514.02548  20950021.17248
  22996773.633 6  -3193224.821 6  -2458039.47247  22996762.71147
  21681612.281 7   3102335.794 7   2416818.12348  21681603.64548
  20644690.813 7  -1259022.493 7   -959821.80349  20644678.83649
  23807603.258 6    551694.079 6    434902.06347  23807596.55547
 11  3 31 17  4 45.0000000  0 10G03G06G09G14G15G18G19G21G22G27      
  22061434.531 6    868821.281 6    696389.52848  22061426.59848
  22163668.805 6   1229545.201 6    966871.97748  22163660.98848
  22704083.086 6  -2435189.311 6  -1882008.96147  22704076.03147
  21407258.703 7  -4574376.055 7  -3525390.65048  21407249.83248
  24275748.859 5   5390749.904 5   4186883.33546  24275742.97746
  20952724.797 7   1236429.615 7    970542.77148  20952714.57848
  22992442.375 6  -3215985.730 6  -2475775.25547  22992431.39547
  21688072.461 7   3136284.346 7   2443271.49648  21688063.94148
  20643136.938 7  -1267188.524 7   -966184.94449  20643124.90249
  23809859.336 6    563554.949 6    444144.28646  23809853.57046
 11  3 31 17  5  0.0000000  0 10G03G06G09G14G15G18G19G21G22G27      
  22064449.750 6    884667.116 6    708736.91447  22064441.75847
  22167152.258 6   1247849.316 6    981134.89048  22167143.97348
  22701263.031 6  -2450007.595 6  -1893555.67947  22701255.97747
  21400321.875 7  -4610830.379 7  -3553796.59548  21400312.71148
  24285563.664 4   5442327.616 4   4227073.67646  24285558.30946
  20955427.656 7   1250632.815 7    981610.18948  20955418.08248
  22988135.492 6  -3238618.504 6  -2493411.18147  22988124.51247
  21694551.086 7   3170326.791 7   2469798.03948  21694541.33648
  20641594.391 7  -1275294.182 7   -972501.04849  20641582.59049
  23812141.344 6    575541.447 6    453484.42747  23812134.81647
 11  3 31 17  5 15.0000000  0 10G03G06G09G14G15G18G19G21G22G27      
  22067490.813 6    900646.972 6    721188.72547  22067482.93847
  22170658.039 6   1266274.152 6    995491.88148  22170650.34048
  22698471.914 6  -2464675.643 6  -1904985.32847  22698465.15247
  21393404.375 7  -4647181.461 7  -3582122.09648  21393395.91448
  24295384.734 5   5493935.538 5   4267287.54046  24295378.79346
  20958139.867 7   1264885.951 7    992716.51348  20958129.82448
  22983852.914 6  -3261122.507 6  -2510946.76847  22983842.34447
  21701046.164 6   3204463.524 6   2496398.05448  21701037.70348
  20640063.188 7  -1283339.110 7   -978769.82449  20640051.73849
  23814446.078 6    587653.862 6    462922.66146  23814439.72746
 11  3 31 17  5 30.0000000  0 10G03G06G09G14G15G18G19G21G22G27      
  22070557.094 6    916760.587 6    733744.77048  22070549.27748
  22174187.930 6   1284819.407 6   1009942.71248  22174179.41048
  22695709.516 6  -2479193.331 6  -1916297.82047  22695702.10947
  21386506.250 7  -4683429.266 7  -3610367.12848  21386497.84848
  24305211.156 4   5545573.359 4   4307524.73246  24305205.80146
  20960861.719 7   1279188.751 7   1003861.54148  20960851.67648
  22979595.102 6  -3283497.864 6  -2528382.11747  22979584.59047
  21707560.609 6   3238694.230 6   2523071.28448  21707551.56348
  20638543.852 7  -1291323.315 7   -984991.28448  20638532.28548
  23816774.766 6    599892.042 6    472458.89647  23816768.76647
 11  3 31 17  5 45.0000000  0 10G03G06G09G14G15G18G19G21G22G27      
  22073648.891 6    933007.847 6    746404.95447  22073640.89847
  22177739.578 6   1303485.013 6   1024487.31848  22177731.76248
  22692975.234 6  -2493560.241 6  -1927492.81147  22692967.88747
  21379628.102 7  -4719573.445 7  -3638531.40448  21379619.58248
  24315042.305 4   5597240.775 4   4347784.98546  24315037.06646
  20963592.766 7   1293541.252 7   1015045.29748  20963582.95748
  22975361.984 6  -3305744.240 6  -2545716.95947  22975351.12147
  21714092.305 7   3273018.795 7   2549817.66448  21714083.19948
  20637035.961 7  -1299246.852 7   -991165.46849  20637024.45349
  23819127.344 6    612255.973 6    482093.12147  23819121.34447
 11  3 31 17  6  0.0000000  0 10G03G06G09G14G15G18G19G21G22G27      
  22076765.609 6    949388.141 6    759168.79947  22076758.02747
  22181314.563 6   1322270.319 6   1039125.19448  22181306.21948
  22690269.430 6  -2507776.742 6  -1938570.60947  22690263.02047
  21372769.969 7  -4755614.296 7  -3666615.17148  21372761.27348
  24324880.539 4   5648937.100 4   4388067.74046  24324875.12546
  20966333.273 7   1307942.998 7   1026267.41848  20966323.58248
  22971153.086 6  -3327861.953 6  -2562951.54347  22971142.57447
  21720641.977 6   3307436.700 6   2576636.76448  21720632.87148
  20635539.844 7  -1307110.345 7   -997292.87049  20635528.45349
  23821504.008 6    624745.098 6    491824.89747  23821498.24247
 11  3 31 17  6 15.0000000  0 10G03G06G09G14G15G18G19G21G22G27      
  22079907.773 6    965901.725 6    772036.50047  22079900.25047
  22184911.406 6   1341175.496 6   1053856.48248  22184904.00048
  22687593.094 6  -2521842.124 6  -1949530.65347  22687586.15647
  21365931.438 7  -4791551.197 7  -3694617.93448  21365922.97748
  24334723.625 5   5700662.478 5   4428373.15546  24334718.15246
  20969083.672 7   1322394.492 7   1037528.30948  20969073.68848
  22966968.813 6  -3349850.188 6  -2580085.23647  22966957.53947
  21727208.992 7   3341948.407 7   2603528.96248  21727200.70748
  20634054.906 7  -1314913.271 7  -1003373.08049  20634043.16449
  23823904.906 6    637359.952 6    501654.63947  23823898.55547
 11  3 31 17  6 30.0000000  0 10G03G06G09G14G15G18G19G21G22G27      
  22083075.977 6    982547.671 6    785007.35347  22083068.27747
  22188531.734 6   1360199.860 6   1068680.63648  22188524.32848
  22684945.461 6  -2535756.652 6  -1960373.13547  22684938.05547
  21359112.406 7  -4827384.568 7  -3722540.02948  21359103.77048
  24344572.023 5   5752415.991 5   4468700.49946  24344566.66846
  20971842.680 7   1336895.117 7   1048827.48548  20971832.87148
  22962809.031 6  -3371709.514 6  -2597118.48447  22962798.28547
  21733794.383 7   3376553.308 7   2630493.77448  21733785.21948
  20632581.516 7  -1322656.194 7  -1009406.53649  20632569.83249
  23826329.484 6    650099.811 6    511581.78646  23826323.01646
 11  3 31 17  6 45.0000000  0 10G03G06G09G14G15G18G19G21G22G27      
  22086268.609 6    999326.475 6    798081.71847  22086261.08647
  22192175.219 6   1379343.667 6   1083597.86148  22192167.22748
  22682326.516 6  -2549519.507 6  -1971097.44147  22682319.63747
  21352313.523 7  -4863113.635 7  -3750380.85448  21352304.88748
  24354425.641 5   5804197.999 5   4509050.04446  24354420.34446
  20974611.469 7   1351445.268 7   1060165.24748  20974602.01248
  22958674.148 6  -3393439.155 6  -2614050.66947  22958662.81647
  21740397.625 6   3411251.832 6   2657531.55048  21740388.22748
  20631119.633 7  -1330338.576 7  -1015392.80849  20631108.18449
  23828777.148 6    662965.169 6    521606.72747  23828770.85547
 11  3 31 17  7  0.0000000  0 10G03G06G09G14G15G18G19G21G22G27      
  22089487.164 6   1016237.425 6    811259.06147  22089478.99647
  22195840.563 6   1398606.370 6   1098607.73248  22195832.62948
  22679736.352 6  -2563130.968 6  -1981703.77547  22679729.41447
  21345534.328 7  -4898738.685 7  -3778140.61448  21345525.80948
  24364284.578 5   5856007.810 5   4549421.24346  24364279.45746
  20977389.797 7   1366044.379 7   1071541.16848  20977379.87148
  22954563.492 6  -3415039.375 6  -2630882.00847  22954553.09847
  21747017.953 6   3446043.476 6   2684641.88748  21747009.37548
  20629668.922 7  -1337960.858 7  -1021332.25349  20629657.12149
  23831248.563 6    675955.568 6    531729.11546  23831242.85546
 11  3 31 17  7 15.0000000  0 10G03G06G09G14G15G18G19G21G22G27      
  22092730.078 6   1033280.222 6    824539.14247  22092722.32047
  22199528.578 6   1417987.733 6   1113710.07148  22199520.70348
  22677175.141 6  -2576590.596 6  -1992191.79147  22677167.96947
  21338774.570 7  -4934259.385 7  -3805819.06248  21338766.16848
  24374149.406 5   5907845.210 5   4589813.94546  24374144.16846
  20980177.188 7   1380692.809 7   1082955.51048  20980167.49648
  22950477.453 6  -3436509.839 6  -2647612.24647  22950467.05947
  21753656.195 6   3480928.138 6   2711824.69648  21753647.38348
  20628230.055 7  -1345523.066 7  -1027224.88649  20628218.43049
  23833744.719 6    689070.989 6    541948.90947  23833738.71947
 11  3 31 17  7 30.0000000  0 10G03G06G09G14G15G18G19G21G22G27      
  22095998.664 6   1050455.304 6    837922.31147  22095990.49647
  22203239.680 6   1437488.166 6   1128905.19448  22203231.68848
  22674642.703 6  -2589897.667 6  -2002560.93047  22674635.47347
  21332035.367 7  -4969675.060 7  -3833415.68148  21332027.08248
  24384019.016 5   5959710.419 5   4630228.34146  24384013.66046
  20982974.242 7   1395390.958 7   1094408.59348  20982964.60948
  22946417.266 6  -3457849.786 6  -2664240.77147  22946406.22747
  21760312.859 7   3515906.316 7   2739080.37048  21760303.69548
  20626802.547 7  -1353024.661 7  -1033070.29149  20626790.62949
  23836264.242 6    702311.973 6    552266.54847  23836258.35947
 11  3 31 17  7 45.0000000  0 10G03G06G09G14G15G18G19G21G22G27      
  22099291.602 6   1067761.709 6    851407.79247  22099284.07847
  22206972.852 6   1457106.692 6   1144192.32848  22206965.09448
  22672139.484 6  -2603052.722 6  -2012811.61947  22672132.25447
  21325316.094 7  -5004986.030 7  -3860930.70548  21325307.45748
  24393893.891 6   6011602.647 6   4670663.74946  24393888.35946
  20985780.625 7   1410138.001 7   1105899.78148  20985770.69948
  22942380.820 6  -3479059.880 6  -2680768.12547  22942369.95747
  21766986.250 6   3550977.254 6   2766408.33848  21766977.43848
  20625386.656 7  -1360466.159 7  -1038868.87149  20625374.79749
  23838807.703 6    715677.756 6    562681.43847  23838801.17647
 11  3 31 17  8  0.0000000  0 10G03G06G09G14G15G18G19G21G22G27      
  22102610.406 6   1085199.676 6    864995.79647  22102602.47347
  22210728.688 6   1476843.499 6   1159571.62248  22210720.81348
  22669664.781 6  -2616055.163 6  -2022943.39147  22669658.19547
  21318616.492 7  -5040191.808 7  -3888363.76148  21318607.73848
  24403774.672 6   6063521.808 6   4711120.15746  24403768.61346
  20988596.070 7   1424934.325 7   1117429.36748  20988586.37948
  22938369.211 6  -3500139.568 6  -2697193.85447  22938358.64147
  21773677.414 7   3586141.224 7   2793808.78948  21773669.01248
  20623981.773 7  -1367847.309 7  -1044620.42149  20623970.61749
  23841374.805 6    729168.700 6    573193.83847  23841369.15647
 11  3 31 17  8 15.0000000  0 10G03G06G09G14G15G18G19G21G22G27      
  22105953.500 6   1102768.734 6    878685.96447  22105945.33247
  22214506.969 6   1496698.139 6   1175042.75148  22214498.80148
  22667219.805 6  -2628905.149 6  -2032956.36647  22667212.75047
  21311937.109 7  -5075292.636 7  -3915715.04448  21311928.18048
  24413659.047 5   6115467.236 5   4751597.03346  24413653.51646
  20991420.961 7   1439779.635 7   1128997.13448  20991411.27048
  22934382.914 6  -3521088.840 6  -2713517.96647  22934372.57847
  21780387.148 6   3621397.788 6   2821281.39648  21780378.04348
  20622588.438 7  -1375168.466 7  -1050325.21249  20622576.75449
  23843966.391 6    742784.394 6    583803.47747  23843959.98047
 11  3 31 17  8 30.0000000  0 10G03G06G09G14G15G18G19G21G22G27      
  22109321.469 6   1120469.146 6    892478.45847  22109313.41847
  22218307.828 7   1516670.979 7   1190605.98048  22218299.66048
  22664803.773 6  -2641601.881 6  -2042849.91947  22664796.89547
  21305277.727 7  -5110287.673 7  -3942983.89248  21305268.91448
  24423549.227 6   6167439.315 6   4792094.68046  24423544.04746
  20994255.219 7   1454674.458 7   1140603.47148  20994245.93848
  22930420.969 6  -3541907.056 6  -2729739.95647  22930410.75047
  21787113.266 7   3656747.510 7   2848826.59048  21787104.80548
  20621207.039 7  -1382429.062 7  -1055982.83149  20621195.53149
  23846581.617 6    756525.344 6    594510.68747  23846575.32447
 11  3 31 17  8 45.0000000  0 10G03G06G09G14G15G18G19G21G22G27      
  22112714.547 6   1138299.773 6    906372.44147  22112706.78947
  22222130.453 6   1536760.771 6   1206260.33548  22222122.81348
  22662416.547 6  -2654145.939 6  -2052624.50547  22662410.02047
  21298638.547 7  -5145177.658 7  -3970170.87448  21298629.61748
  24433444.109 6   6219436.911 6   4832612.20146  24433438.63746
  20997099.266 7   1469617.772 7   1152247.59648  20997089.75048
  22926484.375 6  -3562594.966 6  -2745860.40847  22926474.03947
  21793858.336 7   3692189.348 7   2876443.56448  21793849.75848
  20619836.898 7  -1389629.977 7  -1061593.93949  20619824.92249
  23849219.563 6    770390.647 6    605314.80946  23849213.73846
 11  3 31 17  9  0.0000000  0 10G03G06G09G14G15G18G19G21G22G27      
  22116132.266 6   1156261.147 6    920368.29447  22116124.74247
  22225975.602 6   1556967.906 6   1222006.13048  22225967.96148
  22660059.086 6  -2666536.568 6  -2062279.54547  22660052.38347
  21292019.203 7  -5179961.775 7  -3997275.36948  21292010.44948
  24443344.125 6   6271460.246 6   4873149.78346  24443338.88746
  20999952.031 7   1484610.140 7   1163929.95548  20999942.28148
  22922572.664 6  -3583151.724 6  -2761878.66347  22922562.32847
  21800620.180 7   3727723.685 7   2904132.61148  21800611.30948
  20618478.094 7  -1396770.751 7  -1067158.18149  20618466.41049
  23851880.867 6    784380.661 6    616216.10946  23851875.39546
 11  3 31 17  9 15.0000000  0 10G03G06G09G14G15G18G19G21G22G27      
  22119575.625 6   1174352.832 6    934465.68747  22119567.63347
  22229843.406 6   1577292.208 6   1237843.21648  22229836.00048
  22657730.000 6  -2678773.443 6  -2071814.76047  22657723.35547
  21285420.227 7  -5214639.893 7  -4024297.26348  21285410.88748
  24453248.508 6   6323509.115 6   4913707.26047  24453242.97747
  21002814.398 7   1499651.450 7   1175650.43148  21002804.47348
  22918685.945 6  -3603577.173 6  -2777794.60847  22918675.60947
  21807399.813 7   3763350.608 7   2931893.80348  21807391.11748
  20617130.367 7  -1403851.361 7  -1072675.54449  20617118.80149
  23854567.930 6    798495.338 6    627214.55546  23854561.98846
 11  3 31 17  9 30.0000000  0 10G03G06G09G14G15G18G19G21G22G27      
  22123042.891 6   1192574.235 6    948664.15847  22123034.78147
  22233733.250 6   1597733.013 6   1253771.09348  22233725.49248
  22655430.734 6  -2690856.855 6  -2081230.41047  22655423.85547
  21278841.023 7  -5249212.188 7  -4051236.69948  21278832.56348
  24463158.289 6   6375582.741 6   4954284.02747  24463152.64147
  21005686.203 7   1514741.289 7   1187408.73548  21005676.16048
  22914823.813 6  -3623871.574 6  -2793608.41747  22914813.53547
  21814196.859 6   3799069.419 6   2959726.60448  21814187.75448
  20615794.813 7  -1410872.269 7  -1078146.38349  20615782.77749
  23857277.211 5    812734.186 5    638309.75847  23857270.74247
 11  3 31 17  9 45.0000000  0 10G03G06G09G14G15G18G19G21G22G27      
  22126534.977 6   1210925.515 6    962963.82847  22126527.10247
  22237645.133 6   1618290.574 6   1269789.94048  22237637.37548
  22653160.328 6  -2702786.167 6  -2090525.97047  22653153.68447
  21272282.734 7  -5283678.070 7  -4078093.22148  21272273.68848
  24473071.922 5   6427681.339 5   4994880.24647  24473066.27347
  21008566.664 7   1529880.131 7   1199205.21648  21008557.14848
  22910987.063 6  -3644034.467 6  -2809319.77347  22910976.25847
  21821011.453 7   3834880.546 7   2987631.33548  21821002.81648
  20614470.125 7  -1417832.944 7  -1083570.28949  20614458.32449
  23860010.609 6    827097.567 6    649501.99346  23860004.43446
 11  3 31 17 10  0.0000000  0 10G03G06G09G14G15G18G19G21G22G27      
  22130051.969 6   1229406.722 6    977364.75147  22130044.44547
  22241579.375 6   1638964.950 6   1285899.81748  22241571.73448
  22650919.836 6  -2714560.861 6  -2099701.04547  22650913.30947
  21265744.719 7  -5318036.998 7  -4104866.39248  21265735.37948
  24482990.852 6   6479804.950 6   5035495.95847  24482985.55547
  21011457.086 7   1545068.350 7   1211040.18148  21011447.10248
  22907175.336 6  -3664065.184 6  -2824928.12547  22907164.70747
  21827843.852 6   3870784.175 6   3015608.14048  21827834.86348
  20613156.969 7  -1424733.137 7  -1088947.06549  20613145.40249
  23862767.914 6    841585.817 6    660791.52747  23862761.62147
 11  3 31 17 10 15.0000000  0 10G03G06G09G14G15G18G19G21G22G27      
  22133593.500 7   1248016.768 7    991866.06347  22133585.50847
  22245535.906 6   1659755.016 6   1302099.83748  22245527.97348
  22648708.867 6  -2726181.508 6  -2108756.08847  22648701.93047
  21259226.516 7  -5352289.758 7  -4131556.84248  21259217.35248
  24492914.047 5   6531952.553 5   5076130.37146  24492909.04346
  21014356.164 7   1560304.975 7   1222912.85848  21014346.64848
  22903389.109 6  -3683964.476 6  -2840434.07047  22903378.18847
  21834693.992 6   3906779.396 6   3043656.32248  21834684.59448
  20611855.305 7  -1431573.667 7  -1094277.35249  20611843.50449
  23865548.977 6    856197.965 6    672177.61547  23865542.09847
 11  3 31 17 10 30.0000000  0 10G03G06G09G14G15G18G19G21G22G27      
  22137159.414 6   1266755.948 6   1006468.00247  22137151.42247
  22249513.883 6   1680661.218 6   1318390.35948  22249506.30148
  22646527.125 6  -2737647.308 6  -2117690.48447  22646520.12947
  21252728.391 7  -5386435.721 7  -4158164.07548  21252719.75448
  24502841.914 5   6584124.332 5   5116783.61947  24502837.20347
  21017265.125 7   1575590.545 7   1234823.67548  21017255.90248
  22899627.461 6  -3703731.623 6  -2855837.05147  22899616.94947
  21841560.805 7   3942866.723 7   3071776.27548  21841552.22748
  20610564.867 7  -1438354.071 7  -1099560.78049  20610553.65249
  23868352.328 6    870934.476 6    683660.62646  23868346.21146
 11  3 31 17 10 45.0000000  0 10G03G06G09G14G15G18G19G21G22G27      
  22140749.445 6   1285623.717 6   1021170.13847  22140741.10247
  22253514.086 6   1701682.871 6   1334770.83948  22253506.68048
  22644373.719 6  -2748958.432 6  -2126504.34047  22644367.19147
  21246251.078 7  -5420474.898 7  -4184688.09248  21246242.03148
  24512773.969 5   6636319.709 5   5157455.25047  24512769.66847
  21020183.320 7   1590924.577 7   1246772.25848  21020173.45348
  22895891.109 6  -3723366.855 6  -2871137.23447  22895880.42247
  21848445.422 7   3979045.555 7   3099967.52248  21848436.60948
  20609286.094 7  -1445074.752 7  -1104797.68049  20609274.52749
  23871180.797 5    885794.893 5    695240.17046  23871173.91846
 11  3 31 17 11  0.0000000  0 10G03G06G09G14G15G18G19G21G22G27      
  22144364.883 6   1304620.026 6   1035972.43947  22144356.94947
  22257536.805 6   1722819.832 6   1351241.15748  22257528.75448
  22642251.203 6  -2760114.746 6  -2135197.57747  22642244.50047
  21239793.891 7  -5454406.895 7  -4211128.59648  21239785.02048
  24522711.055 5   6688538.439 5   5198145.07146  24522706.52046
  21023110.227 7   1606307.063 7   1258758.59448  21023100.65248
  22892179.625 6  -3742869.970 6  -2886334.46347  22892168.99647
  21855347.406 7   4015315.903 7   3128230.09648  21855338.77048
  20608018.406 7  -1451735.728 7  -1109988.05949  20608006.60549
  23874031.711 5    900779.128 5    706916.19646  23874025.88746
 11  3 31 17 11 15.0000000  0 10G03G06G09G14G15G18G19G21G22G27      
  22148004.125 6   1323745.116 6   1050875.07747  22147995.89847
  22261581.266 6   1744072.184 6   1367801.41048  22261573.50848
  22640157.953 6  -2771115.698 6  -2143769.74747  22640151.60247
  21233357.383 7  -5488231.213 7  -4237485.19248  21233348.51248
  24532652.688 5   6740780.403 5   5238852.99946  24532647.74246
  21026046.844 7   1621738.323 7   1270782.93848  21026037.21148
  22888493.484 6  -3762240.421 6  -2901428.32747  22888483.14847
  21862266.750 7   4051677.977 7   3156564.13148  21862257.64548
  20606762.453 7  -1458336.526 7  -1115131.54549  20606750.71149
  23876906.750 5    915887.566 5    718689.01247  23876900.51647
 11  3 31 17 11 30.0000000  0 10G03G06G09G14G15G18G19G21G22G27      
  22151668.063 6   1342998.248 6   1065877.49547  22151659.89547
  22265646.977 7   1765439.383 7   1384451.14548  22265638.69148
  22638093.969 6  -2781961.451 6  -2152220.98947  22638087.14847
  21226941.055 7  -5521948.292 7  -4263758.23548  21226932.47748
  24542598.320 5   6793045.109 5   5279578.63346  24542593.78546
  21028992.750 7   1637218.156 7   1282845.12648  21028982.88348
  22884832.742 6  -3781478.388 6  -2916418.95447  22884822.11347
  21869204.063 7   4088131.390 7   3184969.34948  21869194.84048
  20605517.711 7  -1464877.487 7  -1120228.40049  20605505.61749
  23879805.672 5    931119.741 5    730558.23647  23879798.91047
 11  3 31 17 11 45.0000000  0 10G03G06G09G14G15G18G19G21G22G27      
  22155355.406 6   1362378.989 6   1080979.34747  22155347.70747
  22269734.836 6   1786921.085 6   1401190.10348  22269727.19548
  22636059.563 6  -2792651.963 6  -2160551.24547  22636052.68447
  21220545.602 7  -5555557.848 7  -4289947.48048  21220536.67248
  24552548.219 5   6845332.181 5   5320321.70447  24552544.03547
  21031947.383 7   1652746.233 7   1294944.91648  21031937.63348
  22881197.219 6  -3800583.824 6  -2931306.30347  22881186.59047
  21876158.297 7   4124675.966 7   3213445.59148  21876149.71948
  20604284.703 7  -1471358.773 7  -1125278.75649  20604272.55149
  23882728.148 5    946475.401 5    742523.69747  23882720.97747
 11  3 31 17 12  0.0000000  0 10G03G06G09G14G15G18G19G21G22G27      
  22159068.141 6   1381887.273 6   1096180.58247  22159060.26647
  22273844.711 6   1808517.524 6   1418018.46848  22273836.54348
  22634055.445 6  -2803186.637 6  -2168760.07047  22634048.03947
  21214170.406 7  -5589059.468 7  -4316052.62848  21214161.47748
  24562503.156 5   6897641.771 5   5361082.32346  24562497.80146
  21034911.734 7   1668322.862 7   1307082.53448  21034902.21948
  22877586.758 6  -3819556.256 6  -2946090.01847  22877576.24647
  21883129.883 7   4161311.888 7   3241993.01948  21883120.89548
  20603062.273 7  -1477780.102 7  -1130282.39449  20603050.76649
  23885673.008 5    961954.872 5    754585.60347  23885666.48047
 11  3 31 17 12 15.0000000  0 10G03G06G09G14G15G18G19G21G22G27      
  22162804.695 6   1401522.929 6   1111481.06247  22162796.82047
  22277976.359 7   1830228.125 7   1434935.79248  22277968.13348
  22632080.383 6  -2813565.467 6  -2176847.47547  22632073.27047
  21207815.719 7  -5622453.248 7  -4342073.73948  21207806.96548
  24572461.063 5   6949973.412 5   5401860.11946  24572456.52746
  21037884.945 6   1683947.988 6   1319257.94748  21037875.07848
  22874002.016 6  -3838395.765 6  -2960770.15847  22873990.74247
  21890118.672 7   4198038.890 7   3270611.42148  21890110.03548
  20601852.188 7  -1484141.645 7  -1135239.44549  20601840.27049
  23888643.000 5    977557.883 5    766743.78747  23888636.06347
 11  3 31 17 12 30.0000000  0 10G03G06G09G14G15G18G19G21G22G27      
  22166565.633 7   1421285.732 7   1126880.62348  22166557.52348
  22282128.977 7   1852052.604 7   1451941.84648  22282121.10248
  22630135.117 6  -2823788.251 6  -2184813.27947  22630128.12147
  21201481.289 7  -5655738.958 7  -4368010.64648  21201472.88748
  24582423.914 4   7002326.796 4   5442654.85746  24582418.55946
  21040867.609 7   1699621.437 7   1331471.00248  21040857.91848
  22870442.016 6  -3857102.089 6  -2975346.51247  22870431.09447
  21897124.492 7   4234856.695 7   3299300.57848  21897116.09048
  20600652.656 7  -1490443.474 7  -1140149.97549  20600641.20749
  23891634.906 5    993284.237 5    778998.10146  23891628.32046
 11  3 31 17 12 45.0000000  0 10G03G06G09G14G15G18G19G21G22G27      
  22170350.203 6   1441175.264 6   1142378.93147  22170342.27047
  22286303.328 7   1873990.893 7   1469036.59648  22286295.74648
  22628218.969 6  -2833854.817 6  -2192657.34447  22628212.20747
  21195168.086 7  -5688916.342 7  -4393863.13648  21195159.44948
  24592390.719 3   7054701.752 3   5483466.40746  24592385.30546
  21043859.195 7   1715343.182 7   1343721.69648  21043849.50448
  22866907.516 6  -3875675.210 6  -2989819.08547  22866897.18047
  21904148.336 7   4271765.365 7   3328060.53648  21904140.16848
  20599464.844 7  -1496685.598 7  -1145013.96649  20599453.39549
  23894650.656 5   1009133.921 5    791348.49746  23894644.48046
 11  3 31 17 13  0.0000000  0 10G03G06G09G14G15G18G19G21G22G27      
  22174159.516 6   1461191.519 6   1157975.99147  22174151.11347
  22290500.367 7   1896042.929 7   1486219.96948  22290492.25848
  22626333.438 6  -2843764.646 6  -2200379.27947  22626326.55947
  21188875.398 7  -5721985.080 7  -4419630.97448  21188866.46948
  24602361.766 4   7107098.099 4   5524294.62446  24602356.58646
  21046860.250 7   1731113.686 7   1356010.38248  21046850.50048
  22863398.469 6  -3894114.554 6  -3004187.40547  22863387.72347
  21911189.523 7   4308765.052 7   3356891.42248  21911180.47748
  20598288.414 7  -1502867.627 7  -1149831.13849  20598276.90649
  23897690.734 5   1025107.226 5    803795.21947  23897684.14847
 11  3 31 17 13 15.0000000  0 10G03G06G09G14G15G18G19G21G22G27      
  22177992.406 6   1481333.925 6   1173671.35247  22177984.59047
  22294718.125 6   1918208.109 6   1503491.49948  22294710.48448
  22624477.578 6  -2853517.854 6  -2207979.19347  22624470.46547
  21182603.258 7  -5754945.347 7  -4445314.28448  21182594.38748
  24612335.914 4   7159515.215 4   5565139.03446  24612331.08646
  21049870.352 7   1746932.329 7   1368336.58948  21049861.07048
  22859915.406 6  -3912420.403 6  -3018451.70647  22859904.48447
  21918247.313 7   4345855.207 7   3385792.80147  21918238.61747
  20597123.250 7  -1508990.036 7  -1154601.85249  20597111.80149
  23900753.969 5   1041203.683 5    816337.90746  23900747.67646
 11  3 31 17 13 30.0000000  0 10G03G06G09G14G15G18G19G21G22G27      
  22181849.086 6   1501602.506 6   1189465.02347  22181841.03547
  22298957.328 6   1940486.303 6   1520851.10448  22298949.39548
  22622651.086 6  -2863114.180 6  -2215456.84147  22622644.03147
  21176352.156 7  -5787796.681 7  -4470912.72348  21176343.16848
  24622315.148 4   7211953.006 4   5605999.55846  24622310.02746
  21052889.672 7   1762799.319 7   1380700.46048  21052879.98048
  22856457.508 6  -3930592.585 6  -3032611.85347  22856446.23447
  21925322.648 6   4383035.927 6   3414764.73448  21925314.07048
  20595969.641 7  -1515052.781 7  -1159326.07449  20595957.89849
  23903840.227 5   1057423.248 5    828976.51646  23903833.99246
 11  3 31 17 13 45.0000000  0 10G03G06G09G14G15G18G19G21G22G27      
  22185729.891 6   1521996.993 6   1205356.81247  22185722.48447
  22303218.461 6   1962877.441 6   1538298.71847  22303210.46947
  22620854.898 6  -2872553.355 6  -2222812.02747  22620848.13747
  21170121.289 7  -5820538.954 7  -4496426.16148  21170112.59448
  24632297.117 4   7264411.383 4   5646876.11846  24632293.05146
  21055918.492 7   1778714.586 7   1393101.94648  21055908.68448
  22853023.984 6  -3948630.920 6  -3046667.70347  22853013.59047
  21932415.242 7   4420307.236 7   3443807.27148  21932406.60548
  20594827.727 7  -1521055.773 7  -1164003.73549  20594815.69149
  23906950.508 6   1073765.902 6    841711.04246  23906943.86346
 11  3 31 17 14  0.0000000  0 10G03G06G09G14G15G18G19G21G22G27      
  22189635.102 6   1542516.997 6   1221346.39647  22189627.22747
  22307500.781 7   1985381.137 7   1555834.04148  22307493.02348
  22619088.867 6  -2881835.435 6  -2230044.80947  22619081.87147
  21163911.781 7  -5853172.091 7  -4521854.57648  21163902.44148
  24642283.414 5   7316889.989 5   5687768.42346  24642278.99646
  21058956.328 7   1794677.859 7   1405540.84448  21058946.81348
  22849617.250 6  -3966535.206 6  -3060619.09747  22849606.97347
  21939524.688 7   4457668.699 7   3472920.06448  21939515.93448
  20593696.414 7  -1526999.079 7  -1168634.89449  20593684.43849
  23910083.227 6   1090231.383 6    854541.27647  23910076.58247
 11  3 31 17 14 15.0000000  0 10G03G06G09G14G15G18G19G21G22G27      
  22193563.664 6   1563161.882 6   1237433.29947  22193556.14147
  22311804.188 6   2007996.846 6   1573456.64048  22311796.31348
  22617352.219 6  -2890960.352 6  -2237155.13047  22617345.22347
  21157722.477 7  -5885696.258 7  -4547198.07148  21157713.48848
  24652274.000 4   7369388.015 4   5728675.88346  24652269.58246
  21062003.219 7   1810689.150 7   1418017.15648  21061993.35248
  22846235.734 6  -3984305.455 6  -3074466.04747  22846224.93047
  21946651.703 7   4495120.076 7   3502102.90748  21946642.53948
  20592577.055 7  -1532882.863 7  -1173219.66749  20592564.96149
  23913239.992 6   1106819.463 6    867467.03347  23913233.58247
 11  3 31 17 14 30.0000000  0 10G03G06G09G14G15G18G19G21G22G27      
  22197515.992 7   1583932.172 7   1253617.90547  22197508.35247
  22316129.242 6   2030724.937 6   1591166.80648  22316121.66048
  22615645.797 6  -2899927.396 6  -2244142.42547  22615638.91847
  21151554.109 7  -5918110.617 7  -4572456.00348  21151545.23848
  24662268.117 4   7421906.036 4   5769598.91446  24662262.93846
  21065059.461 7   1826748.956 7   1430531.28048  21065049.47748
  22842880.281 6  -4001941.048 6  -3088208.06747  22842869.30147
  21953795.836 7   4532661.849 7   3531356.17648  21953787.08248
  20591468.344 7  -1538706.547 7  -1177757.60849  20591456.66049
  23916419.820 6   1123530.589 6    880488.67746  23916414.05546
 11  3 31 17 14 45.0000000  0 10G03G06G09G14G15G18G19G21G22G27      
  22201492.102 6   1604827.158 6   1269899.69447  22201484.46147
  22320475.813 6   2053564.654 6   1608963.96348  22320468.23048
  22613969.820 6  -2908736.821 6  -2251006.88947  22613962.29747
  21145406.680 7  -5950415.591 7  -4597628.69848  21145397.39848
  24672264.914 3   7474443.074 3   5810536.74846  24672261.02346
  21068124.516 7   1842856.650 7   1443082.71148  21068114.76648
  22839549.305 6  -4019442.379 6  -3101845.46747  22839538.50047
  21960956.703 7   4570293.358 7   3560679.39247  21960948.12547
  20590371.609 7  -1544470.831 7  -1182249.26548  20590360.27748
  23919623.938 6   1140364.103 6    893605.68247  23919617.00047
 11  3 31 17 15  0.0000000  0 10G03G06G09G14G15G18G19G21G22G27      
  22205492.938 6   1625846.406 6   1286278.30147  22205484.24247
  22324842.969 6   2076515.898 6   1626848.01648  22324835.09448
  22612323.148 6  -2917388.332 6  -2257748.31947  22612316.03547
  21139279.805 7  -5982610.839 7  -4622715.89548  21139271.16848
  24682266.727 3   7526999.234 3   5851489.50746  24682261.78146
  21071198.859 7   1859012.297 7   1455671.50948  21071189.05148
  22836244.398 6  -4036809.237 6  -3115378.09247  22836234.12147
  21968134.945 7   4608014.621 7   3590072.53747  21968125.89847
  20589286.320 7  -1550175.700 7  -1186694.63049  20589274.34449
  23922849.906 6   1157319.976 6    906818.03047  23922843.90647
 11  3 31 17 15 15.0000000  0 10G03G06G09G14G15G18G19G21G22G27      
  22209515.797 6   1646990.031 6   1302753.82647  22209508.15647
  22329231.875 6   2099578.554 6   1644818.88248  22329224.05948
  22610706.766 6  -2925881.671 6  -2264366.49247  22610699.53547
  21133174.406 7  -6014696.083 7  -4647717.37348  21133165.24248
  24692271.664 4   7579574.305 4   5892457.00546  24692266.48446
  21074282.625 7   1875216.067 7   1468297.80348  21074272.52348
  22832965.180 6  -4054041.255 6  -3128805.64747  22832955.43047
  21975329.867 6   4645825.713 6   3619535.68248  21975321.34848
  20588212.258 7  -1555820.830 7  -1191093.43649  20588200.16449
  23926099.969 6   1174398.366 6    920125.85447  23926093.55947
 11  3 31 17 15 30.0000000  0 10G03G06G09G14G15G18G19G21G22G27      
  22213563.008 6   1668257.328 6   1319325.72247  22213554.43047
  22333641.672 6   2122751.753 6   1662875.88848  22333633.68048
  22609120.508 6  -2934217.392 6  -2270861.84247  22609113.51247
  21127089.750 7  -6046671.754 7  -4672633.46848  21127080.76248
  24702279.570 4   7632167.393 4   5933438.52946  24702275.09446
  21077374.844 7   1891467.326 7   1480961.10848  21077365.03548
  22829711.797 6  -4071139.010 6  -3142128.57347  22829701.22747
  21982542.406 7   4683725.759 7   3649068.13447  21982533.65247
  20587148.984 7  -1561407.049 7  -1195446.33749  20587137.41849
  23929373.391 6   1191598.557 6    933528.59147  23929367.15647
 11  3 31 17 15 45.0000000  0 10G03G06G09G14G15G18G19G21G22G27      
  22217633.547 6   1689648.401 6   1335994.07447  22217625.73047
  22338072.484 6   2146035.691 6   1681019.18748  22338064.60948
  22607564.281 6  -2942394.789 6  -2277233.82447  22607557.46147
  21121025.695 7  -6078537.173 7  -4697463.65848  21121016.76648
  24712291.844 3   7684778.649 3   5974434.22546  24712286.37146
  21080476.328 7   1907766.484 7   1493661.72948  21080466.28548
  22826484.188 6  -4088101.831 6  -3155346.36347  22826473.50047
  21989771.430 6   4721715.242 6   3678670.27847  21989762.61747
  20586097.250 7  -1566933.744 7  -1199752.86349  20586085.33249
  23932669.531 6   1208920.916 6    947026.51647  23932663.06347
 11  3 31 17 16  0.0000000  0 10G03G06G09G14G15G18G19G21G22G27      
  22221727.711 6   1711163.221 6   1352758.84147  22221719.66047
  22342523.969 6   2169430.518 6   1699248.88848  22342516.50448
  22606038.852 6  -2950413.276 6  -2283481.99447  22606031.44547
  21114983.133 7  -6110291.826 7  -4722207.53848  21114974.32048
  24722306.359 4   7737408.159 4   6015444.16046  24722301.70746
  21083587.328 7   1924113.899 7   1506399.96148  21083577.46148
  22823281.688 6  -4104929.165 6  -3168458.58947  22823271.29347
  21997017.586 6   4759794.475 6   3708342.36047  21997009.06647
  20585056.836 7  -1572400.467 7  -1204012.65349  20585045.21149
  23935989.500 6   1226365.704 6    960619.83646  23935982.56346
 11  3 31 17 16 15.0000000  0 10G03G06G09G14G15G18G19G21G22G27      
  22225844.891 6   1732800.822 6   1369619.28647  22225837.01647
  22346997.109 6   2192935.397 6   1717564.34648  22346989.46948
  22604542.289 6  -2958273.345 6  -2289606.71247  22604535.93847
  21108961.352 7  -6141936.248 7  -4746865.51748  21108952.65648
  24732325.313 5   7790055.076 5   6056467.64546  24732320.01646
  21086707.008 7   1940508.834 7   1519175.21548  21086697.49248
  22820105.656 6  -4121621.577 6  -3181465.66147  22820094.61747
  22004280.977 6   4797962.584 6   3738083.69547  22004272.45747
  20584027.922 7  -1577808.009 7  -1208226.34049  20584016.18049
  23939331.711 6   1243932.118 6    974307.93647  23939325.41847
 11  3 31 17 16 30.0000000  0 10G03G06G09G14G15G18G19G21G22G27      
  22229985.844 6   1754561.556 6   1386575.67247  22229978.14547
  22351490.727 6   2216550.416 6   1735965.62847  22351483.37947
  22603077.242 6  -2965974.383 6  -2295607.50947  22603070.77347
  21102960.422 7  -6173469.900 7  -4771437.17748  21102951.66848
  24742346.852 5   7842719.462 5   6097504.73546  24742341.96546
  21089835.797 7   1956951.711 7   1531987.83148  21089825.81348
  22816954.648 6  -4138178.527 6  -3194367.18747  22816944.43047
  22011560.961 6   4836219.868 6   3767894.52547  22011552.32447
  20583010.234 7  -1583155.903 7  -1212393.53149  20582998.25849
  23942697.945 6   1261620.582 6    988091.14046  23942691.65246
 11  3 31 17 16 45.0000000  0 10G03G06G09G14G15G18G19G21G22G27      
  22234150.414 6   1776444.900 6   1403627.61147  22234142.71547
  22356005.625 6   2240275.222 6   1754452.45548  22355998.04348
  22601642.648 6  -2973516.522 6  -2301484.49147  22601635.06647
  21096981.422 7  -6204892.876 7  -4795922.60448  21096972.14148
  24752371.070 5   7895401.001 5   6138555.21446  24752367.23846
  21092974.398 7   1973442.347 7   1544837.65448  21092964.53148
  22813829.602 6  -4154600.067 6  -3207163.19547  22813819.14847
  22018857.727 6   4874566.009 6   3797774.57647  22018849.03147
  20582004.125 7  -1588444.354 7  -1216514.40649  20581992.03149
  23946086.859 6   1279430.664 6   1001969.10147  23946080.80147
 11  3 31 17 17  0.0000000  0 10G03G06G09G14G15G18G19G21G22G27      
  22238337.883 6   1798450.301 6   1420774.63947  22238329.65647
  22360541.297 6   2264109.397 6   1773024.50848  22360533.48048
  22600237.484 6  -2980899.548 6  -2307237.48947  22600230.31347
  21091022.516 7  -6236204.938 7  -4820321.60548  21091013.64548
  24762399.328 5   7948099.435 5   6179618.85446  24762395.02746
  21096121.508 7   1989980.608 7   1557724.58948  21096111.69948
  22810730.828 6  -4170886.194 6  -3219853.69147  22810720.37547
  22026171.984 6   4913000.844 6   3827723.75647  22026163.46547
  20581008.859 7  -1593673.482 7  -1220589.06349  20580997.05949
  23949499.203 6   1297362.226 6   1015941.71446  23949493.26246
 11  3 31 17 17 15.0000000  0 10G03G06G09G14G15G18G19G21G22G27      
  22242548.711 6   1820577.886 6   1438016.89147  22242540.36747
  22365097.758 6   2288052.920 6   1791681.76548  22365090.00048
  22598863.063 6  -2988123.154 6  -2312866.26847  22598855.94947
  21085084.891 7  -6267405.689 7  -4844633.86348  21085076.37148
  24772431.250 5   8000814.629 5   6220695.52146  24772426.89146
  21099277.391 7   2006566.703 7   1570648.80648  21099267.81648
  22807657.891 6  -4187036.489 6  -3232438.33647  22807647.08647
  22033502.445 6   4951524.468 6   3857742.11247  22033494.39547
  20580025.055 7  -1598843.099 7  -1224617.34949  20580013.66449
  23952934.414 6   1315415.302 6   1030009.03047  23952928.76647
 11  3 31 17 17 30.0000000  0 10G03G06G09G14G15G18G19G21G22G27      
  22246782.922 6   1842827.230 6   1455354.01847  22246774.75447
  22369674.539 6   2312105.288 6   1810423.83848  22369666.89848
  22597518.047 6  -2995187.403 6  -2318370.86347  22597511.34447
  21079169.008 7  -6298495.297 7  -4868859.52448  21079159.96148
  24782465.297 5   8053546.013 5   6261784.84246  24782461.05546
  21102442.891 7   2023200.352 7   1583610.06748  21102433.08248
  22804610.156 6  -4203051.001 6  -3244917.18747  22804599.52747
  22040850.430 6   4990136.574 6   3887829.41447  22040842.32047
  20579052.680 7  -1603953.455 7  -1228599.44249  20579040.58649
  23956393.406 6   1333589.627 6   1044170.80746  23956386.70346
 11  3 31 17 17 45.0000000  0 10G03G06G09G14G15G18G19G21G22G27      
  22251039.672 6   1865198.025 6   1472785.78047  22251031.91447
  22374272.016 6   2336266.259 6   1829250.53147  22374264.60947
  22596204.805 6  -3002092.048 6  -2323751.10447  22596197.45747
  21073274.211 7  -6329473.505 7  -4892998.37748  21073265.28148
  24792503.078 5   8106293.404 5   6302886.62646  24792498.25046
  21105617.430 7   2039881.670 7   1596608.48348  21105607.32848
  22801588.445 6  -4218929.645 6  -3257290.15747  22801577.81647
  22048214.805 6   5028836.928 6   3917985.49247  22048206.34447
  20578091.461 7  -1609004.505 7  -1232535.33049  20578079.60249
  23959874.055 6   1351885.141 6   1058427.02947  23959868.40647
 11  3 31 17 18  0.0000000  0 10G03G06G09G14G15G18G19G21G22G27      
  22255320.047 6   1887690.445 6   1490312.29747  22255312.23047
  22378890.656 6   2360536.098 6   1848162.06947  22378883.25047
  22594921.391 6  -3008836.568 6  -2329006.57547  22594914.16047
  21067400.453 7  -6360339.821 7  -4917050.03448  21067391.40648
  24802543.422 5   8159056.928 5   6344000.98146  24802539.70746
  21108800.813 7   2056610.912 7   1609644.23648  21108790.94548
  22798592.641 6  -4234671.905 6  -3269556.86047  22798582.24647
  22055596.539 6   5067625.825 6   3948210.56347  22055587.78547
  20577141.563 7  -1613995.816 7  -1236424.67349  20577129.93849
  23963379.180 6   1370302.104 6   1072777.88047  23963373.23847
 11  3 31 17 18 15.0000000  0 10G03G06G09G14G15G18G19G21G22G27      
  22259623.070 6   1910303.465 6   1507932.80947  22259615.25447
  22383529.484 6   2384913.963 6   1867157.77047  22383522.02047
  22593667.234 6  -3015421.383 6  -2334137.59847  22593660.88347
  21061547.977 6  -6391094.765 6  -4941014.92248  21061538.75448
  24812586.859 5   8211835.876 5   6385127.36346  24812583.02746
  21111993.227 7   2073387.514 7   1622716.88648  21111983.59448
  22795623.242 6  -4250278.163 6  -3281717.59247  22795612.32047
  22062994.648 6   5106502.642 6   3978504.13747  22062985.77747
  20576203.148 7  -1618927.875 7  -1240267.84248  20576191.52348
  23966906.078 6   1388839.886 6   1087222.88246  23966900.60546
 11  3 31 17 18 30.0000000  0 10G03G06G09G14G15G18G19G21G22G27      
  22263949.320 6   1933037.417 6   1525647.55547  22263941.32847
  22388189.211 6   2409399.790 6   1886237.60347  22388181.68847
  22592445.359 6  -3021846.005 6  -2339143.79747  22592438.59847
  21055716.609 7  -6421737.804 7  -4964892.60848  21055707.27048
  24822633.852 5   8264630.287 5   6426265.80446  24822629.43446
  21115194.617 7   2090211.768 7   1635826.68248  21115184.98448
  22792679.148 6  -4265748.107 6  -3293772.10147  22792668.98847
  22070409.000 6   5145467.669 6   4008866.44547  22070400.83247
  20575275.742 7  -1623800.553 7  -1244064.74149  20575264.05949
  23970457.391 6   1407498.642 6   1101762.14247  23970451.15647
 11  3 31 17 18 45.0000000  0 10G03G06G09G14G15G18G19G21G22G27      
  22268298.180 6   1955891.412 6   1543455.82747  22268290.24647
  22392868.906 6   2433993.036 6   1905401.13947  22392861.67647
  22591253.336 6  -3028110.759 6  -2344025.41947  22591246.34047
  21049906.570 7  -6452269.256 7  -4988683.33748  21049897.64148
  24832683.039 5   8317439.422 5   6467415.71646  24832678.73846
  21118405.164 7   2107083.241 7   1648973.27248  21118395.76648
  22789761.031 6  -4281082.034 6  -3305720.62347  22789750.98847
  22077840.672 6   5184520.282 6   4039297.00247  22077832.44547
  20574360.078 7  -1628614.280 7  -1247815.70049  20574348.39549
  23974031.305 6   1426277.833 6   1116395.23346  23974025.12946
 11  3 31 17 19  0.0000000  0 10G03G06G09G14G15G18G19G21G22G27      
  22272670.313 6   1978865.626 6   1561357.78247  22272662.20347
  22397569.594 6   2458693.759 6   1924648.41547  22397561.89547
  22590092.063 6  -3034215.181 6  -2348782.12147  22590084.65647
  21044118.211 7  -6482688.510 7  -5012386.64248  21044108.81348
  24842735.063 5   8370263.342 5   6508577.14446  24842730.87946
  21121624.961 7   2124002.296 7   1662156.93748  21121615.21148
  22786868.977 6  -4296279.392 6  -3317562.72947  22786858.87547
  22085288.727 6   5223660.727 6   4069795.99947  22085280.38347
  20573455.328 7  -1633368.671 7  -1251520.43349  20573443.05949
  23977628.188 6   1445177.723 6   1131122.39346  23977621.66046
 11  3 31 17 19 15.0000000  0 10G03G06G09G14G15G18G19G21G22G27      
  22277064.313 6   2001959.438 6   1579352.92747  22277056.61347
  22402290.281 6   2483501.232 6   1943978.88747  22402282.64147
  22588960.695 6  -3040159.541 6  -2353414.08947  22588953.23047
  21038350.992 7  -6512995.794 7  -5036002.69348  21038341.88748
  24852790.188 5   8423101.369 5   6549749.55546  24852785.53546
  21124853.477 7   2140968.383 7   1675377.24548  21124843.66848
  22784002.992 6  -4311340.530 6  -3329298.69447  22783992.48047
  22092753.367 6   5262888.438 6   4100363.00447  22092745.25847
  20572561.695 7  -1638064.121 7  -1255179.22949  20572549.89549
  23981247.758 6   1464197.761 6   1145943.16246  23981241.05546
 11  3 31 17 19 30.0000000  0 10G03G06G09G14G15G18G19G21G22G27      
  22281481.906 6   2025173.169 6   1597441.52047  22281473.97347
  22407031.281 6   2508416.022 6   1963392.97347  22407023.87547
  22587860.273 6  -3045942.825 6  -2357920.55547  22587852.51647
  21032605.305 7  -6543190.186 7  -5059530.79048  21032595.90648
  24862847.539 6   8475954.201 6   6590933.50446  24862843.53146
  21128091.078 7   2157982.393 7   1688634.90348  21128081.27048
  22781163.508 6  -4326264.324 6  -3340927.63047  22781152.82047
  22100235.188 6   5302204.076 6   4130998.52647  22100227.13747
  20571679.578 7  -1642699.765 7  -1258791.42149  20571668.01249
  23984889.391 6   1483338.636 6   1160858.08546  23984883.21546
 11  3 31 17 19 45.0000000  0 10G03G06G09G14G15G18G19G21G22G27      
  22285921.500 6   2048505.680 6   1615622.66447  22285914.32847
  22411793.156 6   2533437.050 6   1982889.84647  22411785.34047
  22586789.938 6  -3051565.907 6  -2362302.18047  22586782.70747
  21026880.328 7  -6573272.568 7  -5082971.59248  21026871.22348
  24872907.648 5   8528820.494 5   6632127.97346  24872903.75846
  21131337.570 7   2175043.353 7   1701929.13348  21131327.93848
  22778349.633 6  -4341051.747 6  -3352450.30047  22778338.47747
  22107733.430 6   5341606.589 6   4161701.72147  22107725.08647
  20570808.359 7  -1647276.678 7  -1262357.85149  20570796.44149
  23988554.648 6   1502599.293 6   1175866.34946  23988548.47346
 11  3 31 17 20  0.0000000  0 10G03G06G09G14G15G18G19G21G22G27      
  22290385.102 6   2071957.788 6   1633897.00747  22290377.46147
  22416574.234 6   2558564.870 6   2002469.93247  22416566.82847
  22585750.516 6  -3057027.612 6  -2366558.06147  22585743.69547
  21021177.906 7  -6603241.649 7  -5106324.11448  21021168.91848
  24882970.805 5   8581701.022 5   6673333.49246  24882966.73846
  21134593.313 7   2192152.264 7   1715260.74448  21134583.73848
  22775561.195 6  -4355701.812 6  -3363865.94747  22775551.09447
  22115248.141 6   5381096.898 6   4192473.34547  22115239.85547
  20569949.016 7  -1651793.850 7  -1265877.73049  20569937.39149
  23992243.164 6   1521980.686 6   1190968.69746  23992236.63746
 11  3 31 17 20 15.0000000  0 10G03G06G09G14G15G18G19G21G22G27      
  22294869.602 6   2095528.251 6   1652263.56847  22294862.66447
  22421376.344 6   2583798.420 6   2022132.41347  22421368.93847
  22584741.813 6  -3062328.743 6  -2370688.80947  22584734.58247
  21015496.117 7  -6633098.270 7  -5129589.00848  21015487.01248
  24893036.336 6   8634594.622 6   6714549.21946  24893032.15246
  21137857.766 7   2209308.190 7   1728628.97748  21137848.42648
  22772800.742 6  -4370215.175 6  -3375175.06447  22772789.76247
  22122779.586 6   5420673.881 6   4223312.50347  22122771.00847
  20569100.547 7  -1656252.218 7  -1269351.78649  20569088.98049
  23995953.922 6   1541481.625 6   1206164.19046  23995947.62946
 11  3 31 17 20 30.0000000  0 10G03G06G09G14G15G18G19G21G22G27      
  22299377.828 6   2119217.070 6   1670722.35647  22299370.12947
  22426197.680 6   2609137.670 6   2041877.24147  22426190.62547
  22583764.094 6  -3067468.833 6  -2374694.08447  22583756.68847
  21009836.414 7  -6662842.144 7  -5152766.03948  21009827.25048
  24903104.242 5   8687501.356 5   6755775.18046  24903100.52746
  21141131.859 7   2226511.340 7   1742034.01248  21141122.22748
  22770063.781 6  -4384591.405 6  -3386377.32847  22770053.15247
  22130327.117 6   5460337.695 6   4254219.32447  22130318.94947
  20568263.547 7  -1660651.455 7  -1272779.76949  20568252.15649
  23999688.008 6   1561102.384 6   1221453.03946  23999681.30546
 11  3 31 17 20 45.0000000  0 10G03G06G09G14G15G18G19G21G22G27      
  22303908.555 6   2143024.105 6   1689273.26347  22303900.44547
  22431040.281 6   2634582.522 6   2061704.37247  22431032.93447
  22582816.352 6  -3072447.604 6  -2378573.65147  22582809.53147
  21004197.063 7  -6692473.006 7  -5175855.00948  21004188.54348
  24913174.539 6   8740421.100 6   6797011.28746  24913170.18046
  21144414.391 7   2243761.854 7   1755475.94748  21144404.93448
  22767354.391 6  -4398830.304 6  -3397472.58247  22767343.99647
  22137891.477 6   5500088.241 6   4285193.72647  22137883.60247
  20567437.234 7  -1664991.391 7  -1276161.54449  20567425.55149
  24003444.852 6   1580843.017 6   1236835.33546  24003438.32446
 11  3 31 17 21  0.0000000  0 10G03G06G09G14G15G18G19G21G22G27      
  22308460.984 6   2166949.000 6   1707916.01447  22308453.40247
  22435902.125 6   2660132.617 6   2081613.49947  22435894.54347
  22581899.586 6  -3077264.980 6  -2382327.45047  22581893.00047
  20998580.391 7  -6721990.487 7  -5198855.63848  20998571.52048
  24923247.703 5   8793353.565 5   6838257.27746  24923242.87546
  21147706.031 7   2261059.573 7   1768954.67648  21147696.57448
  22764670.875 6  -4412931.768 6  -3408460.74947  22764660.65647
  22145472.406 6   5539925.468 6   4316235.67147  22145464.06347
  20566622.914 7  -1669272.228 7  -1279497.27149  20566611.05549
  24007223.523 6   1600703.244 6   1252310.78446  24007217.46546
 11  3 31 17 21 15.0000000  0 10G03G06G09G14G15G18G19G21G22G27      
  22313036.016 6   2190991.141 6   1726650.11247  22313028.66847
  22440784.211 6   2685787.433 6   2101604.23547  22440776.68847
  22581013.375 6  -3081921.052 6  -2385955.55447  22581006.61347
  20992984.805 7  -6751394.943 7  -5221768.19048  20992976.10948
  24933322.531 5   8846298.158 5   6879512.72746  24933318.58246
  21151006.648 7   2278404.185 7   1782469.93848  21150996.84048
  22762013.508 6  -4426896.022 6  -3419341.99647  22762003.23047
  22153069.625 6   5579848.982 6   4347344.86147  22153061.57447
  20565819.859 7  -1673494.187 7  -1282787.11249  20565807.94149
  24011025.406 6   1620682.713 6   1267879.16946  24011019.11346
 11  3 31 17 21 30.0000000  0 10G03G06G09G14G15G18G19G21G22G27      
  22317633.625 6   2215150.447 6   1745475.51947  22317625.75047
  22445686.430 6   2711546.849 6   2121676.45647  22445678.96547
  22580158.734 6  -3086415.643 6  -2389457.84547  22580151.38747
  20987410.930 7  -6780686.162 7  -5244592.51148  20987402.11748
  24943399.945 6   8899254.816 6   6920777.58446  24943395.82046
  21154316.398 7   2295795.967 7   1796021.96348  21154306.53148
  22759382.430 6  -4440722.708 6  -3430116.04347  22759372.21147
  22160683.180 6   5619858.816 6   4378521.30248  22160675.48048
  20565027.375 7  -1677657.136 7  -1286030.97649  20565015.86749
  24014849.867 6   1640781.398 6   1283540.44146  24014843.98446
 11  3 31 17 21 45.0000000  0 10G03G06G09G14G15G18G19G21G22G27      
  22322253.375 6   2239426.879 6   1764392.19047  22322245.67647
  22450607.680 6   2737410.790 6   2141830.15247  22450600.27347
  22579334.250 6  -3090748.286 6  -2392833.92247  22579326.84447
  20981858.703 7  -6809863.610 7  -5267328.17748  20981850.00848
  24953479.281 5   8952223.593 5   6962051.85546  24953475.68446
  21157634.883 7   2313235.068 7   1809610.85448  21157625.25048
  22756777.641 6  -4454411.701 6  -3440782.79447  22756767.42247
  22168313.656 6   5659955.393 6   4409765.34747  22168305.25447
  20564246.578 7  -1681760.673 7  -1289228.54849  20564234.71949
  24018697.672 6   1660999.424 6   1299294.71346  24018691.61346
 11  3 31 17 22  0.0000000  0 10G03G06G09G14G15G18G19G21G22G27      
  22326895.094 6   2263819.845 6   1783399.66447  22326887.33647
  22455549.234 6   2763378.675 6   2162064.83847  22455541.94547
  22578540.070 6  -3094919.287 6  -2396084.06447  22578533.25047
  20976327.852 7  -6838927.395 7  -5289975.27448  20976319.62548
  24963560.844 5   9005203.731 5   7003334.99546  24963556.89546
  21160962.289 7   2330721.042 7   1823236.27548  21160952.36348
  22754198.461 6  -4467963.266 6  -3451342.46947  22754188.47747
  22175959.781 6   5700137.640 6   4441076.13747  22175951.55547
  20563476.922 7  -1685805.348 7  -1292380.25149  20563465.12149
  24022567.805 6   1681336.254 6   1315141.52946  24022561.27746
 11  3 31 17 22 15.0000000  0 10G03G06G09G14G15G18G19G21G22G27      
  22331559.133 6   2288329.546 6   1802498.09947  22331551.84447
  22460510.586 6   2789450.634 6   2182380.61047  22460503.00447
  22577777.203 6  -3098928.065 6  -2399207.77747  22577770.03147
  20970819.258 7  -6867877.048 7  -5312533.43448  20970810.44548
  24973645.539 5   9058195.546 5   7044627.23646  24973640.94546
  21164298.789 7   2348254.325 7   1836898.55248  21164289.15648
  22751646.672 6  -4481376.714 6  -3461794.51648  22751635.69148
  22183622.766 6   5740406.004 6   4472454.02847  22183614.30547
  20562718.750 7  -1689790.738 7  -1295485.75449  20562706.77349
  24026460.281 6   1701792.286 6   1331081.24346  24026453.93046
 11  3 31 17 22 30.0000000  0 10G03G06G09G14G15G18G19G21G22G27      
  22336245.109 6   2312955.202 6   1821686.89547  22336238.17247
  22465492.023 6   2815626.091 6   2202777.03647  22465484.50047
  22577045.266 6  -3102774.857 6  -2402205.29347  22577038.44547
  20965331.859 7  -6896712.858 7  -5335002.88948  20965322.87148
  24983730.375 5   9111198.423 5   7085928.08946  24983727.07046
  21167644.531 7   2365834.611 7   1850597.45948  21167634.89848
  22749119.984 6  -4494652.214 6  -3472139.06947  22749109.76647
  22191302.156 6   5780759.997 6   4503898.66247  22191293.63747
  20561970.945 7  -1693717.195 7  -1298545.34249  20561959.67249
  24030375.711 6   1722366.958 6   1347113.41646  24030369.53546
 11  3 31 17 22 45.0000000  0 10G03G06G09G14G15G18G19G21G22G27      
  22340953.445 6   2337696.426 6   1840965.73147  22340945.74647
  22470492.609 6   2841904.910 6   2223254.00347  22470485.26247
  22576344.148 6  -3106459.483 6  -2405076.43347  22576336.80147
  20959866.398 7  -6925434.647 7  -5357383.50348  20959857.58648
  24993819.125 5   9164212.129 5   7127237.38946  24993815.46946
  21170998.633 7   2383461.879 7   1864332.97748  21170988.88348
  22746620.383 6  -4507789.752 6  -3482376.12447  22746609.57847
  22198997.352 6   5821199.564 6   4535409.96347  22198988.83247
  20561235.063 7  -1697584.553 7  -1301558.87349  20561223.61349
  24034313.063 6   1743060.218 6   1363238.00546  24034307.00446
 11  3 31 17 23  0.0000000  0 10G03G06G09G14G15G18G19G21G22G27      
  22345683.547 6   2362553.079 6   1860334.52547  22345675.78947
  22475513.039 6   2868286.696 6   2243811.20048  22475505.63348
  22575673.711 6  -3109981.785 6  -2407821.08747  22575666.65647
  20954422.164 7  -6954042.264 7  -5379675.14048  20954413.23448
  25003909.305 5   9217236.609 5   7168555.06846  25003905.82446
  21174361.992 7   2401136.037 7   1878105.02748  21174352.30148
  22744146.383 6  -4520789.095 6  -3492505.49147  22744136.10547
  22206709.234 6   5861724.601 6   4566987.86947  22206701.00847
  20560510.727 7  -1701392.922 7  -1304526.44249  20560498.75049
  24038273.836 6   1763871.937 6   1379454.87546  24038267.95346
 11  3 31 17 23 15.0000000  0 10G03G06G09G14G15G18G19G21G22G27      
  22350435.195 6   2387524.785 6   1879792.96347  22350427.61347
  22480552.734 6   2894771.083 6   2264448.35947  22480545.38747
  22575033.961 6  -3113341.875 6  -2410439.34447  22575027.14147
  20949000.359 7  -6982535.786 7  -5401877.87448  20948991.37148
  25014001.859 4   9270271.423 4   7209880.81046  25013997.73446
  21177734.211 7   2418857.030 7   1891913.57748  21177724.40248
  22741699.078 6  -4533650.397 6  -3502527.28848  22741688.50848
  22214437.492 6   5902334.799 6   4598632.12747  22214428.56347
  20559797.195 7  -1705142.520 7  -1307448.21148  20559785.27748
  24042256.914 6   1784801.890 6   1395763.89346  24042250.27046
 11  3 31 17 23 30.0000000  0 10G03G06G09G14G15G18G19G21G22G27      
  22355209.391 6   2412611.158 6   1899340.75147  22355201.75047
  22485612.289 6   2921357.515 6   2285165.01147  22485604.35547
  22574426.180 6  -3116539.830 6  -2412931.25947  22574418.94947
  20943599.734 7  -7010915.153 7  -5423991.66148  20943591.21548
  25024095.609 4   9323315.935 4   7251214.09846  25024091.95346
  21181115.203 7   2436624.588 7   1905758.41448  21181105.45348
  22739278.008 6  -4546373.856 6  -3512441.68847  22739267.20347
  22222181.203 6   5943029.828 6   4630342.49247  22222172.50847
  20559094.875 7  -1708833.502 7  -1310324.30249  20559083.07449
  24046262.484 6   1805849.586 6   1412164.64846  24046255.66446
 11  3 31 17 23 45.0000000  0 10G03G06G09G14G15G18G19G21G22G27      
  22360005.172 6   2437812.801 6   1918978.35647  22359997.47347
  22490690.789 6   2948046.682 6   2305961.73947  22490683.26647
  22573848.656 6  -3119574.572 6  -2415296.00147  22573841.36747
  20938222.008 7  -7039179.284 7  -5446015.65448  20938212.55148
  25034191.875 3   9376370.710 3   7292555.39046  25034188.33646
  21184505.625 7   2454439.663 7   1919640.26948  21184495.58248
  22736883.406 6  -4558958.452 6  -3522247.86948  22736872.77748
  22229941.555 6   5983810.601 6   4662119.67547  22229932.80147
  20558403.828 7  -1712464.901 7  -1313153.97749  20558392.02749
  24050290.281 6   1827015.991 6   1428657.90046  24050283.57846
 11  3 31 17 24  0.0000000  0 10G03G06G09G14G15G18G19G21G22G27      
  22364822.867 6   2463128.503 6   1938704.85547  22364814.93447
  22495788.945 6   2974837.553 6   2326837.70947  22495781.53947
  22573301.938 6  -3122446.780 6  -2417534.09947  22573294.94147
  20932864.578 7  -7067328.974 7  -5467950.47248  20932856.00048
  25044289.594 3   9429434.837 3   7333903.94446  25044286.17246
  21187904.359 7   2472301.441 7   1933558.52148  21187894.72748
  22734514.914 6  -4571404.805 6  -3531946.33647  22734503.87547
  22237717.688 6   6024676.042 6   4693962.81847  22237709.63747
  20557723.977 7  -1716037.518 7  -1315937.84449  20557711.94149
  24054339.805 6   1848300.084 6   1445242.87146  24054334.09846
 11  3 31 17 24 15.0000000  0 10G03G06G09G14G15G18G19G21G22G27      
  22369661.766 6   2488557.966 6   1958519.99047  22369653.77347
  22500906.203 6   3001729.928 6   2347792.76747  22500898.91447
  22572786.391 6  -3125156.488 6  -2419645.56247  22572779.39547
  20927530.047 7  -7095364.261 7  -5489796.13948  20927521.11748
  25054389.242 3   9482508.145 3   7375259.68546  25054386.05546
  21191312.047 7   2490209.919 7   1947513.15948  21191302.41448
  22732172.547 6  -4583712.771 6  -3541536.96447  22732162.38747
  22245510.578 6   6065626.112 6   4725871.92147  22245502.29347
  20557055.211 7  -1719551.463 7  -1318675.98649  20557043.41049
  24058412.625 6   1869701.680 6   1461919.41746  24058406.50846
 11  3 31 17 24 30.0000000  0 10G03G06G09G14G15G18G19G21G22G27      
  22374522.422 6   2514101.121 6   1978423.71147  22374514.66447
  22506043.453 6   3028723.619 6   2368826.77147  22506035.69547
  22572301.906 6  -3127703.243 6  -2421630.04847  22572294.91047
  20922216.891 7  -7123284.490 7  -5511552.15648  20922207.60948
  25064491.031 2   9535590.625 2   7416622.55646  25064486.78946
  21194729.023 7   2508165.175 7   1961504.25148  21194719.09848
  22729856.930 6  -4595882.003 6  -3551019.49848  22729846.24248
  22253318.953 6   6106660.822 6   4757846.97947  22253311.13747
  20556397.820 7  -1723006.396 7  -1321368.14649  20556386.07849
  24062507.469 6   1891220.933 6   1478687.61046  24062500.94146
 11  3 31 17 24 45.0000000  0 10G03G06G09G14G15G18G19G21G22G27      
  22379404.766 6   2539757.742 6   1998415.84447  22379396.89147
  22511199.063 6   3055818.472 6   2389939.60947  22511191.42247
  22571848.453 6  -3130086.848 6  -2423487.42247  22571840.93047
  20916925.523 6  -7151089.439 6  -5533218.34748  20916916.59448
  25074593.984 3   9588681.993 3   7457992.31946  25074590.44546
  21198154.516 7   2526167.370 7   1975531.92448  21198144.94148
  22727567.633 6  -4607912.519 6  -3560393.93648  22727557.18048
  22261143.719 6   6147780.022 6   4789887.86247  22261135.60947
  20555751.820 7  -1726402.253 7  -1324014.27749  20555739.78549
  24066625.516 6   1912857.781 6   1495547.44946  24066619.16446
 11  3 31 17 25  0.0000000  0 10G03G06G09G14G15G18G19G21G22G27      
  22384308.594 6   2565527.058 6   2018495.80247  22384301.12947
  22516374.188 6   3083013.632 6   2411130.61647  22516366.54747
  22571425.086 6  -3132307.856 6  -2425218.09847  22571418.20747
  20911656.414 7  -7178779.597 7  -5554795.08148  20911647.66048
  25084698.125 3   9641781.584 3   7499368.52046  25084695.17246
  21201589.344 7   2544215.939 7   1989595.72648  21201579.12548
  22725304.484 6  -4619804.582 6  -3569660.48347  22725294.20747
  22268984.461 6   6188983.214 6   4821994.19147  22268976.58647
  20555116.539 7  -1729739.708 7  -1326614.90049  20555104.44549
  24070764.039 6   1934611.519 6   1512498.39346  24070758.44946
 11  3 31 17 25 15.0000000  0 10G03G06G09G14G15G18G19G21G22G27      
  22389233.766 6   2591409.542 6   2038663.93447  22389225.94947
  22521568.758 6   3110309.684 6   2432400.22647  22521561.17647
  22571033.891 6  -3134365.079 6  -2426821.13047  22571026.71947
  20906409.031 6  -7206354.008 6  -5576281.62948  20906399.86748
  25094805.766 3   9694889.987 3   7540751.58846  25094801.28946
  21205032.625 7   2562311.744 7   2003696.33848  21205023.16848
  22723068.164 6  -4631557.341 6  -3578818.48148  22723057.71148
  22276841.586 6   6230271.016 6   4854166.45247  22276833.53547
  20554492.875 7  -1733017.678 7  -1329169.16849  20554480.72349
  24074926.633 6   1956482.866 6   1529540.95746  24074920.57446
 11  3 31 17 25 30.0000000  0 10G03G06G09G14G15G18G19G21G22G27      
  22394180.344 6   2617404.177 6   2058919.46247  22394172.64547
  22526781.758 6   3137705.523 6   2453747.59947  22526774.64547
  22570673.156 6  -3136259.410 6  -2428297.25147  22570666.10247
  20901183.313 6  -7233813.472 6  -5597678.60648  20901174.96948
  25104912.984 3   9748006.303 3   7582140.82046  25104908.68446
  21208485.063 7   2580453.839 7   2017833.01548  21208475.43048
  22720857.898 6  -4643171.567 6  -3587868.54447  22720847.32847
  22284714.023 6   6271642.288 6   4886403.76447  22284705.73847
  20553880.195 7  -1736237.225 7  -1331677.91249  20553868.39549
  24079110.242 6   1978470.813 6   1546674.39746  24079104.41846
 11  3 31 17 25 45.0000000  0 10G03G06G09G14G15G18G19G21G22G27      
  22399148.078 6   2643510.654 6   2079262.13547  22399141.02347
  22532014.547 6   3165200.974 6   2475172.59447  22532006.73047
  22570343.898 6  -3137990.639 6  -2429646.27547  22570336.72747
  20895980.383 6  -7261157.764 6  -5618985.84748  20895971.16048
  25115022.375 4   9801130.237 4   7623535.98346  25115018.01646
  21211946.266 7   2598642.341 7   2032005.86048  21211936.57448
  22718674.547 6  -4654647.113 6  -3596810.52948  22718663.80148
  22292602.711 6   6313097.267 6   4918706.28547  22292594.95347
  20553278.672 7  -1739398.236 7  -1334141.04249  20553267.10549
  24083316.969 6   2000575.295 6   1563898.63846  24083311.20346
 11  3 31 17 26  0.0000000  0 10G03G06G09G14G15G18G19G21G22G27      
  22404137.719 6   2669729.267 6   2099692.19247  22404129.90247
  22537265.414 6   3192796.261 6   2496675.39247  22537257.65647
  22570045.625 6  -3139558.148 6  -2430867.71847  22570038.21947
  20890799.164 7  -7288386.198 7  -5640202.79848  20890790.11748
  25125133.102 4   9854261.942 4   7664937.23946  25125128.33246
  21215416.688 7   2616877.732 7   2046215.23548  21215406.76248
  22716516.711 6  -4665983.254 6  -3605643.90248  22716506.78548
  22300507.469 6   6354636.124 6   4951074.18247  22300499.18447
  20552688.297 7  -1742500.135 7  -1336558.11549  20552676.43849
  24087545.508 6   2022796.724 6   1581214.01846  24087539.68446
 11  3 31 17 26 15.0000000  0 10G03G06G09G14G15G18G19G21G22G27      
  22409148.164 6   2696059.324 6   2120209.07947  22409140.17247
  22542535.453 6   3220490.651 6   2518255.39047  22542527.98847
  22569778.563 6  -3140962.318 6  -2431961.89147  22569771.33247
  20885639.734 7  -7315499.122 7  -5661329.74748  20885630.86348
  25135244.469 4   9907400.780 4   7706343.96446  25135241.22346
  21218895.328 7   2635159.505 7   2060460.75648  21218885.52048
  22714386.773 6  -4677180.468 6  -3614369.00947  22714375.85247
  22308428.219 6   6396258.218 6   4983506.93347  22308419.34847
  20552109.289 7  -1745543.402 7  -1338929.50349  20552097.54749
  24091796.695 6   2045134.461 6   1598620.01346  24091789.99246
 11  3 31 17 26 30.0000000  0 10G03G06G09G14G15G18G19G21G22G27      
  22414179.055 6   2722500.566 6   2140812.61547  22414171.64847
  22547824.258 6   3248284.137 6   2539912.62347  22547816.79347
  22569542.352 6  -3142202.741 6  -2432928.47347  22569534.94547
  20880502.438 7  -7342495.951 7  -5682366.22748  20880493.56648
  25145357.883 5   9960546.795 5   7747756.42146  25145354.40246
  21222383.242 7   2653488.080 7   2074742.74248  21222373.14148
  22712282.219 6  -4688238.394 6  -3622985.58848  22712271.18048
  22316364.180 6   6437963.949 6   5016004.85147  22316356.24647
  20551541.281 7  -1748527.766 7  -1341254.98449  20551529.42249
  24096069.414 6   2067588.722 6   1616116.84046  24096063.23846
 11  3 31 17 26 45.0000000  0 10G03G06G09G14G15G18G19G21G22G27      
  22419232.414 6   2749052.315 6   2161502.26147  22419224.83247
  22553132.219 6   3276176.051 6   2561646.54547  22553124.46147
  22569337.531 6  -3143279.728 6  -2433767.69147  22569330.53547
  20875386.844 7  -7369377.222 7  -5703312.65848  20875378.03148
  25155473.852 5  10013699.504 5   7789174.02846  25155468.90646
  21225879.695 7   2671862.986 7   2089060.83648  21225870.06348
  22710204.508 6  -4699157.314 6  -3631493.84148  22710193.87948
  22324316.844 6   6479752.543 6   5048567.34647  22324308.03147
  20550984.266 7  -1751453.571 7  -1343534.83849  20550973.05149
  24100364.266 5   2090158.940 5   1633703.98146  24100358.32446
 11  3 31 17 27  0.0000000  0 10G03G06G09G14G15G18G19G21G22G27      
  22424306.016 6   2775715.124 6   2182278.43147  22424298.37547
  22558458.133 6   3304166.920 6   2583457.57647  22558451.07847
  22569163.250 6  -3144192.561 6  -2434478.99647  22569156.43047
  20870293.656 7  -7396142.007 7  -5724168.33348  20870284.66848
  25165588.328 5  10066859.231 5   7830597.09646  25165584.73046
  21229385.289 7   2690284.996 7   2103415.63248  21229375.65648
  22708153.313 6  -4709936.389 6  -3639893.12648  22708142.91848
  22332284.430 6   6521624.678 6   5081194.92247  22332276.32047
  20550439.242 7  -1754320.059 7  -1345768.46749  20550427.67649
  24104681.500 6   2112845.666 6   1651381.94546  24104675.67646
 11  3 31 17 27 15.0000000  0 10G03G06G09G14G15G18G19G21G22G27      
  22429401.203 6   2802488.057 6   2203140.42247  22429393.56347
  22563803.633 6   3332255.428 6   2605344.70247  22563796.28547
  22569021.750 6  -3144942.040 6  -2435063.01047  22569014.22747
  20865222.805 7  -7422791.035 7  -5744933.79948  20865213.75848
  25175706.469 5  10120024.993 5   7872024.87646  25175702.10946
  21232899.883 7   2708753.134 7   2117806.36848  21232889.84048
  22706128.289 6  -4720576.426 6  -3648184.07448  22706117.95348
  22340268.695 6   6563579.519 6   5113886.96147  22340260.05947
  20549904.648 7  -1757128.219 7  -1347956.65249  20549893.14149
  24109020.953 5   2135647.935 5   1669149.93946  24109014.77746
 11  3 31 17 27 30.0000000  0 10G03G06G09G14G15G18G19G21G22G27      
  22434516.867 6   2829370.803 6   2224087.98747  22434508.87547
  22569167.641 6   3360441.774 6   2627308.05047  22569160.05947
  22568910.133 6  -3145527.607 6  -2435519.30547  22568902.90247
  20860173.742 7  -7449323.735 7  -5765608.62048  20860164.63748
  25185825.031 5  10173197.014 5   7913457.56346  25185820.84846
  21236422.844 7   2727267.734 7   2132233.31048  21236413.44548
  22704130.391 6  -4731077.001 6  -3656366.34648  22704119.52748
  22348267.531 6   6605616.990 6   5146643.37847  22348259.59847
  20549381.547 7  -1759877.718 7  -1350099.12649  20549369.98049
  24113381.781 5   2158565.853 5   1687008.02946  24113375.78146
 11  3 31 17 27 45.0000000  0 10G03G06G09G14G15G18G19G21G22G27      
  22439652.867 6   2856363.195 6   2245120.98147  22439645.57847
  22574549.820 6   3388725.625 6   2649347.37947  22574542.29747
  22568829.648 6  -3145949.162 6  -2435847.80647  22568822.65247
  20855146.617 7  -7475740.128 7  -5786192.81748  20855137.57048
  25195943.977 5  10226374.919 5   7954894.81546  25195940.02746
  21239954.773 7   2745828.738 7   2146696.41648  21239945.14148
  22702158.805 6  -4741438.021 6  -3664439.87848  22702147.82448
  22356282.547 6   6647737.017 6   5179464.12747  22356274.55547
  20548869.383 7  -1762568.457 7  -1352195.81649  20548857.81649
  24117765.016 6   2181599.405 6   1704956.22446  24117759.07446
 11  3 31 17 28  0.0000000  0 10G03G06G09G14G15G18G19G21G22G27      
  22444809.773 6   2883464.868 6   2266239.13547  22444802.66047
  22579950.398 6   3417106.748 6   2671462.50747  22579943.22747
  22568780.828 6  -3146206.683 6  -2436048.47447  22568773.94947
  20850142.008 7  -7502040.197 7  -5806686.36748  20850133.02048
  25206065.211 5  10279558.371 5   7996336.38446  25206060.73446
  21243496.016 7   2764436.202 7   2161195.72848  21243486.09048
  22700213.711 6  -4751659.435 6  -3672404.62048  22700202.84848
  22364313.664 6   6689939.340 6   5212349.00047  22364305.78947
  20548368.617 7  -1765200.506 7  -1354246.77649  20548356.64149
  24122169.992 5   2204748.300 5   1722994.31846  24122164.16846
 11  3 31 17 28 15.0000000  0 10G03G06G09G14G15G18G19G21G22G27      
  22449988.391 6   2910675.457 6   2287442.16347  22449980.51647
  22585369.664 6   3445584.542 6   2693652.96747  22585362.31647
  22568762.766 6  -3146300.257 6  -2436121.39347  22568755.77047
  20845159.438 7  -7528223.874 7  -5827089.22548  20845150.09848
  25216186.344 6  10332747.075 6   8037782.05846  25216181.75046
  21247045.750 7   2783089.845 7   2175731.01848  21247036.05948
  22698295.039 6  -4761741.359 6  -3680260.66848  22698284.46948
  22372360.047 6   6732223.751 6   5245297.84247  22372352.28947
  20547879.008 7  -1767773.868 7  -1356251.99748  20547866.85548
  24126597.328 5   2228012.221 5   1741122.05146  24126590.97746
 11  3 31 17 28 30.0000000  0 10G03G06G09G14G15G18G19G21G22G27      
  22455187.242 6   2937995.033 6   2308730.10947  22455179.48447
  22590807.039 6   3474159.280 6   2715918.95847  22590799.80947
  22568776.633 6  -3146229.402 6  -2436066.18847  22568769.34447
  20840198.984 7  -7554290.587 7  -5847400.94348  20840190.28948
  25226308.719 6  10385941.150 6   8079231.90446  25226304.47746
  21250604.344 7   2801790.159 7   2190302.67348  21250594.47748
  22696403.266 6  -4771683.300 6  -3688007.64648  22696392.22748
  22380422.055 6   6774590.490 6   5278310.83147  22380414.35547
  20547400.141 7  -1770288.228 7  -1358211.24749  20547389.10249
  24131045.945 5   2251391.433 5   1759339.61646  24131040.06346
 11  3 31 17 28 45.0000000  0 10G03G06G09G14G15G18G19G21G22G27      
  22460406.625 6   2965422.718 6   2330102.29747  22460399.04347
  22596262.875 6   3502830.092 6   2738259.81747  22596255.58647
  22568821.195 6  -3145994.512 6  -2435883.16647  22568814.08247
  20835260.883 7  -7580240.972 7  -5867622.01748  20835251.83648
  25236432.039 6  10439139.905 6   8120685.41846  25236428.50046
  21254171.547 7   2820536.601 7   2204910.26748  21254161.97348
  22694537.711 6  -4781485.808 6  -3695645.96748  22694526.90648
  22388499.578 6   6817038.837 6   5311387.40747  22388492.34847
  20546932.977 7  -1772744.224 7  -1360125.01949  20546921.05949
  24135516.836 5   2274885.204 5   1777646.45546  24135510.95346
 11  3 31 17 29  0.0000000  0 10G03G06G09G14G15G18G19G21G22G27      
  22465646.305 6   2992958.641 6   2351558.82347  22465638.66447
  22601737.000 6   3531597.134 6   2760675.65447  22601729.77047
  22568897.211 6  -3145595.102 6  -2435571.94247  22568889.86347
  20830344.969 7  -7606074.220 7  -5887751.81048  20830335.74648
  25246556.094 6  10492343.582 6   8162142.75746  25246552.55546
  21257747.773 7   2839329.702 7   2219554.22348  21257737.96548
  22692699.156 6  -4791148.216 6  -3703175.12547  22692688.35247
  22396593.563 6   6859569.215 6   5344527.90347  22396584.86747
  20546476.844 7  -1775141.233 7  -1361992.81849  20546465.45349
  24140009.492 5   2298493.866 5   1796042.79446  24140003.31646
 11  3 31 17 29 15.0000000  0 10G03G06G09G14G15G18G19G21G22G27      
  22470906.375 6   3020602.546 6   2373099.49647  22470899.37947
  22607229.758 6   3560460.094 6   2783166.23947  22607222.46947
  22569004.523 6  -3145031.115 6  -2435132.47247  22568997.00047
  20825451.180 7  -7631790.276 7  -5907790.28548  20825442.48448
  25256681.977 6  10545551.827 6   8203603.63446  25256677.61746
  21261332.742 7   2858169.340 7   2234234.44748  21261323.46148
  22690887.398 6  -4800670.597 6  -3710595.16847  22690876.30147
  22404702.695 6   6902181.433 6   5377732.16947  22404694.41047
  20546032.086 7  -1777479.407 7  -1363814.78449  20546020.75449
  24144523.148 5   2322217.267 5   1814528.55146  24144517.61746
 11  3 31 17 29 30.0000000  0 10G03G06G09G14G15G18G19G21G22G27      
  22476187.578 6   3048353.518 6   2394723.59047  22476180.28947
  22612740.734 6   3589418.005 6   2805730.81647  22612732.97747
  22569143.070 6  -3144303.200 6  -2434565.27647  22569135.43047
  20820580.063 7  -7657389.764 7  -5927737.93248  20820571.01648
  25266807.234 6  10598763.949 6   8245067.56146  25266803.75446
  21264926.695 7   2877054.840 7   2248950.40148  21264917.12148
  22689101.609 6  -4810053.452 6  -3717906.49247  22689091.21547
  22412826.461 6   6944874.722 6   5410999.61547  22412818.76247
  20545598.273 7  -1779759.424 7  -1365591.42949  20545586.47349
  24149059.953 5   2346054.559 5   1833103.07846  24149053.66046
 11  3 31 17 29 45.0000000  0 10G03G06G09G14G15G18G19G21G22G27      
  22481488.906 6   3076211.705 6   2416431.22947  22481481.44147
  22618268.758 6   3618471.244 6   2828369.66447  22618261.93847
  22569313.211 6  -3143410.615 6  -2433869.76947  22569305.68847
  20815730.680 7  -7682871.908 7  -5947594.14348  20815721.57448
  25276934.703 6  10651980.153 6   8286534.65546  25276930.40246
  21268529.125 7   2895986.766 7   2263702.53848  21268519.43448
  22687342.977 6  -4819296.081 6  -3725108.54847  22687332.34847
  22420966.477 6   6987649.445 6   5444330.51647  22420958.54347
  20545175.711 7  -1781980.667 7  -1367322.27649  20545163.85249
  24153618.313 5   2370006.223 5   1851766.67646  24153611.78546
 11  3 31 17 30  0.0000000  0 10G03G06G09G14G15G18G19G21G22G27      
  22486810.539 6   3104176.653 6   2438222.05847  22486802.89847
  22623815.766 6   3647619.326 6   2851082.42047  22623808.47747
  22569513.656 6  -3142353.397 6  -2433045.97247  22569506.71947
  20810903.797 7  -7708236.865 7  -5967359.03348  20810894.75048
  25287061.742 6  10705200.029 6   8328004.63446  25287057.73446
  21272140.930 7   2914965.019 7   2278490.75848  21272131.18048
  22685610.680 6  -4828398.727 6  -3732201.52547  22685599.81647
  22429121.852 6   7030505.207 6   5477724.56347  22429113.33247
  20544764.094 7  -1784143.254 7  -1369007.41749  20544752.46949
  24158196.344 5   2394071.945 5   1870519.18746  24158191.10546
 11  3 31 17 30 15.0000000  0 10G03G06G09G14G15G18G19G21G22G27      
  22492152.078 6   3132247.988 6   2460095.79847  22492144.84847
  22629380.586 6   3676861.870 6   2873868.77647  22629372.94547
  22569746.180 6  -3141131.585 6  -2432093.91247  22569739.24247
  20806099.609 7  -7733484.553 7  -5987032.55348  20806090.56348
  25297189.844 6  10758423.565 6   8369477.47046  25297186.07046
  21275761.078 7   2933989.504 7   2293315.01948  21275751.50448
  22683905.039 6  -4837361.423 6  -3739185.44947  22683894.41047
  22437292.477 6   7073441.789 6   5511181.57747  22437284.25047
  20544363.406 7  -1786247.329 7  -1370646.96749  20544351.72349
  24162798.625 5   2418251.503 5   1889360.37546  24162792.62546
 11  3 31 17 30 30.0000000  0 10G03G06G09G14G15G18G19G21G22G27      
  22497514.570 6   3160424.890 6   2482051.78247  22497507.04747
  22634963.164 6   3706198.156 6   2896728.18347  22634955.69947
  22570010.273 6  -3139745.757 6  -2431014.06547  22570003.27747
  20801317.383 7  -7758615.427 7  -6006615.04548  20801308.45348
  25307318.727 6  10811649.810 6   8410952.41446  25307315.48046
  21279389.922 7   2953059.676 7   2308174.87548  21279380.11348
  22682225.844 6  -4846184.485 6  -3746060.57548  22682215.62548
  22445478.570 6   7116458.692 6   5544701.18647  22445470.28547
  20543974.320 7  -1788293.250 7  -1372241.19149  20543962.52049
  24167420.508 5   2442544.205 5   1908289.73246  24167414.97746
 11  3 31 17 30 45.0000000  0 10G03G06G09G14G15G18G19G21G22G27      
  22502896.625 6   3188708.225 6   2504090.71147  22502889.21947
  22640563.195 6   3735628.898 6   2919661.19647  22640556.19947
  22570305.625 6  -3138194.610 6  -2429805.39147  22570298.51247
  20796557.289 7  -7783628.115 7  -6026105.44848  20796548.77048
  25317447.711 6  10864879.691 6   8452430.17346  25317443.93846
  21283027.508 7   2972176.614 7   2323071.16948  21283017.75848
  22680573.891 6  -4854866.791 6  -3752826.01848  22680563.32048
  22453679.703 6   7159557.021 6   5578284.25547  22453671.06647
  20543595.984 7  -1790279.907 7  -1373789.24749  20543584.53549
  24172065.070 5   2466950.993 5   1927307.99146  24172059.42246
 11  3 31 17 31  0.0000000  0 10G03G06G09G14G15G18G19G21G22G27      
  22508298.938 6   3217096.696 6   2526211.56547  22508291.18047
  22646181.945 6   3765153.031 6   2942666.97447  22646174.77347
  22570631.828 6  -3136478.975 6  -2428468.54247  22570625.00847
  20791820.109 7  -7808523.436 7  -6045504.39448  20791810.77048
  25327578.023 6  10918111.896 6   8493909.77246  25327573.84046
  21286674.375 7   2991339.392 7   2338003.18548  21286664.91848
  22678948.742 6  -4863409.050 6  -3759482.32948  22678937.82048
  22461896.156 6   7202735.384 6   5611929.68347  22461888.28147
  20543229.086 7  -1792208.309 7  -1375291.90549  20543217.63749
  24176731.039 5   2491470.848 5   1946414.34046  24176725.80146
 11  3 31 17 31 15.0000000  0 10G03G06G09G14G15G18G19G21G22G27      
  22513720.789 6   3245590.183 6   2548414.24747  22513713.32447
  22651818.055 6   3794770.375 6   2965745.39347  22651810.53147
  22570989.461 6  -3134598.525 6  -2427003.25847  22570982.40647
  20787104.773 7  -7833301.304 7  -6064811.81648  20787095.60948
  25337707.938 6  10971346.625 6   8535391.33346  25337704.22346
  21290329.773 7   3010548.318 7   2352971.15948  21290320.08248
  22677349.586 6  -4871811.107 6  -3766029.40147  22677338.72347
  22470127.922 6   7245993.931 6   5645637.58147  22470119.93047
  20542873.438 7  -1794078.118 7  -1376748.90649  20542861.40249
  24181419.203 5   2516103.823 5   1965608.84546  24181413.14546
 11  3 31 17 31 30.0000000  0 10G03G06G09G14G15G18G19G21G22G27      
  22519163.227 6   3274188.704 6   2570698.77247  22519155.52747
  22657471.438 6   3824480.932 6   2988896.43947  22657464.26647
  22571379.039 6  -3132553.020 6  -2425409.37247  22571372.04347
  20782412.320 7  -7857961.180 7  -6084027.29848  20782402.86348
  25347838.469 6  11024583.818 6   8576874.79946  25347834.81346
  21293993.484 7   3029803.599 7   2367975.25948  21293984.43848
  22675777.531 6  -4880072.711 6  -3772467.03047  22675766.43447
  22478375.016 6   7289332.754 6   5679408.02747  22478367.37547
  20542528.836 7  -1795889.010 7  -1378160.00349  20542517.03549
  24186128.336 5   2540849.976 5   1984891.54746  24186122.04346
 11  3 31 17 31 45.0000000  0 10G03G06G09G14G15G18G19G21G22G27      
  22524624.758 6   3302891.559 6   2593064.59647  22524617.29347
  22663143.133 6   3854283.848 6   3012119.45747  22663136.13747
  22571799.758 6  -3130342.924 6  -2423687.22847  22571791.94147
  20777742.219 7  -7882503.441 7  -6103151.13348  20777732.93848
  25357969.867 6  11077822.842 6   8618359.69745  25357966.15245
  21297666.766 7   3049104.684 7   2383015.04348  21297657.25048
  22674232.438 6  -4888194.281 6  -3778795.53948  22674221.39848
  22486637.711 6   7332751.181 6   5713240.50847  22486629.42647
  20542195.281 7  -1797641.665 7  -1379525.71849  20542183.71549
  24190858.742 5   2565708.652 5   2004261.89346  24190852.97746
 11  3 31 17 32  0.0000000  0 10G03G06G09G14G15G18G19G21G22G27      
  22530106.945 6   3331698.786 6   2615511.75047  22530099.18847
  22668832.023 6   3884179.416 6   3035414.65947  22668824.67647
  22572251.625 6  -3127967.757 6  -2421836.47147  22572243.98447
  20773094.289 7  -7906927.542 7  -6122182.89748  20773085.41848
  25368101.531 6  11131064.019 6   8659846.31245  25368097.93445
  21301348.648 7   3068452.112 7   2398090.93748  21301338.72348
  22672713.359 6  -4896175.340 6  -3785014.55048  22672702.73048
  22494915.094 6   7376249.495 6   5747135.24847  22494906.69147
  20541873.016 7  -1799335.585 7  -1380845.66249  20541861.39149
  24195610.906 5   2590680.132 5   2023720.17046  24195604.67246
 11  3 31 17 32 15.0000000  0 10G03G06G09G14G15G18G19G21G22G27      
  22535608.078 6   3360609.833 6   2638039.80547  22535600.96547
  22674538.453 6   3914166.895 6   3058781.49047  22674531.16447
  22572734.906 6  -3125427.750 6  -2419857.24547  22572728.32047
  20768469.023 7  -7931233.692 7  -6141122.74348  20768459.91848
  25378233.547 6  11184306.751 6   8701334.11445  25378229.18845
  21305039.125 7   3087845.541 7   2413202.67948  21305029.43448
  22671221.109 6  -4904016.067 6  -3791124.21948  22671210.65648
  22503207.555 6   7419827.341 6   5781091.94447  22503199.62147
  20541561.625 7  -1800971.137 7  -1382120.12249  20541550.11749
  24200383.930 5   2615763.883 5   2043265.91846  24200377.93046
 11  3 31 17 32 30.0000000  0 10G03G06G09G14G15G18G19G21G22G27      
  22541129.898 6   3389624.188 6   2660648.36047  22541122.49247
  22680262.219 6   3944245.877 6   3082219.61347  22680255.28147
  22573249.727 6  -3122722.936 6  -2417749.61047  22573242.32047
  20763866.180 7  -7955421.961 7  -6159970.73848  20763856.95748
  25388365.539 5  11237550.541 5   8742822.76345  25388361.06345
  21308738.352 7   3107284.861 7   2428350.18248  21308728.25048
  22669755.938 7  -4911716.466 7  -3797124.54848  22669745.42648
  22511515.406 6   7463484.358 6   5815110.35247  22511507.47347
  20541261.656 7  -1802548.420 7  -1383349.18349  20541250.20749
  24205178.750 5   2640959.707 5   2062899.03046  24205172.22346
 11  3 31 17 32 45.0000000  0 10G03G06G09G14G15G18G19G21G22G27      
  22546670.617 6   3418741.767 6   2683337.33947  22546663.15247
  22686003.555 6   3974416.379 6   3105729.06347  22685996.32447
  22573795.992 6  -3119853.008 6  -2415513.31347  22573788.05947
  20759286.000 7  -7979491.987 7  -6178726.60648  20759276.25048
  25398498.344 5  11290795.571 5   8784312.42345  25398492.57845
  21312446.125 7   3126770.239 7   2443533.57448  21312436.31648
  22668317.328 6  -4919276.416 6  -3803015.42248  22668307.10948
  22519838.203 6   7507220.654 6   5849190.52247  22519830.56347
  20540972.625 7  -1804067.093 7  -1384532.57549  20540960.88349
  24209994.992 5   2666267.601 5   2082619.40646  24209988.28946
 11  3 31 17 33  0.0000000  0 10G03G06G09G14G15G18G19G21G22G27      
  22552231.352 6   3447961.952 6   2706106.27847  22552223.59447
  22691762.430 6   4004677.753 6   3129309.31447  22691754.67247
  22574373.203 6  -3116818.270 6  -2413148.60147  22574366.03147
  20754727.961 7  -8003444.016 7  -6197390.52048  20754719.20748
  25408630.641 5  11344041.267 5   8825802.56745  25408625.05145
  21316163.000 7   3146301.347 7   2458752.59948  21316152.89848
  22666905.203 6  -4926696.145 6  -3808797.04248  22666894.98448
  22528176.313 6   7551035.759 6   5883332.10747  22528168.32047
  20540694.438 7  -1805527.502 7  -1385670.56849  20540682.81349
  24214831.578 5   2691687.154 5   2102426.81246  24214825.75446
 11  3 31 17 33 15.0000000  0 10G03G06G09G14G15G18G19G21G22G27      
  22557811.078 6   3477284.717 6   2728955.14947  22557803.84847
  22697538.055 6   4035030.048 6   3152960.41347  22697530.53147
  22574982.250 6  -3113618.382 6  -2410655.19847  22574975.19547
  20750192.508 7  -8027277.499 7  -6215962.05548  20750183.63748
  25418763.094 5  11397287.672 5   8867293.18245  25418758.03145
  21319888.133 7   3165878.436 7   2474007.46248  21319878.61748
  22665520.258 6  -4933975.264 6  -3814469.09548  22665509.74648
  22536528.961 6   7594929.800 6   5917535.18947  22536521.32047
  20540428.195 7  -1806929.281 7  -1386762.87649  20540416.16049
  24219690.617 5   2717218.442 5   2122321.29846  24219684.61746
 11  3 31 17 33 30.0000000  0 10G03G06G09G14G15G18G19G21G22G27      
  22563410.391 6   3506709.648 6   2751883.63047  22563402.86747
  22703331.156 6   4065472.984 6   3176682.14247  22703324.10247
  22575622.422 6  -3110253.255 6  -2408033.02847  22575615.54347
  20745679.594 7  -8050992.540 7  -6234441.30048  20745670.89848
  25428895.320 5  11450534.739 5   8908784.41145  25428890.49245
  21323622.641 7   3185501.621 7   2489298.23148  21323612.53948
  22664161.680 6  -4941113.627 6  -3820031.46348  22664151.28548
  22544896.344 6   7638902.674 6   5951799.70247  22544888.29347
  20540172.734 7  -1808272.444 7  -1387809.50749  20540160.58249
  24224570.391 6   2742861.337 6   2142302.74646  24224563.98046
 11  3 31 17 33 45.0000000  0 10G03G06G09G14G15G18G19G21G22G27      
  22569029.500 6   3536236.254 6   2774891.32947  22569021.85947
  22709141.406 6   4096005.971 6   3200474.04347  22709134.00047
  22576294.398 6  -3106723.229 6  -2405282.37847  22576287.10947
  20741189.148 7  -8074589.304 7  -6252828.38548  20741180.16048
  25439028.352 4  11503781.970 4   8950275.79245  25439023.81645
  21327365.070 7   3205170.571 7   2504624.66948  21327355.61348
  22662830.383 6  -4948111.588 6  -3825484.43448  22662819.75448
  22553279.469 6   7682953.904 6   5986125.27047  22553270.89147
  20539927.977 7  -1809557.292 7  -1388810.68949  20539916.46949
  24229470.984 5   2768615.385 5   2162370.79846  24229464.98446
 11  3 31 17 34  0.0000000  0 10G03G06G09G14G15G18G19G21G22G27      
  22574667.531 6   3565864.421 6   2797978.18347  22574659.59847
  22714968.266 6   4126628.808 6   3224335.95547  22714961.68047
  22576997.477 6  -3103028.054 6  -2402403.02647  22576989.71947
  20736721.805 7  -8098067.425 7  -6271123.02248  20736712.46548
  25449160.695 4  11557029.105 4   8991766.97745  25449156.62945
  21331116.781 7   3224885.579 7   2519986.99248  21331107.44148
  22661525.125 6  -4954968.946 6  -3830827.84747  22661514.61347
  22561676.945 6   7727083.487 6   6020511.91047  22561668.95347
  20539694.469 7  -1810783.652 7  -1389766.31349  20539682.60949
  24234393.234 6   2794480.559 6   2182525.45646  24234386.94146
 11  3 31 17 34 15.0000000  0 10G03G06G09G14G15G18G19G21G22G27      
  22580324.813 6   3595594.101 6   2821144.12647  22580317.17247
  22720813.008 6   4157341.643 6   3248267.99047  22720806.12947
  22577732.109 6  -3099167.338 6  -2399394.68947  22577724.87947
  20732276.609 7  -8121426.541 7  -6289324.92248  20732267.56348
  25459292.281 2  11610276.387 2   9033258.33745  25459289.32845
  21334877.461 7   3244646.893 7   2535385.40448  21334867.71148
  22660247.469 6  -4961685.307 6  -3836061.37948  22660236.37148
  22570089.766 6   7771291.685 6   6054959.79547  22570081.71547
  20539472.578 7  -1811951.149 7  -1390676.05349  20539460.66049
  24239336.563 6   2820457.024 6   2202766.81846  24239330.27046
 11  3 31 17 34 30.0000000  0 10G03G06G09G14G15G18G19G21G22G27      
  22586000.813 6   3625424.413 6   2844388.49547  22585993.99247
  22726674.320 6   4188143.417 6   3272269.32347  22726667.03147
  22578498.711 6  -3095141.753 6  -2396257.86947  22578491.30547
  20727854.227 7  -8144667.346 7  -6307434.63448  20727845.00448
  25469425.289 1  11663522.860 1   9074749.03845  25469421.28145
  21338646.617 7   3264453.698 7   2550819.25448  21338636.22348
  22658996.234 6  -4968261.344 6  -3841185.57048  22658985.43048
  22578516.977 6   7815577.542 6   6089468.19347  22578508.92647
  20539261.523 7  -1813060.454 7  -1391540.45549  20539249.54749
  24244300.961 5   2846543.913 5   2223094.23646  24244294.25846
 11  3 31 17 34 45.0000000  0 10G03G06G09G14G15G18G19G21G22G27      
  22591696.648 6   3655355.469 6   2867711.34447  22591689.35947
  22732553.117 6   4219034.288 6   3296340.09247  22732545.35947
  22579295.992 6  -3090950.684 6  -2392992.12547  22579288.52747
  20723453.969 7  -8167789.187 7  -6325451.64748  20723444.68848
  25479556.188 1  11716768.984 1   9116239.45645  25479554.05545
  21342424.563 7   3284306.548 7   2566288.98748  21342414.98848
  22657771.359 6  -4974696.266 6  -3846199.80148  22657760.43848
  22586959.375 6   7859941.437 6   6124037.38647  22586950.97347
  20539061.086 7  -1814111.147 7  -1392359.19049  20539049.57849
  24249285.773 6   2872741.598 6   2243507.99346  24249280.30146
 11  3 31 17 35  0.0000000  0 10G03G06G09G14G15G18G19G21G22G27      
  22597412.469 6   3685386.656 6   2891112.25147  22597404.65247
  22738447.773 6   4250013.899 6   3320480.00547  22738440.89547
  22580125.078 6  -3086594.236 6  -2389597.50347  22580117.61347
  20719076.734 7  -8190791.901 7  -6343375.83748  20719067.98048
  25489688.008 1  11770014.364 1   9157729.30045  25489686.05145
  21346211.313 7   3304205.518 7   2581794.65248  21346201.38748
  22656573.445 6  -4980990.452 6  -3851104.38148  22656563.16848
  22595416.086 6   7904383.021 6   6158667.14547  22595407.91847
  20538872.469 7  -1815103.190 7  -1393132.22249  20538860.96149
  24254292.117 6   2899049.812 6   2264007.87046  24254286.05946
 11  3 31 17 35 15.0000000  0 10G03G06G09G14G15G18G19G21G22G27      
  22603147.211 6   3715525.455 6   2914596.99447  22603139.51247
  22744361.758 6   4281089.611 6   3344694.80947  22744354.87947
  22580986.766 6  -3082064.652 6  -2386067.96747  22580979.59447
  20714723.703 7  -8213667.898 7  -6361201.28148  20714714.12948
  25499822.35911   2370746.27111   1833624.19255  25499819.64155
  21350007.875 7   3324158.120 7   2597342.11848  21349998.06648
  22655404.078 6  -4987136.154 6  -3855893.25048  22655393.62548
  22603889.555 6   7948909.823 6   6193363.29647  22603881.73847
  20538696.320 7  -1816029.089 7  -1393853.70849  20538684.46149
  24259320.430 5   2925475.966 5   2284599.65846  24259314.78146
 11  3 31 17 35 30.0000000  0 10G03G06G09G14G15G18G19G21G22G27      
  22608899.367 6   3745755.822 6   2938153.08547  22608891.90247
  22750290.781 6   4312245.323 6   3368971.93847  22750283.25847
  22581878.203 6  -3077377.700 6  -2382415.80147  22581871.32447
  20710391.656 7  -8236432.827 7  -6378940.18048  20710382.37548
  25509954.25011                   1875111.92555  25509952.11755
  21353811.945 7   3344148.551 7   2612919.05548  21353802.37148
  22654260.211 6  -4993149.024 6  -3860578.61748  22654249.75848
  22612375.805 6   7993505.953 6   6228113.45947  22612367.63747
  20538529.898 7  -1816904.499 7  -1394535.86349  20538518.09849
  24264368.875 6   2952004.098 6   2305270.89246  24264363.16846
 11  3 31 17 35 45.0000000  0 10G03G06G09G14G15G18G19G21G22G27      
  22614671.578 6   3776085.307 6   2961786.41647  22614663.58647
  22756236.219 6   4343488.693 6   3393317.37747  22756228.63747
  22582801.969 6  -3072525.540 6  -2378634.89247  22582794.56347
  20706082.141 7  -8259078.720 7  -6396586.33348  20706072.56648
  25520085.01611   2477230.05311                
  21357624.883 7   3364184.703 7   2628531.61448  21357615.13348
  22653142.141 6  -4999021.147 6  -3865154.30947  22653131.27747
  22620876.852 6   8038179.191 6   6262923.71647  22620868.85947
  20538374.359 7  -1817721.556 7  -1395172.53849  20538362.67649
  24269437.516 6   2978641.992 6   2326027.68146  24269431.57446
 11  3 31 17 36  0.0000000  0 10G03G06G09G14G15G18G19G21G22G27      
  22620461.445 6   3806513.377 6   2985496.55847  22620454.09847
  22762197.828 6   4374819.156 6   3417730.68247  22762190.77347
  22583757.008 6  -3067508.373 6  -2374725.42647  22583749.54347
  20701795.820 7  -8281605.728 7  -6414139.83948  20701786.42248
  25530216.90611   2530469.18111                
  21361446.445 7   3384266.376 7   2644179.65248  21361436.40248
  22652051.477 6  -5004752.759 6  -3869620.51348  22652041.19948
  22629392.414 6   8082929.010 6   6297793.62647  22629384.48047
  20538229.844 7  -1818480.602 7  -1395764.01049  20538218.33649
  24274528.391 6   3005389.183 6   2346869.61046  24274522.09846
 11  3 31 17 36 15.0000000  0 10G03G06G09G14G15G18G19G21G22G27      
  22626269.078 6   3837032.171 6   3009277.41147  22626261.55547
  22768175.094 6   4406228.827 6   3442205.70247  22768167.86347
  22584741.742 6  -3062333.710 6  -2370693.23047  22584734.21947
  20697530.172 7  -8304021.358 7  -6431606.55548  20697520.65648
  25540345.289 1   2583698.416 1                
  21365274.844 7   3404385.990 7   2659857.24948  21365264.91848
  22650986.891 6  -5010351.526 6  -3873983.19348  22650975.67648
  22637921.273 6   8127747.815 6   6332717.31247  22637913.04747
  20538095.086 7  -1819189.010 7  -1396316.02549  20538083.10949
  24279636.594 6   3032237.886 6   2367790.64946  24279631.00446
 11  3 31 17 36 30.0000000  0 10G03G06G09G14G15G18G19G21G22G27      
  22632096.852 6   3867657.219 6   3033141.04547  22632089.15247
  22774170.102 6   4437733.281 6   3466754.59247  22774163.39847
  22585759.125 6  -3056985.721 6  -2366525.96847  22585751.71947
  20693288.398 7  -8326309.653 7  -6448974.05048  20693279.46948
  25550475.39111   2636933.37111   2041042.32756  25550475.83656
  21369113.523 7   3424559.408 7   2675576.77948  21369104.06648
  22649949.281 6  -5015801.429 6  -3878229.88348  22649939.18048
  22646466.328 6   8172651.253 6   6367706.93947  22646457.69147
  20537973.164 7  -1819830.858 7  -1396816.18549  20537961.48049
  24284768.023 5   3059203.899 5   2388803.09646  24284762.25846
 11  3 31 17 36 45.0000000  0 10G03G06G09G14G15G18G19G21G22G27      
  22637943.555 6   3898379.715 6   3057080.61847  22637936.14847
  22780181.805 6   4469323.767 6   3491370.50547  22780174.51647
  22586808.461 6  -3051472.786 6  -2362230.18447  22586800.87947
  20689070.039 7  -8348478.985 7  -6466248.86248  20689060.23048
  25560606.078 1   2690165.464 1   2082521.81246  25560604.47346
  21372961.586 7   3444778.278 7   2691331.72248  21372951.71948
  22648938.906 6  -5021110.792 6  -3882367.06248  22648928.57048
  22655024.961 6   8217630.685 6   6402755.78847  22655017.67247
  20537862.000 7  -1820414.576 7  -1397271.03849  20537850.25849
  24289919.859 6   3086278.546 6   2409900.20746  24289914.09446
 11  3 31 17 37  0.0000000  0 10G03G06G09G14G15G18G19G21G22G27      
  22643808.227 6   3929199.485 6   3081095.98447  22643800.58647
  22786209.719 6   4501000.376 6   3516053.53347  22786202.13747
  22587889.148 6  -3045794.556 6  -2357805.59747  22587881.62547
  20684874.164 7  -8370528.827 7  -6483430.54248  20684864.41448
  25570736.359 3   2743394.821 3   2123999.15746  25570733.40646
  21376817.297 7   3465042.876 7   2707122.30148  21376808.13348
  22647955.523 6  -5026279.348 6  -3886394.51648  22647945.18848
  22663598.984 5   8262686.283 5   6437863.97147  22663591.05147
  20537762.055 7  -1820939.897 7  -1397680.39149  20537750.25449
  24295093.070 5   3113461.999 5   2431082.08246  24295087.36346
 11  3 31 17 37 15.0000000  0 10G03G06G09G14G15G18G19G21G22G27      
  22649691.320 6   3960118.119 6   3105188.38247  22649684.38347
  22792254.047 6   4532764.483 6   3540804.73247  22792247.05147
  22589001.016 6  -3039949.250 6  -2353250.81747  22588994.25447
  20680701.039 7  -8392457.488 7  -6500517.81048  20680691.46548
  25580865.914 3   2796623.186 3   2165475.71846  25580861.73046
  21380683.055 7   3485354.840 7   2722949.78248  21380672.95348
  22646998.867 6  -5031305.405 6  -3890310.94448  22646988.59048
  22672187.734 6   8307819.644 6   6473032.74647  22672180.27047
  20537673.406 7  -1821405.034 7  -1398042.84749  20537661.78149
  24300286.836 5   3140755.774 5   2452349.92246  24300280.89546
 11  3 31 17 37 30.0000000  0 11G03G06G09G11G14G15G18G19G21G22G27   
  22655593.063 6   3991130.311 6   3129353.68547  22655585.89147
  22798314.070 6   4564610.922 6   3565620.10047  22798306.78147
  22590144.430 6  -3033941.787 6  -2348569.68447  22590137.31647
  25440074.09415    469447.80415                
  20676550.273 7  -8414269.825 7  -6517514.43148  20676540.75848
  25590994.047 4   2849845.221 4   2206947.38246  25590990.21546
  21384556.094 7   3505709.368 7   2738810.43648  21384546.93048
  22646069.023 6  -5036193.815 6  -3894120.10648  22646058.27748
  22680790.680 6   8353025.604 6   6508258.10447  22680782.74647
  20537595.594 7  -1821814.990 7  -1398362.30049  20537583.67649
  24305501.078 6   3168154.844 6   2473699.81346  24305494.96146
 11  3 31 17 37 45.0000000  0 11G03G06G09G11G14G15G18G19G21G22G27   
  22661513.164 6   4022239.831 6   3153594.82547  22661505.81647
  22804390.922 5   4596543.304 5   3590502.41847  22804383.63347
  22591319.078 6  -3027768.073 6  -2343759.01547  22591312.08247
  25430078.547 4    416919.753 4    407155.85056  25430069.09056
  20672422.586 7  -8435961.666 7  -6534417.16048  20672412.89548
  25601121.273 4   2903064.865 4   2248417.14446  25601116.97346
  21388438.547 7   3526110.749 7   2754707.59248  21388428.50448
  22645165.906 6  -5040940.439 6  -3897818.78848  22645155.21948
  22689407.422 6   8398308.220 6   6543543.19447  22689399.78147
  20537528.867 7  -1822165.599 7  -1398635.51449  20537517.18449
  24310735.750 5   3195662.946 5   2495134.64746  24310729.63346
 11  3 31 17 38  0.0000000  0 11G03G06G09G11G14G15G18G19G21G22G27   
  22667450.992 6   4053445.471 6   3177910.86647  22667443.76247
  22810483.422 5   4628560.454 5   3615450.80847  22810475.89847
  22592525.484 6  -3021429.170 6  -2338819.61347  22592517.55147
  25420087.828 5    364414.948 5    366243.00146  25420078.60546
  20668317.516 7  -8457533.801 7  -6551226.61448  20668308.05948
  25611247.500 4   2956280.914 4   2289884.12546  25611244.37146
  21392329.234 7   3546557.675 7   2770640.23848  21392319.48448
  22644289.297 7  -5045546.233 7  -3901407.73248  22644278.55148
  22698038.469 5   8443666.221 5   6578887.00547  22698031.35547
  20537473.281 7  -1822457.892 7  -1398863.28849  20537461.42249
  24315991.102 6   3223279.063 6   2516653.67846  24315985.33646
 11  3 31 17 38 15.0000000  0 11G03G06G09G11G14G15G18G19G21G22G27   
  22673407.445 6   4084746.746 6   3202301.43547  22673399.92247
  22816592.141 6   4660661.985 6   3640464.93547  22816585.32047
  22593763.063 6  -3014925.124 6  -2333751.54647  22593755.77347
  25410100.750 1    311933.520 1    325348.35546  25410090.88346
  20664234.758 7  -8478986.367 7  -6567942.89048  20664226.23848
  25621373.320 3   3009493.225 3   2331348.20846  25621370.71946
  21396229.094 7   3567050.091 7   2786608.34048  21396219.63748
  22643439.516 6  -5050011.306 6  -3904887.02748  22643429.00448
  22706685.016 6   8489099.295 6   6614289.33747  22706676.49647
  20537428.742 7  -1822691.882 7  -1399045.62649  20537416.64849
  24321266.492 5   3251002.834 5   2538256.55846  24321260.66846
 11  3 31 17 38 30.0000000  0 11G03G06G09G11G14G15G18G19G21G22G27   
  22679382.719 6   4116143.673 6   3226766.52447  22679374.90247
  22822717.141 6   4692848.121 6   3665544.99547  22822710.26247
  22595032.430 6  -3008255.314 6  -2328554.30347  22595025.08247
  25400118.250 1    259475.803 1    284472.30945  25400107.79745
  20660175.766 7  -8500318.684 7  -6584565.47948  20660166.42648
  25631498.703 4   3062702.257 4   2372809.71046  25631496.51246
  21400137.008 7   3587588.469 7   2802612.25348  21400127.60948
  22642616.633 6  -5054335.153 6  -3908256.26848  22642606.12148
  22715345.266 6   8534607.970 6   6649750.56747  22715336.33647
  20537395.547 7  -1822867.044 7  -1399182.12949  20537383.92249
  24326562.844 5   3278834.639 5   2559943.64946  24326557.07846
 11  3 31 17 38 45.0000000  0 11G03G06G09G11G14G15G18G19G21G22G27   
  22685375.211 6   4147635.377 6   3251305.46847  22685367.57047
  22828858.016 6   4725117.776 6   3690690.13347  22828851.02047
  22596332.867 6  -3001420.374 6  -2323228.38647  22596325.63747
  25390140.211 2    207041.988 2    243614.67045  25390129.69945
  20656139.117 7  -8521531.381 7  -6601094.84248  20656130.07048
  25641623.516 3   3115906.813 3   2414267.73146  25641620.68046
  21404054.156 7   3608172.256 7   2818651.54648  21404044.17248
  22641820.797 6  -5058518.368 6  -3911515.93448  22641810.28548
  22724018.984 5   8580191.164 5   6685269.87547  22724010.87547
  20537373.000 7  -1822984.023 7  -1399273.28849  20537361.49249
  24331879.797 5   3306773.601 5   2581714.20846  24331873.68046
 11  3 31 17 39  0.0000000  0 11G03G06G09G11G14G15G18G19G21G22G27   
  22691386.109 6   4179221.869 6   3275918.28147  22691378.41047
  22835014.656 6   4757471.028 6   3715900.42147  22835007.66047
  22597665.148 6  -2994420.124 6  -2317773.65847  22597657.50847
  25380166.313 5    154632.201 5    202776.01745  25380157.14845
  20652125.617 7  -8542624.082 7  -6617530.71148  20652115.80948
  25651746.953 5   3169106.947 5   2455722.28546  25651744.17646
  21407980.086 7   3628801.719 7   2834726.42648  21407969.92648
  22641051.742 6  -5062560.631 6  -3914665.77248  22641041.17248
  22732707.070 6   8625849.100 6   6720847.40747  22732699.25447
  20537362.180 7  -1823042.651 7  -1399318.98849  20537350.08649
  24337217.008 5   3334819.807 5   2603568.34646  24337210.65646
 11  3 31 17 39 15.0000000  0 11G03G06G09G11G14G15G18G19G21G22G27   
  22697414.859 6   4210902.730 6   3300604.62547  22697407.21947
  22841187.352 6   4789907.535 6   3741175.57247  22841180.06347
  22599028.367 6  -2987254.556 6  -2312190.11447  22599021.31347
  25370198.500 6    102246.993 6    161956.11846  25370188.22346
  20648134.398 7  -8563596.727 7  -6633873.02548  20648124.82448
  25661870.234 5   3222302.602 5   2497173.38746  25661867.04746
  21411914.656 7   3649476.968 7   2850836.99048  21411904.43848
  22640309.344 6  -5066461.974 6  -3917705.78948  22640298.89148
  22741409.914 5   8671581.569 5   6756483.01047  22741402.56647
  20537361.953 7  -1823042.871 7  -1399319.17249  20537349.91849
  24342574.016 5   3362973.035 5   2625505.86846  24342568.13346
 11  3 31 17 39 30.0000000  0 11G03G06G09G11G14G15G18G19G21G22G27   
  22703461.508 6   4242677.505 6   3325364.14847  22703453.69147
  22847375.352 6   4822426.719 6   3766515.15347  22847368.23847
  22600423.586 6  -2979923.858 6  -2306477.88747  22600416.47347
  25360234.422 5     49886.173 5    121155.49346  25360224.61346
  20644166.266 7  -8584449.473 7  -6650121.91448  20644156.92648
  25671992.109 4   3275493.305 4   2538620.62246  25671988.92246
  21415857.445 7   3670197.645 7   2866982.94848  21415847.75448
  22639593.617 6  -5070222.634 6  -3920636.18948  22639582.87148
  22750127.242 6   8717388.179 6   6792176.39447  22750119.25047
  20537373.219 7  -1822984.864 7  -1399273.97849  20537361.12549
  24347951.852 6   3391232.892 6   2647526.48446  24347946.43846
 11  3 31 17 39 45.0000000  0 11G03G06G09G11G14G15G18G19G21G22G27   
  22709526.227 6   4274546.125 6   3350196.79347  22709517.82447
  22853579.531 6   4855028.537 6   3791919.11647  22853571.94947
  22601849.852 6  -2972427.879 6  -2300636.88347  22601843.38347
  25350275.406 2     -2449.521 2     80374.38745  25350265.01245
  20640220.672 7  -8605182.159 7  -6666277.25348  20640211.33248
  25682113.266 6   3328679.095 6   2580064.01647  25682109.96147
  21419808.945 7   3690964.119 7   2883164.59848  21419799.72348
  22638905.242 6  -5073842.214 6  -3923456.65548  22638894.32048
  22758857.703 6   8763269.086 6   6827927.68747  22758849.59447
  20537395.273 7  -1822868.343 7  -1399183.19449  20537383.53149
  24353349.750 5   3419599.464 5   2669630.24346  24353344.39546
 11  3 31 17 40  0.0000000  0 11G03G06G09G11G14G15G18G19G21G22G27   
  22715608.023 6   4306507.717 6   3375101.90547  22715600.20747
  22859798.680 6   4887712.440 6   3817387.04447  22859791.91847
  22603307.539 6  -2964767.131 6  -2294667.49247  22603300.83647
  25340320.875 3    -54760.051 3     39612.98546  25340312.06346
  20636298.461 7  -8625795.015 7  -6682339.20848  20636289.35548
  25692232.914 5   3381859.432 5   2621503.18847  25692229.49247
  21423769.352 7   3711775.850 7   2899381.50948  21423759.77748
  22638242.469 6  -5077321.303 6  -3926167.65048  22638232.54348
  22767602.875 6   8809223.743 6   6863736.44647  22767594.53147
  20537428.430 7  -1822693.715 7  -1399047.13649  20537416.92249
  24358768.313 5   3448072.138 5   2691816.68946  24358762.37146
 11  3 31 17 40 15.0000000  0 11G03G06G09G11G14G15G18G19G21G22G27   
  22721707.273 6   4338562.223 6   3400079.39347  22721700.57047
  22866033.773 6   4920478.108 6   3842918.68747  22866027.07047
  22604796.555 6  -2956941.384 6  -2288569.52147  22604789.73447
  25330371.375 5   -107045.292 5     -1128.80446  25330362.56346
  20632398.781 7  -8646287.866 7  -6698307.65748  20632389.44148
  25702351.492 5   3435034.370 5   2662938.13346  25702348.71546
  21427738.492 7   3732633.069 7   2915633.87348  21427728.56648
  22637606.945 6  -5080659.725 6  -3928769.03648  22637596.84448
  22776361.844 6   8855252.251 6   6899602.74347  22776353.91047
  20537472.852 7  -1822460.812 7  -1398865.66549  20537460.93449
  24364206.055 5   3476650.869 5   2714085.76846  24364200.58246
 11  3 31 17 40 30.0000000  0 11G03G06G09G11G14G15G18G19G21G22G27   
  22727825.164 6   4370709.684 6   3425129.32447  22727817.58247
  22872284.453 6   4953325.540 6   3868514.04647  22872277.39847
  22606317.742 6  -2948950.213 6  -2282342.65347  22606310.68847
  25320426.938 6   -159304.460 6    -41850.29146  25320416.83646
  20628521.930 7  -8666660.208 7  -6714182.20948  20628512.70748
  25712469.328 5   3488203.998 5   2704368.94446  25712466.78546
  21431716.430 7   3753536.068 7   2931921.90048  21431706.50448
  22636998.594 6  -5083857.012 6  -3931260.44748  22636988.37548
  22785134.484 6   8901354.680 6   6935526.63247  22785127.07847
  20537528.164 7  -1822169.291 7  -1398638.51249  20537516.01249
  24369664.984 5   3505335.837 5   2736437.63446  24369659.74646
 11  3 31 17 40 45.0000000  0 11G03G06G09G11G14G15G18G19G21G22G27   
  22733960.367 6   4402949.022 6   3450250.83947  22733952.96147
  22878550.625 6   4986253.904 6   3894172.46247  22878543.62947
  22607869.680 6  -2940794.282 6  -2275987.39647  22607862.91847
  25310486.555 6   -211537.899 6    -82551.73246  25310477.39146
  20624667.828 7  -8686912.591 7  -6729963.28248  20624658.78148
  25722585.273 4   3541367.551 4   2745795.01946  25722583.08246
  21435702.414 7   3774484.312 7   2948245.17948  21435692.95748
  22636417.563 7  -5086913.812 7  -3933642.37648  22636406.93448
  22793921.469 6   8947530.064 6   6971507.35547  22793914.00447
  20537594.609 7  -1821819.719 7  -1398366.12649  20537583.27749
  24375143.797 5   3534126.230 5   2758871.63546  24375137.97346
 11  3 31 17 41  0.0000000  0 11G03G06G09G11G14G15G18G19G21G22G27   
  22740112.328 6   4435280.650 6   3475444.27547  22740105.68447
  22884832.578 6   5019263.468 6   3919894.15547  22884825.40647
  22609453.367 6  -2932472.984 6  -2269503.28547  22609446.13747
  25300552.047 5   -263744.825 5   -123232.45446  25300542.47346
  20620837.180 7  -8707044.426 7  -6745650.42348  20620828.19148
  25732701.523 5   3594525.293 5   2787216.59047  25732699.15647
  21439697.945 7   3795478.229 7   2964604.06348  21439687.90248
  22635862.648 6  -5089829.647 6  -3935914.47348  22635851.72748
  22802723.047 6   8993778.773 6   7007545.24247  22802715.52347
  20537672.633 7  -1821411.467 7  -1398048.02249  20537660.53949
  24380642.266 5   3563022.400 5   2781388.08146  24380636.85246
 11  3 31 17 41 15.0000000  0 11G03G06G09G11G14G15G18G19G21G22G27   
  22746282.563 6   4467703.822 6   3500709.05047  22746275.44947
  22891128.664 6   5052353.572 6   3945678.60847  22891122.37147
  22611068.164 6  -2923986.533 6  -2262890.48747  22611060.69947
  25290621.813 5   -315925.356 5   -163892.64246  25290613.17646
  20617028.594 7  -8727055.955 7  -6761243.80648  20617019.48848
  25742816.492 5   3647676.953 5   2828633.41446  25742813.59846
  21443701.141 7   3816517.561 7   2980998.32048  21443691.62548
  22635334.227 6  -5092604.681 6  -3938076.84548  22635323.94948
  22811537.305 6   9040100.342 6   7043639.90447  22811529.66447
  20537761.227 7  -1820944.883 7  -1397684.45449  20537749.36749
  24386160.930 5   3592023.817 5   2803986.55346  24386155.51646
 11  3 31 17 41 30.0000000  0 11G03G06G09G11G14G15G18G19G21G22G27   
  22752470.359 6   4500218.127 6   3526044.82947  22752462.77747
  22897441.305 6   5085523.969 6   3971525.62147  22897434.42647
  22612714.195 6  -2915335.101 6  -2256149.12747  22612707.60947
  25280697.523 5   -368078.843 5   -204531.73646  25280689.23846
  20613243.781 7  -8746947.263 7  -6776743.52948  20613234.73448
  25752929.570 6   3700822.071 6   2870045.14147  25752926.96947
  21447713.305 7   3837602.475 7   2997428.10648  21447704.02348
  22634833.000 6  -5095239.054 6  -3940129.61947  22634822.60547
  22820365.930 6   9086494.684 6   7079791.27147  22820358.40647
  20537861.109 7  -1820419.935 7  -1397275.40949  20537849.25049
  24391700.000 5   3621130.312 5   2826666.87346  24391694.41046
 11  3 31 17 41 45.0000000  0 11G03G06G09G11G14G15G18G19G21G22G27   
  22758674.602 6   4532822.998 6   3551451.16747  22758667.25447
  22903768.688 6   5118773.937 6   3997434.64147  22903761.45747
  22614392.203 6  -2906518.943 6  -2249279.42047  22614385.14847
  25270778.766 6   -420205.458 6   -245149.94346  25270770.18846
  20609481.453 7  -8766718.272 7  -6792149.50348  20609472.17248
  25763041.578 5   3753960.272 5   2911451.50846  25763038.68446
  21451734.375 7   3858732.604 7   3013893.12648  21451724.91848
  22634358.727 6  -5097732.986 6  -3942072.94947  22634347.80547
  22829207.883 6   9132961.375 6   7115999.00147  22829200.82847
  20537972.500 7  -1819837.006 7  -1396821.18849  20537960.46549
  24397258.547 5   3650341.390 5   2849428.68446  24397253.01646
 11  3 31 17 42  0.0000000  0 11G03G06G09G11G14G15G18G19G21G22G27   
  22764896.102 6   4565518.292 6   3576927.98747  22764889.16447
  22910111.141 6   5152103.651 6   4023405.79747  22910104.14547
  22616101.039 6  -2897537.668 6  -2242281.03447  22616093.98447
  25260864.875 4   -472304.709 4   -285746.83446  25260855.18446
  20605741.875 7  -8786368.590 7  -6807461.43948  20605732.65248
  25773152.773 6   3807091.927 6   2952852.75846  25773149.05946
  21455764.484 7   3879908.304 7   3030393.65348  21455754.38348
  22633910.891 6  -5100086.066 6  -3943906.54147  22633899.96947
  22838063.938 6   9179500.586 6   7152263.23747  22838057.17647
  20538094.273 7  -1819195.576 7  -1396321.38249  20538082.35549
  24402837.297 5   3679657.241 5   2872272.15946  24402831.35546
 11  3 31 17 42 15.0000000  0 11G03G06G09G11G14G15G18G19G21G22G27   
  22771135.047 6   4598303.520 6   3602474.86447  22771127.87547
  22916468.219 5   5185512.379 5   4049438.52547  22916461.51647
  22617841.531 6  -2888391.833 6  -2235154.43247  22617835.00447
  25250954.727 4   -524376.588 4   -326322.24745  25250946.14845
  20602025.664 7  -8805898.579 7  -6822679.60348  20602016.73448
  25783261.719 6   3860216.317 6   2994248.35746  25783258.59046
  21459802.430 7   3901129.369 7   3046929.52548  21459792.68048
  22633489.742 6  -5102298.630 6  -3945630.61647  22633479.05547
  22846934.500 6   9226112.154 6   7188583.86947  22846927.15247
  20538227.477 7  -1818496.004 7  -1395776.27449  20538215.61749
  24408435.914 5   3709077.316 5   2895196.84246  24408430.50046
 11  3 31 17 42 30.0000000  0 11G03G06G09G11G14G15G18G19G21G22G27   
  22777390.883 6   4631178.697 6   3628091.84447  22777383.47747
  22922841.516 6   5219000.113 6   4075532.80847  22922834.10947
  22619613.398 6  -2879081.003 6  -2227899.25947  22619606.40247
  25241051.977 5   -576420.279 5   -366875.84646  25241042.93046
  20598332.508 7  -8825307.901 7  -6837803.74348  20598322.75848
  25793369.305 6   3913333.684 6   3035638.45846  25793366.29346
  21463849.359 7   3922396.063 7   3063500.95448  21463839.55148
  22633095.469 6  -5104370.386 6  -3947244.99147  22633084.78147
  22855818.031 6   9272795.541 6   7224960.45647  22855811.09447
  20538371.383 7  -1817738.066 7  -1395185.68049  20538359.81649
  24414053.969 5   3738601.714 5   2918202.77646  24414048.73046
 11  3 31 17 42 45.0000000  0 11G03G06G09G11G14G15G18G19G21G22G27   
  22783664.070 6   4664143.141 6   3653778.38147  22783656.95747
  22929228.492 6   5252566.247 6   4101688.18447  22929221.61347
  22621416.641 6  -2869605.449 6  -2220515.72847  22621409.70347
  25231154.867 5   -628435.883 5   -407407.50846  25231144.82446
  20594661.727 7  -8844596.745 7  -6852834.01048  20594652.50448
  25803475.883 6   3966443.760 6   3077022.92046  25803472.63746
  21467904.836 7   3943708.082 7   3080107.69748  21467895.20348
  22632728.063 6  -5106301.750 6  -3948749.95348  22632717.14148
  22864715.422 6   9319550.523 6   7261392.82746  22864707.66446
  20538526.742 7  -1816921.864 7  -1394549.68249  20538515.00049
  24419691.727 5   3768230.009 5   2941289.73346  24419687.30946
 11  3 31 17 43  0.0000000  0 11G03G06G09G11G14G15G18G19G21G22G27   
  22789954.219 6   4697196.715 6   3679534.36147  22789947.04747
  22935631.281 6   5286210.582 6   4127904.49547  22935624.34447
  22623251.125 6  -2859965.215 6  -2213003.88047  22623243.95347
  25221262.188 5   -680423.283 5   -447917.07245  25221251.79345
  20591014.156 7  -8863765.139 7  -6867770.41248  20591004.64148
  25813580.398 6   4019546.278 6   3118401.51346  25813577.68046
  21471969.141 7   3965065.375 7   3096749.73148  21471959.15648
  22632386.914 6  -5108092.652 6  -3950145.47347  22632376.34447
  22873626.219 6   9366376.986 6   7297880.91446  22873618.40246
  20538693.289 7  -1816047.333 7  -1393868.23649  20538681.37149
  24425349.914 5   3797962.043 5   2964457.49146  24425344.61746
 11  3 31 17 43 15.0000000  0 11G03G06G09G11G14G15G18G19G21G22G27   
  22796260.773 6   4730337.910 6   3705358.62247  22796253.13347
  22942048.289 6   5319931.709 6   4154180.66247  22942041.05947
  22625116.547 6  -2850161.356 6  -2205364.52747  22625109.60947
  25211374.039 5   -732382.873 5   -488405.17446  25211363.87946
  20587389.328 7  -8882813.880 7  -6882613.57948  20587380.22348
  25823683.578 5   4072640.156 5   3159773.29846  25823681.21146
  21476041.469 7   3986466.966 7   3113426.28148  21476032.24648
  22632073.219 6  -5109744.074 6  -3951432.31348  22632062.12148
  22882550.211 6   9413273.884 6   7334423.87547  22882542.62947
  20538870.516 7  -1815115.548 7  -1393142.17749  20538858.77349
  24431027.461 5   3827796.537 5   2987705.10146  24431022.34046
 11  3 31 17 43 30.0000000  0 11G03G06G09G11G14G15G18G19G21G22G27   
  22802583.906 6   4763568.240 6   3731252.34547  22802576.55947
  22948479.469 6   5353731.288 6   4180517.94647  22948472.82447
  22627014.070 6  -2840191.952 6  -2197596.18647  22627006.54747
  25201491.188 4   -784312.559 4   -528869.88546  25201482.37546
  20583787.305 7  -8901741.072 7  -6897362.03948  20583778.02348
  25833786.883 6   4125727.033 6   3201139.75646  25833783.93046
  21480123.203 7   4007914.809 7   3130138.86348  21480113.62948
  22631785.070 6  -5111254.084 6  -3952608.95048  22631774.91048
  22891488.219 6   9460242.924 6   7371023.05746  22891480.57846
  20539059.117 7  -1814124.542 7  -1392369.97749  20539047.14149
  24436725.164 5   3857735.323 5   3011033.96246  24436719.34046
 11  3 31 17 43 45.0000000  0 11G03G06G09G11G14G15G18G19G21G22G27   
  22808924.305 6   4796886.554 6   3757214.61747  22808917.60247
  22954926.586 6   5387608.207 6   4206915.49547  22954919.41447
  22628942.211 6  -2830057.900 6  -2189699.54647  22628935.21547
  25191615.961 4   -836213.212 4   -569311.92946  25191605.03946
  20580208.938 7  -8920547.612 7  -6912016.47749  20580199.53949
  25843887.367 5   4178805.649 5   3242499.69746  25843883.88746
  21484213.000 7   4029408.012 7   3146886.79548  21484203.66048
  22631525.211 6  -5112623.546 6  -3953676.08047  22631514.46547
  22900439.609 6   9507283.035 6   7407677.61246  22900431.85246
  20539258.969 7  -1813075.137 7  -1391552.26649  20539247.40249
  24442441.539 5   3887777.187 5   3034443.15346  24442436.24246
 11  3 31 17 44  0.0000000  0 11G03G06G09G11G14G15G18G19G21G22G27   
  22815281.320 6   4830292.521 6   3783245.19947  22815274.09047
  22961388.297 6   5421561.900 6   4233372.86547  22961380.01247
  22630902.086 6  -2819759.391 6  -2181674.76147  22630895.38347
  25181745.242 5   -888084.335 5   -609730.99145  25181734.02745
  20576653.023 7  -8939233.438 7  -6926576.86048  20576643.91848
  25853986.484 5   4231875.784 5   3283853.01546  25853983.18046
  21488311.547 7   4050946.524 7   3163670.03848  21488302.03148
  22631291.539 7  -5113852.611 7  -3954633.81148  22631280.85248
  22909404.617 6   9554393.775 6   7444387.21146  22909397.03546
  20539469.586 7  -1811967.569 7  -1390689.23349  20539458.02049
  24448177.930 5   3917921.941 5   3057932.52846  24448172.75046
 11  3 31 17 44 15.0000000  0 11G03G06G09G11G14G15G18G19G21G22G27   
  22821654.336 6   4863786.628 6   3809344.44647  22821647.75047
  22967863.438 6   5455592.928 6   4259890.51447  22967856.20747
  22632893.055 6  -2809295.641 6  -2173521.20947  22632886.29347
  25171879.719 2   -939924.793 2   -650126.14545  25171869.50045
  20573120.297 7  -8957797.654 7  -6941042.47548  20573111.01648
  25864084.117 5   4284938.224 5   3325200.43246  25864080.40246
  21492419.211 7   4072531.270 7   3180489.29348  21492409.81348
  22631084.297 6  -5114940.418 6  -3955481.46248  22631073.72748
  22918383.406 6   9601575.776 6   7481152.33147  22918375.59047
  20539691.969 7  -1810800.835 7  -1389780.09449  20539680.10949
  24453934.195 4   3948170.094 4   3081502.44546  24453928.95746
 11  3 31 17 44 30.0000000  0 11G03G06G09G11G14G15G18G19G21G22G27   
  22828045.617 6   4897368.371 6   3835511.98247  22828038.73847
  22974354.211 6   5489700.963 6   4286468.14747  22974347.44947
  22634916.102 6  -2798666.662 6  -2165238.91047  22634908.87147
  25162021.40614  -2567154.35814  -1918097.20155  25162009.95755
  20569610.844 7  -8976240.254 7  -6955413.33648  20569601.73848
  25874179.867 4   4337992.714 4   3366541.53646  25874176.85546
  21496535.445 7   4094162.151 7   3197344.50948  21496526.04748
  22630903.953 6  -5115886.946 6  -3956219.03648  22630893.44148
  22927375.289 6   9648828.862 6   7517972.83447  22927367.82447
  20539924.695 7  -1809575.057 7  -1388824.95149  20539913.36349
  24459709.719 4   3978521.456 4   3105152.80246  24459704.30546
 11  3 31 17 44 45.0000000  0 11G03G06G09G11G14G15G18G19G21G22G27   
  22834452.477 6   4931035.987 6   3861746.44547  22834445.30547
  22980859.398 6   5523884.292 6   4313104.44647  22980851.99247
  22636970.227 6  -2787873.919 6  -2156829.00647  22636962.87947
  25152164.188 2  -2618934.057 2  -1958445.18545  25152156.78145
  20566124.234 7  -8994562.700 7  -6969690.56049  20566115.01249
  25884273.438 5   4391037.425 5   3407875.10746  25884270.01646
  21500660.039 7   4115837.762 7   3214234.57548  21500650.87548
  22630750.500 6  -5116693.784 6  -3956847.76047  22630739.87147
  22936380.172 6   9696151.509 6   7554847.53846  22936373.05946
  20540169.305 7  -1808291.460 7  -1387824.75149  20540157.50449
  24465504.234 4   4008974.445 4   3128882.34146  24465499.64146
 11  3 31 17 45  0.0000000  0 10G03G06G09G14G15G18G19G21G22G27      
  22840876.063 6   4964791.864 6   3888049.67047  22840868.30547
  22987378.750 6   5558145.278 6   4339801.26747  22987371.57847
  22639055.023 6  -2776914.821 6  -2148289.48147  22639048.67247
  20562661.078 7  -9012762.080 7  -6983871.89048  20562651.56348
  25894367.211 1   4444075.110 1                
  21504793.898 7   4137560.680 7   3231161.50348  21504784.44148
  22630624.023 6  -5117358.416 6  -3957365.66648  22630613.62948
  22945399.578 6   9743546.331 6   7591778.49446  22945392.28946
  20540425.102 7  -1806947.382 7  -1386777.43149  20540413.24249
  24471320.008 4   4039531.504 4   3152692.98446  24471314.30146
 11  3 31 17 45 15.0000000  0 10G03G06G09G11G14G18G19G21G22G27      
  22847314.234 6   4998628.580 6   3914415.90447  22847307.18047
  22993911.781 6   5592476.455 6   4366552.79047  22993904.96147
  22641170.977 6  -2765796.404 6  -2139625.80247  22641164.03947
  25132474.98411    706017.83811                
  20559219.617 7  -9030845.492 7  -6997962.85048  20559210.27748
  21508935.313 7   4159323.904 7   3248119.83648  21508925.79748
  22630523.250 6  -5117887.564 6  -3957778.01048  22630512.91448
  22954430.602 6   9791005.973 6   7628759.96146  22954423.02046
  20540691.102 7  -1805549.969 7  -1385688.53949  20540679.18449
  24477153.383 4   4070185.407 4   3176579.09446  24477147.61746
 11  3 31 17 45 30.0000000  0  9G03G06G09G14G18G19G21G22G27         
  22853770.539 6   5032553.481 6   3940850.83347  22853763.13347
  23000459.695 6   5626885.387 6   4393364.89247  23000452.81647
  22643318.320 6  -2754510.880 6  -2130831.91547  22643311.38347
  20555802.258 7  -9048805.081 7  -7011957.33848  20555792.74248
  21513086.273 7   4181135.393 7   3265115.77648  21513076.34848
  22630449.969 6  -5118273.681 6  -3958078.89848  22630439.86748
  22963475.586 6   9838538.038 6   7665797.86046  22963468.12146
  20540968.563 7  -1804091.400 7  -1384552.01449  20540956.58649
  24483006.219 5   4100943.759 5   3200546.57046  24483000.45346
 11  3 31 17 45 45.0000000  0  9G03G06G09G14G18G19G21G22G27         
  22860242.289 5   5066561.615 5   3967350.63347  22860235.52747
  23007021.484 6   5661367.059 6   4420233.67147  23007014.60547
  22645496.914 6  -2743063.104 6  -2121911.59347  22645490.15247
  20552407.195 7  -9066645.721 7  -7025859.13748  20552397.97348
  21517245.016 7   4202990.281 7   3282145.54048  21517235.20748
  22630402.367 6  -5118521.646 6  -3958272.13648  22630392.50048
  22972533.633 6   9886137.487 6   7702888.26346  22972526.63746
  20541256.805 7  -1802576.384 7  -1383371.48349  20541244.94549
  24488878.438 4   4131801.482 4   3224591.49746  24488872.73046
 11  3 31 17 46  0.0000000  0  9G03G06G09G14G18G19G21G22G27         
  22866729.664 6   5100654.540 6   3993916.49647  22866722.78547
  23013597.648 5   5695922.944 5   4447160.28347  23013590.47747
  22647706.844 6  -2731451.294 6  -2112863.45847  22647700.08247
  20549035.422 7  -9084365.324 7  -7039666.60848  20549026.02348
  21521412.305 7   4224890.570 7   3299210.68348  21521403.08248
  22630382.289 6  -5118629.414 6  -3958356.12348  22630371.66048
  22981605.258 5   9933806.111 5   7740032.55346  22981597.20746
  20541556.180 7  -1801003.021 7  -1382145.49049  20541544.61349
  24494769.555 4   4162760.285 4   3248715.18646  24494763.96546
 11  3 31 17 46 15.0000000  0  9G03G06G09G14G18G19G21G22G27         
  22873233.156 6   5134831.830 6   4020548.10547  22873226.51247
  23020186.859 6   5730552.643 6   4474144.41147  23020180.09847
  22649947.500 6  -2719675.389 6  -2103687.45947  22649940.85547
  20545686.320 7  -9101963.891 7  -7053379.77948  20545677.27348
  21525588.203 7   4246836.088 7   3316311.05748  21525578.57048
  22630388.070 6  -5118597.037 6  -3958330.91148  22630377.73448
  22990688.906 6   9981543.794 6   7777230.65946  22990682.20346
  20541866.961 7  -1799371.262 7  -1380874.00149  20541854.86749
  24500680.602 4   4193819.992 4   3272917.52246  24500674.19146
 11  3 31 17 46 30.0000000  0 10G03G06G09G14G18G19G21G22G27G31      
  22879753.203 6   5169091.461 6   4047243.87247  22879745.73847
  23026791.063 6   5765254.307 6   4501184.60747  23026784.06647
  22652219.734 6  -2707737.183 6  -2094384.97847  22652212.62147
  20542360.344 7  -9119443.044 7  -7066999.88848  20542350.71148
  21529773.141 7   4268825.434 7   3333445.58648  21529763.74248
  22630421.000 6  -5118426.182 6  -3958197.79148  22630410.84048
  22999786.172 6  10029348.724 6   7814481.15547  22999779.87947
  20542188.086 7  -1797682.772 7  -1379558.31049  20542176.16849
  24506609.867 4   4224978.785 4   3297197.04546  24506603.57446
  25478628.72713   -999129.17613   -744617.83955  25478629.23055
 11  3 31 17 46 45.0000000  0 11G03G06G09G11G14G18G19G21G22G27G31   
  22886287.688 6   5203431.979 6   4074002.66547  22886280.86747
  23033407.758 6   5800026.367 6   4528279.67347  23033400.64547
  22654521.977 6  -2695637.942 6  -2084957.02347  22654515.39147
  25073553.14111   -576899.09211                
  20539056.445 7  -9136803.965 7  -7080527.88248  20539047.16448
  21533965.156 7   4290857.136 7   3350613.12848  21533955.81648
  22630479.242 6  -5118118.179 6  -3957957.80948  22630469.25848
  23008895.992 6  10077219.347 6   7851782.87147  23008888.87947
  20542520.078 7  -1795938.762 7  -1378199.34849  20542508.10249
  24512556.836 4   4256235.173 4   3321552.59846  24512551.83246
  25468479.070 3  -1052467.745 3   -786180.32145  25468479.22345
 11  3 31 17 47  0.0000000  0 10G03G06G09G14G18G19G21G22G27G31      
  22892839.813 6   5237863.318 6   4100832.22947  22892833.05147
  23040039.836 6   5834878.631 6   4555437.22047  23040033.42647
  22656857.539 6  -2683367.469 6  -2075395.65347  22656849.72347
  20535777.195 7  -9154036.397 7  -7093955.74648  20535768.09048
  21538167.914 7   4312941.469 7   3367821.67748  21538158.16448
  22630566.375 6  -5117662.776 6  -3957602.97548  22630555.98048
  23018019.891 6  10125165.966 6   7889143.78446  23018012.77746
  20542864.266 7  -1794129.020 7  -1376789.16149  20542852.58249
  24518525.438 4   4287599.160 4   3345992.01846  24518519.90646
  25458323.828 4  -1105835.293 4   -827765.39146  25458323.39546
 11  3 31 17 47 15.0000000  0 11G03G06G09G11G14G18G19G21G22G27G31   
  22899406.648 6   5272369.807 6   4127720.35847  22899399.35947
  23046684.117 6   5869795.548 6   4582645.14947  23046677.76647
  22659221.648 5  -2670941.229 5  -2065712.89447  22659214.35947
  25053958.59411   -466891.93711                
  20532519.609 7  -9171155.633 7  -7107295.40548  20532510.44548
  21542377.633 7   4335063.253 7   3385059.40648  21542368.23448
  22630678.188 6  -5117075.356 6  -3957145.25548  22630667.96948
  23027155.008 6  10173172.724 6   7926551.57847  23027147.77747
  20543218.477 7  -1792268.948 7  -1375339.76649  20543206.91049
  24524511.445 3   4319055.144 3   3370503.15246  24524505.79746
  25448159.711 3  -1159247.011 3   -869384.84146  25448159.27746
 11  3 31 17 47 30.0000000  0 11G03G06G09G11G14G18G19G21G22G27G31   
  22905989.039 6   5306963.117 6   4154676.12847  22905982.04347
  23053343.648 6   5904789.037 6   4609912.74247  23053337.12147
  22661617.969 6  -2658347.013 6  -2055899.24347  22661611.20747
  25044173.852 4   -518321.251 4                
  20529285.578 7  -9188149.391 7  -7120537.28948  20529276.12148
  21546596.711 7   4357234.670 7   3402335.80948  21546587.31348
  22630817.336 7  -5116343.674 7  -3956575.12948  22630806.59048
  23036304.477 6  10221251.737 6   7964015.66647  23036297.36347
  20543584.367 7  -1790346.140 7  -1373841.49049  20543572.56649
  24530517.633 4   4350615.172 4   3395095.32246  24530512.04346
  25437990.578 4  -1212690.267 4   -911028.89145  25437988.62145
 11  3 31 17 47 45.0000000  0 11G03G06G09G11G14G18G19G21G22G27G31   
  22912587.961 6   5341638.217 6   4181695.64347  22912580.73047
  23060015.492 6   5939853.972 6   4637236.01047  23060009.25847
  22664046.031 6  -2645589.617 6  -2045958.45047  22664038.85947
  25034392.914 4   -569717.114 4                
  20526074.867 7  -9205022.434 7  -7133685.11348  20526065.35248
  21550824.141 7   4379450.885 7   3419647.11348  21550815.03548
  22630983.063 6  -5115472.593 6  -3955896.37948  22630972.60948
  23045465.953 6  10269398.050 6   8001532.17946  23045459.66046
  20543961.219 7  -1788365.290 7  -1372297.97849  20543949.18449
  24536541.719 4   4382274.313 4   3419764.73246  24536536.94946
  25427814.008 5  -1266169.502 5   -952700.89646  25427811.52346
 11  3 31 17 48  0.0000000  0 11G03G06G09G11G14G18G19G21G22G27G31   
  22919201.758 6   5376395.500 6   4208779.19247  22919194.70347
  23066701.992 6   5974990.676 6   4664615.21147  23066695.58247
  22666504.844 6  -2632668.467 6  -2035890.06447  22666497.90647
  25024619.070 5   -621078.821 5                
  20522887.047 7  -9221773.934 7  -7146738.22248  20522878.17648
  21555060.742 7   4401712.627 7   3436993.90148  21555050.93448
  22631175.266 6  -5114461.560 6  -3955108.58048  22631165.16448
  23054642.000 6  10317612.243 6   8039101.58847  23054634.71147
  20544349.102 7  -1786325.748 7  -1370708.73249  20544337.41849
  24542585.445 4   4414032.993 4   3444511.68546  24542580.20746
  25417630.438 5  -1319683.780 5   -994400.25646  25417627.54346
 11  3 31 17 48 15.0000000  0 11G03G06G09G11G14G18G19G21G22G27G31   
  22925831.547 6   5411234.044 6   4235926.05847  22925824.66847
  23073402.063 6   6010198.392 6   4692049.72847  23073395.35947
  22668994.734 6  -2619584.115 6  -2025694.48347  22668987.56347
  25014849.680 3   -672406.223 3                
  20519722.781 7  -9238404.482 7  -7159697.08948  20519713.26648
  21559305.867 7   4424019.373 7   3454375.75648  21559295.94148
  22631394.813 6  -5113311.117 6  -3954212.14448  22631384.00848
  23063829.195 6  10365893.455 6   8076723.23446  23063822.37546
  20544748.211 7  -1784228.073 7  -1369074.18449  20544736.52749
  24548647.883 3   4445890.544 3   3469335.71646  24548642.11746
  25407440.578 5  -1373233.350 5  -1036127.11246  25407437.85946
 11  3 31 17 48 30.0000000  0 11G03G06G09G11G14G18G19G21G22G27G31   
  22932476.211 6   5446153.916 6   4263136.29147  22932469.97747
  23080115.680 6   6045476.993 6   4719539.50047  23080109.21147
  22671515.500 6  -2606336.315 6  -2015371.55447  22671508.27047
  25005090.180 5   -723698.790 5                
  20516580.734 7  -9254913.718 7  -7172561.42948  20516571.98048
  21563558.711 7   4446371.622 7   3471793.06848  21563549.60548
  22631639.438 6  -5112020.925 6  -3953206.81348  22631629.51248
  23073028.961 6  10414241.791 6   8114397.17146  23073022.19946
  20545158.836 7  -1782071.845 7  -1367394.01149  20545147.03549
  24554728.758 4   4477846.985 4   3494236.79846  24554723.40246
  25397244.078 6  -1426817.518 6  -1077880.97446  25397241.30146
 11  3 31 17 48 45.0000000  0 11G03G06G09G11G14G18G19G21G22G27G31   
  22939137.109 6   5481154.407 6   4290409.35447  22939129.99647
  23086842.070 6   6080826.034 6   4747084.14147  23086835.77747
  22674067.820 6  -2592925.341 6  -2004921.46347  22674060.59047
  24995335.945 4   -774956.550 4                
  20513462.359 7  -9271301.815 7  -7185331.36848  20513453.31348
  21567820.453 7   4468769.022 7   3489245.56548  21567811.75848
  22631911.664 6  -5110591.129 6  -3952092.70348  22631901.09448
  23082242.055 6  10462656.863 6   8152123.10746  23082235.70346
  20545580.313 7  -1779857.258 7  -1365668.37949  20545568.74649
  24560828.039 4   4509901.912 4   3519214.62046  24560823.03546
  25387040.758 5  -1480436.293 5  -1119661.81246  25387038.62546
 11  3 31 17 49  0.0000000  0 11G03G06G09G11G14G18G19G21G22G27G31   
  22945812.469 6   5516235.103 6   4317744.90547  22945805.82447
  23093582.594 6   6116245.135 6   4774683.38247  23093575.83247
  22676650.914 6  -2579351.436 6  -1994344.42847  22676643.80147
  24985588.258 5   -826179.355 5                
  20510366.938 7  -9287568.849 7  -7198006.97348  20510357.65648
  21572091.594 7   4491211.431 7   3506733.13248  21572082.07848
  22632210.742 6  -5109022.044 6  -3950870.05548  22632200.05548
  23091468.563 6  10511138.500 6   8189900.92946  23091461.21546
  20546012.688 7  -1777584.518 7  -1363897.41649  20546000.88749
  24566947.414 4   4542054.942 4   3544268.86746  24566942.46946
  25376830.547 6  -1534089.523 6  -1161469.49347  25376828.82447
 11  3 31 17 49 15.0000000  0 11G03G06G09G11G14G18G19G21G22G27G31   
  22952503.453 6   5551395.579 6   4345142.63347  22952496.39847
  23100335.570 6   6151733.767 6   4802336.79847  23100328.92647
  22679265.164 6  -2565614.693 6  -1983640.48947  22679258.05147
  24975848.211 5   -877366.896 5                
  20507294.172 7  -9303715.008 7  -7210588.39248  20507284.77348
  21576371.000 7   4513698.851 7   3524255.76848  21576361.71948
  22632535.805 6  -5107313.705 6  -3949538.89348  22632525.11748
  23100706.898 6  10559686.358 6   8227730.34346  23100700.31346
  20546456.281 7  -1775253.615 7  -1362081.13549  20546444.30549
  24573084.219 4   4574305.826 4   3569399.38946  24573079.15646
  25366613.664 5  -1587776.902 5  -1203303.78946  25366612.17646
 11  3 31 17 49 30.0000000  0 11G03G06G09G11G14G18G19G21G22G27G31   
  22959209.219 6   5586635.812 6   4372602.49247  22959202.75047
  23107102.336 6   6187291.890 6   4830044.37147  23107095.28147
  22681910.070 6  -2551714.900 6  -1972809.50247  22681903.30947
  24966114.867 5   -928518.456 5                
  20504244.766 7  -9319739.727 7  -7223075.18848  20504235.42648
  21580659.055 7   4536231.646 7   3541813.76548  21580649.18848
  22632887.648 6  -5105465.821 6  -3948098.99248  22632876.49248
  23109958.148 6  10608300.622 6   8265611.50547  23109951.03547
  20546910.852 7  -1772864.153 7  -1360219.23049  20546899.16849
  24579240.578 4   4606654.674 4   3594606.23746  24579235.34046
  25356390.797 5  -1641497.789 5  -1245164.20046  25356389.42646
 11  3 31 17 49 45.0000000  0 11G03G06G09G11G14G18G19G21G22G27G31   
  22965930.391 6   5621954.942 6   4400123.83747  22965923.62947
  23113881.852 6   6222918.816 6   4857805.56347  23113874.91447
  22684585.805 6  -2537652.605 6  -1961851.90047  22684578.63347
  24956388.391 6   -979634.400 6                
  20501218.633 6  -9335643.550 6  -7235467.77648  20501209.29348
  21584955.289 7   4558809.255 7   3559406.67748  21584945.83248
  22633265.695 6  -5103479.008 6  -3946550.83947  22633254.83247
  23119221.852 6  10656980.560 6   8303543.82847  23119214.68047
  20547376.875 7  -1770416.545 7  -1358312.00849  20547364.84049
  24585414.258 3   4639100.708 3   3619888.81746  24585409.60546
  25346160.984 6  -1695252.267 6  -1287050.76946  25346160.14146
 11  3 31 17 50  0.0000000  0 11G03G06G09G11G14G18G19G21G22G27G31   
  22972666.766 6   5657353.008 6   4427706.69347  22972659.41847
  23120674.359 5   6258614.605 5   4885620.39547  23120667.94947
  22687293.141 6  -2523427.467 6  -1950767.40947  22687285.85247
  24946668.555 6  -1030713.923 6                
  20498215.258 6  -9351426.053 6  -7247765.82548  20498205.85948
  21589260.383 7   4581432.165 7   3577034.89748  21589250.63348
  22633669.797 6  -5101352.908 6  -3944894.14848  22633659.87148
  23128497.977 6  10705726.443 6   8341527.55347  23128490.57047
  20547853.672 7  -1767910.472 7  -1356359.24049  20547842.16449
  24591607.180 3   4671644.137 3   3645247.25546  24591602.35246
  25335925.148 5  -1749039.643 5  -1328962.95246  25335925.00846
 11  3 31 17 50 15.0000000  0 11G03G06G09G11G14G18G19G21G22G27G31   
  22979417.695 6   5692829.462 6   4455350.64247  22979410.17247
  23127480.305 6   6294378.726 6   4913488.48047  23127473.66047
  22690031.055 6  -2509039.736 6  -1939556.20347  22690023.35547
  24936953.688 5  -1081756.824 5                
  20495234.945 6  -9367087.477 6  -7259969.52448  20495225.72348
  21593574.211 7   4604100.224 7   3594698.28548  21593564.28548
  22634101.234 6  -5099087.792 6  -3943129.14648  22634090.72348
  23137786.281 6  10754537.967 6   8379562.41047  23137779.10947
  20548341.320 7  -1765346.086 7  -1354361.02249  20548329.98849
  24597818.750 4   4704284.534 4   3670681.28346  24597813.62946
  25325683.398 6  -1802859.827 6  -1370900.73347  25325682.84847
 11  3 31 17 50 30.0000000  0 11G03G06G09G11G14G18G19G21G22G27G31   
  22986183.281 6   5728384.118 6   4483055.51147  22986176.75447
  23134299.172 6   6330210.791 6   4941409.50247  23134291.82447
  22692799.422 6  -2494489.565 6  -1928218.44147  22692792.54347
  24927249.398 6  -1132762.840 6                
  20492277.484 6  -9382627.657 6  -7272078.75248  20492268.43848
  21597896.211 7   4626813.406 7   3612396.84848  21597886.81348
  22634559.063 6  -5096683.642 6  -3941255.79348  22634547.84848
  23147086.977 6  10803414.825 6   8417648.18846  23147080.33246
  20548840.742 7  -1762723.437 7  -1352317.40849  20548828.88349
  24604048.234 3   4737021.746 3   3696190.75846  24604042.87946
  25315436.211 5  -1856712.594 5  -1412863.86246  25315435.48446
 11  3 31 17 50 45.0000000  0 11G03G06G09G11G14G18G19G21G22G27G31   
  22992963.883 6   5764016.690 6   4510821.10047  22992956.88747
  23141130.141 6   6366110.539 6   4969383.27447  23141124.31647
  22695599.250 6  -2479777.149 6  -1916754.23347  22695591.96147
  24917547.367 5  -1183731.731 5  -3554334.60755  24917539.02355
  20489343.445 7  -9398046.713 7  -7284093.60448  20489334.16448
  21602226.984 7   4649571.670 7   3630130.52848  21602217.52748
  22635042.664 6  -5094140.572 6  -3939274.18748  22635031.97748
  23156400.211 6  10852356.651 6   8455784.57546  23156393.80146
  20549351.008 7  -1760042.436 7  -1350228.32849  20549339.26649
  24610296.773 3   4769855.476 3   3721775.41046  24610291.53546
  25305182.023 6  -1910597.447 6  -1454852.02647  25305182.58647
 11  3 31 17 51  0.0000000  0 11G03G06G09G11G14G18G19G21G22G27G31   
  22999759.383 6   5799726.854 6   4538647.14947  22999752.68047
  23147974.742 6   6402077.796 6   4997409.64747  23147968.03947
  22698429.523 6  -2464902.122 6  -1905163.32347  22698422.87947
  24907856.414 5  -1234662.824 5  -3594021.20646  24907847.60246
  20486432.688 7  -9413344.319 7  -7296013.81348  20486423.46548
  21606566.273 7   4672375.275 7   3647899.54748  21606556.75848
  22635552.555 6  -5091458.390 6  -3937184.19448  22635542.62948
  23165726.023 6  10901363.420 6   8493971.57546  23165719.32046
  20549872.320 7  -1757302.898 7  -1348093.63249  20549860.63749
  24616562.359 4   4802785.794 4   3747435.34346  24616557.94146
  25294922.508 5  -1964513.837 5  -1496864.76747  25294922.95347
 11  3 31 17 51 15.0000000  0 11G03G06G09G11G14G18G19G21G22G27G31   
  23006569.453 6   5835513.773 6   4566532.99947  23006562.80947
  23154832.164 6   6438111.851 6   5025488.07847  23154824.93447
  22701291.672 6  -2449865.114 6  -1893446.19147  22701284.20747
  24898172.406 6  -1285556.520 6  -3633678.61746  24898163.53546
  20483544.625 7  -9428520.903 7  -7307839.71348  20483535.16848
  21610914.484 7   4695223.620 7   3665703.42248  21610904.55948
  22636090.273 6  -5088637.685 6  -3934986.26848  22636079.23448
  23175064.961 6  10950434.820 6   8532208.92346  23175057.32046
  20550404.734 7  -1754505.258 7  -1345913.66249  20550392.81649
  24622847.602 3   4835812.019 3   3773170.01746  24622842.18846
  25284656.188 6  -2018462.027 6  -1538902.29947  25284656.80947
 11  3 31 17 51 30.0000000  0 11G03G06G09G11G14G18G19G21G22G27G31   
  23013393.781 6   5871376.920 6   4594478.24447  23013387.07847
  23161701.102 6   6474212.111 6   5053618.10047  23161695.16047
  22704183.773 6  -2434666.395 6  -1881603.05447  22704176.19147
  24888495.102 6  -1336412.591 6  -3673306.75046  24888486.34846
  20480679.570 7  -9443576.589 7  -7319571.42148  20480670.05548
  21615270.336 7   4718116.759 7   3683542.20848  21615261.28948
  22636652.922 6  -5085678.677 6  -3932680.55248  22636642.23448
  23184414.539 6  10999570.255 6   8570496.20146  23184407.13346
  20550948.141 7  -1751649.558 7  -1343688.45749  20550936.22349
  24629150.859 3   4868933.695 3   3798979.03546  24629145.09446
  25274384.188 6  -2072441.839 6  -1580964.50047  25274385.10547
 11  3 31 17 51 45.0000000  0 11G03G06G09G11G14G18G19G21G22G27G31   
  23020233.242 6   5907316.213 6   4622482.83447  23020226.53947
  23168584.477 6   6510378.650 6   5081799.75247  23168577.59847
  22707106.742 6  -2419305.743 6  -1869633.74447  22707099.74647
  24878825.289 6  -1387230.334 6  -3712904.97646  24878816.47746
  20477837.742 7  -9458511.128 7  -7331208.72249  20477828.40249
  21619635.484 7   4741055.041 7   3701416.16348  21619625.91048
  22637242.281 6  -5082580.985 6  -3930266.78548  22637231.65248
  23193777.016 6  11048770.009 6   8608833.57846  23193770.78146
  20551502.328 7  -1748735.543 7  -1341417.79749  20551490.87949
  24635472.656 3   4902150.958 3   3824862.57146  24635466.77346
  25264106.547 6  -2126452.493 6  -1623050.71947  25264106.75847
 11  3 31 17 52  0.0000000  0 11G03G06G09G11G14G18G19G21G22G27G31   
  23027086.797 6   5943331.400 6   4650546.56147  23027079.50847
  23175478.813 6   6546611.017 6   5110032.70647  23175472.28547
  22710060.641 6  -2403783.437 6  -1857538.45747  22710053.41047
  24869163.203 6  -1438009.672 6  -3752473.32246  24869153.45346
  20475018.711 7  -9473324.683 7  -7342751.74848  20475009.25448
  21624009.141 7   4764038.194 7   3719325.08548  21623999.74248
  22637858.063 6  -5079344.934 6  -3927745.20848  22637848.02048
  23203150.914 6  11098033.607 6   8647220.69946  23203145.61746
  20552068.250 7  -1745763.302 7  -1339101.78149  20552056.50849
  24641810.953 4   4935463.526 4   3850820.35746  24641805.65646
  25253822.945 6  -2180493.897 6  -1665160.90647  25253822.33647
 11  3 31 17 52 15.0000000  0 11G03G06G09G11G14G18G19G21G22G27G31   
  23033954.945 6   5979421.843 6   4678668.93247  23033947.77347
  23182386.406 6   6582908.701 6   5138316.54947  23182379.99647
  22713045.250 6  -2388099.775 6  -1845317.43847  22713037.84447
  24859506.617 6  -1488750.490 6  -3792011.59446  24859497.10246
  20472222.641 7  -9488017.374 7  -7354200.59649  20472213.47749
  21628391.586 7   4787066.199 7   3737268.95048  21628381.89548
  22638500.383 6  -5075970.741 6  -3925115.98148  22638489.87148
  23212538.219 6  11147360.627 6   8685657.25946  23212531.57446
  20552644.820 7  -1742733.005 7  -1336740.51749  20552632.84449
  24648168.477 4   4968870.852 4   3876852.00146  24648162.82846
  25243534.258 5  -2234565.870 5  -1707294.93047  25243531.71547
 11  3 31 17 52 30.0000000  0 11G03G06G09G11G14G18G19G21G22G27G31   
  23040836.938 6   6015587.898 6   4706850.22947  23040829.82447
  23189306.031 6   6619272.033 6   5166651.55747  23189299.50447
  22716060.430 6  -2372253.945 6  -1832970.05147  22716053.60947
  24849858.430 5  -1539451.596 5  -3831518.96046  24849848.97346
  20469449.984 7  -9502588.242 7  -7365554.51548  20469440.87948
  21632782.320 7   4810139.778 7   3755248.34348  21632772.68848
  22639168.750 6  -5072457.569 6  -3922378.46448  22639158.47348
  23221937.055 6  11196751.831 6   8724143.81246  23221930.35246
  20553232.945 7  -1739643.697 7  -1334333.27549  20553221.20349
  24654544.055 4   5002373.537 4   3902957.94746  24654538.05546
  25233239.031 6  -2288667.280 6  -1749451.83546  25233236.07846
 11  3 31 17 52 45.0000000  0 11G03G06G09G11G14G18G19G21G22G27G31   
  23047733.125 6   6051828.397 6   4735089.51947  23047726.24647
  23196237.445 6   6655700.095 6   5195037.00347  23196231.32847
  22719106.555 6  -2356246.711 6  -1820496.91047  22719099.14847
  24840216.945 5  -1590113.223 5  -3870995.56346  24840208.60246
  20466700.086 7  -9517038.197 7  -7376814.21848  20466690.62948
  21637181.453 7   4833258.212 7   3773262.67448  21637171.87948
  22639863.281 6  -5068806.296 6  -3919533.34148  22639853.29748
  23231348.453 5  11246206.142 5   8762679.53846  23231342.21946
  20553831.453 7  -1736496.211 7  -1331880.70149  20553819.65249
  24660937.375 2   5035970.537 2   3929137.36946  24660931.37546
  25222938.398 5  -2342798.503 5  -1791631.97147  25222935.27047
 11  3 31 17 53  0.0000000  0 11G03G06G09G11G14G18G19G21G22G27G31   
  23054643.539 6   6088142.415 6   4763386.10747  23054636.66047
  23203182.711 6   6692191.890 6   5223472.09947  23203175.36347
  22722183.023 6  -2340078.907 6  -1807898.65047  22722176.08647
  24830583.797 5  -1640735.928 5  -3910441.84446  24830575.10246
  20463973.820 7  -9531367.832 7  -7387980.16948  20463964.01248
  21641589.078 7   4856420.946 7   3791311.53148  21641579.56348
  22640584.414 6  -5065017.548 6  -3916581.08848  22640573.90248
  23240770.227 5  11295722.790 5   8801263.83146  23240764.98846
  20554441.547 7  -1733291.107 7  -1329383.22649  20554429.74649
  24667348.258 3   5069661.229 3   3955389.83746  24667342.19946
  25212631.516 5  -2396959.773 5  -1833835.48246  25212628.62146
 11  3 31 17 53 15.0000000  0 11G03G06G09G11G14G18G19G21G22G27G31   
  23061568.422 6   6124531.235 6   4791740.96747  23061561.19147
  23210138.961 6   6728748.832 6   5251957.97147  23210132.08247
  22725290.219 6  -2323749.032 6  -1795174.09947  22725283.45747
  24820958.305 5  -1691317.710 5  -3949856.20146  24820950.13746
  20461270.055 7  -9545575.321 7  -7399050.93948  20461260.42248
  21646006.109 7   4879629.666 7   3809396.22148  21645995.89148
  22641332.070 6  -5061089.775 6  -3913520.50148  22641321.79348
  23250206.484 6  11345303.235 6   8839897.84246  23250199.66446
  20555062.602 7  -1730026.670 7  -1326839.51949  20555051.03549
  24673777.063 4   5103446.979 4   3981716.33345  24673771.94145
  25202319.086 5  -2451149.163 5  -1876060.93046  25202317.89146
 11  3 31 17 53 30.0000000  0 11G03G06G09G11G14G18G19G21G22G27G31   
  23068506.313 6   6160993.706 6   4820153.21947  23068500.07847
  23217107.195 6   6765369.465 6   5280493.47347  23217101.43047
  22728428.672 6  -2307258.120 6  -1782324.05247  22728421.85247
  24811341.742 5  -1741859.221 5  -3989239.20246  24811332.10946
  20458589.531 7  -9559661.775 7  -7410027.39148  20458579.89848
  21650430.797 7   4902883.362 7   3827515.95348  21650421.22348
  22642105.938 6  -5057024.099 6  -3910352.45848  22642095.42648
  23259652.367 6  11394946.311 6   8878580.65546  23259645.95746
  20555695.086 7  -1726703.937 7  -1324250.38449  20555683.46149
  24680225.023 3   5137326.471 3   4008115.92446  24680219.25846
  25192000.703 3  -2505367.278 3  -1918308.73346  25191999.85946
 11  3 31 17 53 45.0000000  0 11G03G06G09G11G14G18G19G21G22G27G31   
  23075459.148 6   6197529.581 6   4848622.68047  23075452.68047
  23224088.031 6   6802053.613 6   5309078.46847  23224081.79747
  22731597.219 6  -2290606.146 6  -1769348.50547  22731590.28147
  24801730.641 5  -1792360.259 5  -4028590.65546  24801722.41446
  20455931.758 6  -9573627.058 6  -7420909.42448  20455922.47748
  21654864.453 7   4926182.138 7   3845670.81048  21654855.17248
  22642905.250 6  -5052820.448 6  -3907076.90448  22642895.09048
  23269111.391 6  11444651.947 6   8917312.23546  23269104.04346
  20556338.242 7  -1723322.751 7  -1321615.70149  20556326.73449
  24686688.727 4   5171299.602 4   4034588.45646  24686683.43046
  25181677.844 3  -2559613.682 3  -1960578.63446  25181677.52746
 11  3 31 17 54  0.0000000  0 11G03G06G09G11G14G18G19G21G22G27G31   
  23082425.859 6   6234137.891 6   4877148.56047  23082419.09847
  23231080.938 6   6838800.493 6   5337712.33647  23231074.23447
  22734796.906 6  -2273793.851 6  -1756248.03647  22734789.26647
  24792128.953 5  -1842820.744 5  -4067910.49346  24792119.55546
  20453297.125 7  -9587471.680 7  -7431697.44148  20453287.90248
  21659306.438 7   4949525.565 7   3863860.47748  21659296.98048
  22643731.750 6  -5048479.408 6  -3903694.30148  22643721.18048
  23278581.438 6  11494419.463 6   8956092.02346  23278574.91046
  20556993.156 7  -1719883.724 7  -1318935.95549  20556981.29749
  24693172.141 3   5205365.676 3   4061133.43046  24693166.31646
  25171349.273 2  -2613888.665 2  -2002870.74946  25171349.54346
 11  3 31 17 54 15.0000000  0 11G03G06G09G11G14G18G19G21G22G27G31   
  23089406.188 6   6270818.802 6   4905731.04047  23089399.36747
  23238085.914 6   6875610.270 6   5366395.20747  23238079.32847
  22738026.383 6  -2256820.662 6  -1743022.19847  22738019.44547
  24782534.414 4  -1893239.863 4  -4107198.14546  24782525.25046
  20450685.461 7  -9601195.073 7  -7442390.99548  20450676.47348
  21663757.305 7   4972914.179 7   3882085.34548  21663747.84848
  22644584.219 6  -5044000.510 6  -3900204.26348  22644573.53148
  23288064.211 6  11544249.073 6   8994920.20146  23288057.80146
  20557658.391 7  -1716386.099 7  -1316210.54249  20557646.76649
  24699672.969 4   5239524.908 4   4087750.96646  24699666.50046
  25161017.234 2  -2668191.359 2  -2045184.47046  25161016.27346
 11  3 31 17 54 30.0000000  0 11G03G06G09G11G14G18G19G21G22G27G31   
  23096399.969 6   6307571.598 6   4934369.52247  23096393.32447
  23245102.227 6   6912482.174 6   5395126.50847  23245095.69947
  22741287.133 6  -2239687.151 6  -1729671.43647  22741279.84447
  24772947.977 4  -1943617.690 4  -4146453.55646  24772938.69546
  20448097.398 7  -9614797.788 7  -7452990.50448  20448087.94148
  21668216.508 7   4996347.459 7   3900345.00848  21668207.34448
  22645462.594 6  -5039384.216 6  -3896607.17748  22645451.84848
  23297558.594 6  11594140.204 6   9033796.31346  23297551.77346
  20558335.172 7  -1712830.348 7  -1313439.83049  20558323.48849
  24706190.359 4   5273776.698 4   4114440.62046  24706184.71146
  25150678.531 2  -2722521.524 2  -2087519.59545  25150676.63345
 11  3 31 17 54 45.0000000  0 11G03G06G09G11G14G18G19G21G22G27G31   
  23103406.984 6   6344396.129 6   4963063.91147  23103400.57447
  23252131.086 6   6949416.150 6   5423906.17047  23252124.20747
  22744578.492 6  -2222393.237 6  -1716195.68647  22744571.37947
  24763368.969 4  -1993953.821 4  -4185676.49546  24763360.09846
  20445532.242 7  -9628279.443 7  -7463495.69348  20445522.37548
  21672684.328 7   5019825.752 7   3918639.76248  21672674.75448
  22646367.188 6  -5034630.421 6  -3892902.92648  22646356.85248
  23307064.227 6  11644092.938 6   9072720.42646  23307057.05546
  20559023.133 7  -1709216.154 7  -1310623.59149  20559011.21549
  24712724.602 3   5308121.114 3   4141202.49046  24712720.24246
  25140335.711 2  -2776878.944 2  -2129875.90345  25140332.99245
 11  3 31 17 55  0.0000000  0 11G03G06G09G11G14G18G19G21G22G27G31   
  23110428.664 6   6381292.181 6   4991814.02247  23110421.31647
  23259170.938 6   6986411.901 6   5452733.97347  23259164.29347
  22747900.266 6  -2204939.002 6  -1702595.00647  22747892.50847
  24753798.867 3  -2044247.688 3  -4224866.49945  24753789.58645
  20442989.469 7  -9641639.878 7  -7473906.41748  20442979.95348
  21677160.539 7   5043349.093 7   3936969.62548  21677151.19948
  22647298.102 6  -5029739.183 6  -3889091.59348  22647287.94148
  23316581.547 5  11694106.974 5   9111692.30146  23316574.78546
  20559721.695 7  -1705543.458 7  -1307761.74949  20559710.12949
  24719277.289 3   5342557.953 3   4168036.34846  24719273.39846
  25129986.750 1  -2831263.117 1  -2172253.11345  25129982.44945
 11  3 31 17 55 15.0000000  0 11G03G06G09G11G14G18G19G21G22G27G31   
  23117463.336 6   6418259.373 6   5020619.55647  23117456.34047
  23266222.594 6   7023469.129 6   5481609.65947  23266216.47747
  22751251.492 6  -2187324.490 6  -1688869.42347  22751244.84847
  24744235.664 4  -2094499.169 4  -4264023.47545  24744226.91045
  20440470.188 7  -9654879.201 7  -7484222.76448  20440460.67248
  21681645.453 7   5066917.579 7   3955334.64248  21681636.05548
  22648255.031 6  -5024710.477 6  -3885173.14348  22648244.87148
  23326110.125 5  11744182.186 5   9150711.84946  23326104.06646
  20560431.867 7  -1701812.157 7  -1304854.26249  20560420.30149
  24725849.313 4   5377086.901 4   4194942.01246  24725844.19146
  25119632.383 1  -2885673.762 1  -2214650.97045  25119627.49645
 11  3 31 17 55 30.0000000  0 11G03G06G09G11G14G18G19G21G22G27G31   
  23124510.930 6   6455297.022 6   5049480.00947  23124504.57847
  23273286.023 6   7060587.269 6   5510532.82347  23273279.61347
  22754633.734 6  -2169549.924 6  -1675019.13347  22754626.91447
  24734681.227 3  -2144708.084 3  -4303147.29046  24734672.70746
  20437973.797 7  -9667997.462 7  -7494444.78348  20437964.10548
  21686139.039 7   5090531.056 7   3973734.73048  21686129.28948
  22649238.391 6  -5019544.471 6  -3881147.69948  22649227.82048
  23335650.797 5  11794318.346 5   9189778.89046  23335644.09446
  20561153.156 7  -1698022.388 7  -1301901.19749  20561141.47349
  24732437.922 4   5411707.610 4   4221919.13346  24732432.62546
  25109273.38311  -4515530.60711  -3484669.09955  25109268.02755
 11  3 31 17 55 45.0000000  0 11G03G06G09G11G14G18G19G21G22G27G31   
  23131572.750 6   6492404.870 6   5078395.15247  23131566.16447
  23280361.000 6   7097766.051 6   5539503.24347  23280354.23847
  22758046.453 6  -2151615.578 6  -1661044.33347  22758039.63347
  24725134.734 3  -2194874.006 3  -4342237.58345  24725125.68845
  20435500.875 7  -9680994.859 7  -7504572.62448  20435490.94948
  21690641.281 7   5114189.424 7   3992169.79748  21690632.00048
  22650247.219 6  -5014241.446 6  -3877015.48848  22650236.82448
  23345203.648 5  11844515.053 5   9228893.10546  23345196.06646
  20561885.008 7  -1694174.361 7  -1298902.75049  20561873.61749
  24739043.234 5   5446419.697 5   4248967.48746  24739038.05546
  25098909.07811  -4569993.36911  -3527107.50355  25098903.72355
 11  3 31 17 56  0.0000000  0 11G03G06G09G11G14G18G19G21G22G27G31   
  23138647.492 6   6529583.047 6   5107365.11047  23138640.96547
  23287447.406 6   7135005.418 6   5568520.86547  23287440.87947
  22761489.641 6  -2133521.137 6  -1646944.78447  22761482.99647
  24715597.383 2  -2244996.334 2  -4381293.92445  24715587.92645
  20433050.242 7  -9693870.811 7  -7514605.83048  20433040.60948
  21695151.531 7   5137893.164 7   4010640.22248  21695142.01648
  22651281.945 6  -5008801.077 6  -3872776.26648  22651272.07848
  23354767.414 5  11894772.542 5   9268054.67146  23354760.00846
  20562628.500 7  -1690267.556 7  -1295858.49549  20562616.99249
  24745665.992 5   5481223.489 5   4276087.28946  24745660.63746
  25088539.48411  -4624481.39611  -3569565.64255  25088535.94555
 11  3 31 17 56 15.0000000  0 11G03G06G09G11G14G18G19G21G22G27G31   
  23145735.242 6   6566830.348 6   5136388.90547  23145729.24247
  23294544.727 6   7172304.473 6   5597585.01547  23294538.55147
  22764963.391 6  -2115267.374 6  -1632721.10247  22764956.51247
  24706067.055 2  -2295075.397 2  -4420316.50645  24706058.00845
  20430623.258 7  -9706626.092 7  -7524545.00848  20430613.62548
  21699671.109 7   5161641.540 7   4029145.42948  21699661.88748
  22652343.641 6  -5003224.178 6  -3868430.64647  22652332.95347
  23364342.063 6  11945089.866 6   9307262.88946  23364335.53546
  20563383.180 7  -1686302.537 7  -1292768.88449  20563371.49649
  24752306.938 5   5516118.037 5   4303277.81446  24752300.99646
  25078165.883 1  -4678994.852 1  -3612043.58145  25078162.98845
 11  3 31 17 56 30.0000000  0 11G03G06G09G11G14G18G19G21G22G27G31   
  23152836.820 6   6604146.549 6   5165466.41447  23152829.88347
  23301654.781 6   7209662.991 6   5626695.47347  23301648.07847
  22768467.000 6  -2096854.346 6  -1618373.30347  22768460.29747
  24696546.586 3  -2345110.821 3  -4459305.15545  24696536.77745
  20428218.922 7  -9719260.703 7  -7534390.15548  20428209.23048
  21704198.625 7   5185434.680 7   4047685.52348  21704189.34448
  22653431.164 6  -4997510.718 6  -3863978.61647  22653421.18047
  23373928.336 5  11995467.099 5   9346517.75646  23373922.57046
  20564148.758 7  -1682279.257 7  -1289633.86749  20564137.07449
  24758964.445 5   5551103.267 5   4330538.99946  24758958.27046
  25067787.406 1  -4733533.376 1  -3654541.00445  25067786.03545
 11  3 31 17 56 45.0000000  0 11G03G06G09G11G14G18G19G21G22G27G31   
  23159950.930 6   6641531.298 6   5194597.31347  23159944.28547
  23308774.773 6   7247080.568 6   5655851.97447  23308768.18847
  22772001.641 5  -2078282.073 5  -1603901.42447  22771994.52747
  24687033.828 3  -2395102.224 3  -4498259.49945  24687024.19545
  20425837.156 7  -9731774.498 7  -7544141.17048  20425827.64148
  21708734.945 7   5209272.668 7   4066260.54248  21708725.37148
  22654544.070 6  -4991660.664 6  -3859420.15348  22654533.61748
  23383526.852 5  12045903.883 5   9385819.07546  23383520.32446
  20564925.531 7  -1678197.657 7  -1286453.41049  20564914.02349
  24765639.266 5   5586178.779 5   4357870.53546  24765633.20746
  25057403.711 2  -4788096.474 2  -3697057.57645  25057404.33245
 11  3 31 17 57  0.0000000  0 11G03G06G09G11G14G18G19G21G22G27G31   
  23167077.844 6   6678984.642 6   5223781.68247  23167071.25847
  23315906.383 6   7284557.435 6   5685054.67447  23315899.50447
  22775566.266 6  -2059550.334 6  -1589305.28247  22775559.15247
  24677529.000 3  -2445048.834 3  -4537178.87445  24677519.77745
  20423479.461 7  -9744167.057 7  -7553797.70049  20423469.77049
  21713279.984 7   5233156.067 7   4084870.96848  21713270.58648
  22655683.648 6  -4985673.574 6  -3854754.91247  22655672.78547
  23393136.055 5  12096400.644 5   9425167.08346  23393130.28946
  20565713.578 7  -1674057.216 7  -1283227.10049  20565701.83649
  24772330.820 5   5621345.037 5   4385272.75946  24772325.17246
  25047015.977 2  -4842683.535 2  -3739592.88145  25047017.24645
 11  3 31 17 57 15.0000000  0 11G03G06G09G11G14G18G19G21G22G27G31   
  23174218.328 6   6716505.767 6   5253018.85847  23174211.56647
  23323049.438 6   7322092.626 6   5714302.80447  23323042.38347
  22779160.305 5  -2040659.756 5  -1574585.37247  22779153.71947
  24668032.805 3  -2494950.959 3  -4576063.66045  24668022.93845
  20421144.180 7  -9756439.085 7  -7563360.32148  20421134.60548
  21717833.398 7   5257084.248 7   4103516.28048  21717823.82448
  22656848.641 6  -4979550.223 6  -3849983.48947  22656838.18847
  23402756.148 5  12146956.512 5   9464561.17146  23402750.20746
  20566512.414 7  -1669858.509 7  -1279955.38949  20566500.90649
  24779039.391 5   5656601.070 5   4412744.95946  24779033.85946
  25036623.820 2  -4897294.826 2  -3782147.05845  25036624.50045
 11  3 31 17 57 30.0000000  0 11G03G06G09G11G14G18G19G21G22G27G31   
  23181371.000 6   6754094.673 6   5282308.84447  23181364.18047
  23330203.609 6   7359686.165 6   5743596.41447  23330196.67247
  22782785.844 6  -2021610.100 6  -1559741.49347  22782778.96547
  24658544.273 4  -2544807.924 4  -4614913.19646  24658535.81346
  20418831.313 7  -9768590.172 7  -7572828.69548  20418822.44148
  21722394.828 7   5281057.562 7   4122196.76048  21722385.95748
  22658039.852 6  -4973290.407 6  -3845105.73348  22658029.75048
  23412387.992 5  12197571.648 5   9504001.43646  23412381.81646
  20567322.852 7  -1665601.092 7  -1276637.92749  20567311.34449
  24785766.000 5   5691947.152 5   4440287.30346  24785760.87946
  25026227.242 3  -4951929.374 3  -3824719.32445  25026226.39845
 11  3 31 17 57 45.0000000  0 11G03G06G09G11G14G18G19G21G22G27G31   
  23188536.727 6   6791750.699 6   5311651.15347  23188530.25847
  23337367.625 6   7397337.598 6   5772935.14147  23337361.44947
  22786441.398 6  -2002401.714 6  -1544773.94647  22786434.28547
  24649065.422 4  -2594619.580 4  -4653727.48545  24649057.72345
  20416542.367 7  -9780620.350 7  -7582202.85948  20416532.96948
  21726965.734 7   5305075.734 7   4140912.19348  21726956.27748
  22659256.797 6  -4966894.405 6  -3840121.86247  22659247.16447
  23422031.117 5  12248245.561 5   9543487.49046  23422024.94146
  20568144.211 7  -1661285.261 7  -1273274.95849  20568132.41049
  24792508.531 5   5727382.652 5   4467899.35446  24792504.40646
  25015826.313 3  -5006586.958 3  -3867309.50845  25015823.77045
 11  3 31 17 58  0.0000000  0 11G03G06G09G11G14G18G19G21G22G27G31   
  23195714.828 6   6829473.874 6   5341045.75947  23195708.41847
  23344543.555 6   7435046.663 6   5802318.74447  23344537.02747
  22790126.883 6  -1983034.588 6  -1529682.69747  22790119.41847
  24639595.055 4  -2644385.284 4  -4692505.93546  24639587.41446
  20414276.141 7  -9792529.353 7  -7591482.60648  20414266.50848
  21731545.086 7   5329139.246 7   4159662.96248  21731535.51248
  22660500.219 6  -4960361.982 6  -3835031.68948  22660489.70748
  23431685.461 5  12298978.376 5   9583019.45346  23431680.04746
  20568976.547 7  -1656910.470 7  -1269866.03949  20568964.98049
  24799268.781 4   5762907.706 4   4495581.14346  24799264.24646
  25005420.328 3  -5061267.308 3  -3909917.43345  25005417.43445
 11  3 31 17 58 15.0000000  0 11G03G06G09G11G14G18G19G21G22G27G31   
  23202906.570 6   6867263.204 6   5370491.93647  23202899.80947
  23351730.438 6   7472812.743 6   5831746.80447  23351723.85247
  22793842.031 6  -1963509.302 6  -1514468.20547  22793835.21147
  24630134.445 5  -2694105.266 5  -4731248.76346  24630126.21946
  20412032.750 7  -9804317.797 7  -7600668.40248  20412023.17648
  21736132.258 7   5353247.613 7   4178448.67448  21736123.21148
  22661769.203 6  -4953693.856 6  -3829835.77747  22661758.45747
  23441350.070 5  12349769.293 5   9622596.68346  23441344.77346
  20569820.211 7  -1652477.456 7  -1266411.75649  20569808.41049
  24806046.383 5   5798521.490 5   4523332.10946  24806041.73046
  24995010.117 3  -5115970.329 3  -3952543.13545  24995006.16845
 11  3 31 17 58 30.0000000  0 11G03G06G09G11G14G18G19G21G22G27G31   
  23210109.781 6   6905118.679 6   5399989.63447  23210103.95747
  23358927.898 6   7510635.523 6   5861219.03647  23358921.72347
  22797588.070 6  -1943825.891 6  -1499130.49847  22797580.78147
  24620681.859 5  -2743779.235 5  -4769955.75045  24620673.51645
  20409812.391 7  -9815985.707 7  -7609760.28048  20409802.93448
  21740728.836 7   5377400.809 7   4197269.32448  21740719.32048
  22663063.563 6  -4946889.843 6  -3824533.96348  22663053.57848
  23451026.320 5  12400618.303 5   9662219.17246  23451021.08246
  20570674.695 7  -1647986.047 7  -1262911.96549  20570662.83649
  24812840.164 5   5834223.880 5   4551152.09246  24812835.27746
  24984596.703 4  -5170695.670 4  -3995186.20345  24984591.99245
 11  3 31 17 58 45.0000000  0 11G03G06G09G11G14G18G19G21G22G27G31   
  23217326.172 6   6943039.606 6   5429538.34947  23217319.52747
  23366135.391 6   7548514.396 6   5890734.95547  23366129.50847
  22801363.984 6  -1923984.575 6  -1483669.75847  22801357.16447
  24611238.523 5  -2793407.022 5  -4808626.72646  24611228.65646
  20407614.859 7  -9827533.282 7  -7618758.39048  20407605.52048
  21745333.586 7   5401598.565 7   4216124.69548  21745323.54348
  22664384.508 6  -4939950.211 6  -3819126.47948  22664374.34848
  23460714.320 5  12451524.921 5   9701886.57746  23460708.78946
  20571540.594 7  -1643436.284 7  -1259366.70249  20571528.91049
  24819651.875 5   5870014.467 5   4579040.80246  24819646.34446
  24974179.617 5  -5225443.297 5  -4037846.56545  24974174.14545
 11  3 31 17 59  0.0000000  0 12G03G06G09G11G14G18G19G21G22G24G27G31
  23224554.977 6   6981025.632 6   5459137.79347  23224547.86347
  23373354.695 6   7586449.141 6   5920294.43146  23373348.57846
  22805169.242 6  -1903985.426 6  -1468086.02447  22805162.48047
  24601803.492 5  -2842988.139 5  -4847261.34946  24601793.85946
  20405440.641 7  -9838960.312 7  -7627662.56548  20405431.06648
  21749946.875 7   5425841.234 7   4235015.05648  21749937.47748
  22665731.047 6  -4932875.179 6  -3813613.49247  22665720.41847
  23470412.586 6  12502489.049 6   9741598.77346  23470406.82046
  20572417.352 7  -1638828.164 7  -1255775.97349  20572406.02049
  25553086.14115    -72324.57115                
  24826478.906 5   5905893.115 5   4606998.14046  24826473.43446
  24963757.703 5  -5280212.641 5  -4080523.90245  24963752.93445
 11  3 31 17 59 15.0000000  0 12G03G06G09G11G14G18G19G21G22G24G27G31
  23231795.250 6   7019076.116 6   5488787.46247  23231789.13347
  23380583.820 6   7624439.113 6   5949896.94347  23380578.28947
  22809004.336 5  -1883829.031 5  -1452379.75347  22808997.69147
  24592377.805 5  -2892522.537 5  -4885859.59146  24592368.11346
  20403289.156 7  -9850267.209 7  -7636473.13248  20403279.87548
  21754568.430 7   5450128.400 7   4253940.09948  21754559.03148
  22667102.609 6  -4925665.151 6  -3807995.31348  22667092.74248
  23480122.023 5  12553510.068 5   9781355.29646  23480115.90646
  20573305.742 7  -1634161.883 7  -1252139.92249  20573293.88349
  25543315.922 5   -123665.586 5                
  24833323.594 5   5941859.181 5   4635023.58546  24833317.77046
  24953332.031 5  -5335003.706 5  -4123218.14645  24953327.26245
 11  3 31 17 59 30.0000000  0 12G03G06G09G11G14G18G19G21G22G24G27G31
  23239048.805 5   7057191.392 5   5518487.60947  23239042.39547
  23387824.039 6   7662484.795 6   5979542.86447  23387817.62947
  22812870.594 5  -1863514.681 5  -1436550.40647  22812863.42247
  24582960.453 5  -2942009.280 5  -4924420.66846  24582951.34846
  20401160.523 6  -9861453.112 6  -7645189.42548  20401150.89148
  21759198.773 7   5474460.861 7   4272900.42548  21759189.60948
  22668500.750 6  -4918319.449 6  -3802271.41448  22668490.64848
  23489841.484 5  12604588.742 5   9821156.76546  23489835.77746
  20574204.914 7  -1629436.694 7  -1248457.96649  20574193.11349
  25533545.156 5   -175006.683 5     -8315.05156  25533539.44956
  24840184.188 5   5977913.265 5   4663117.63046  24840179.24246
  24942901.375 5  -5389815.460 5  -4165928.54546  24942898.01246
 11  3 31 17 59 45.0000000  0 12G03G06G09G11G14G18G19G21G22G24G27G31
  23246314.219 6   7095370.773 6   5548237.71047  23246307.51647
  23395074.586 5   7700585.427 5   6009231.60647  23395068.00047
  22816765.984 6  -1843042.967 6  -1420598.43747  22816758.87147
  24573552.398 5  -2991448.428 5  -4962944.70746  24573543.29346
  20399054.844 6  -9872518.476 6  -7653811.78248  20399045.15248
  21763837.438 7   5498838.061 7   4291895.61648  21763828.39148
  22669924.156 6  -4910838.524 6  -3796442.14148  22669914.05548
  23499572.227 5  12655724.339 5   9861002.58046  23499566.22746
  20575114.664 7  -1624653.035 7  -1244730.45849  20575103.03949
  25523775.477 2   -226347.967 2    -48321.24346  25523769.47746
  24847061.047 5   6014054.673 5   4691279.69246  24847056.51246
  24932465.734 5  -5444647.849 5  -4208655.03146  24932463.95346
 11  3 31 18  0  0.0000000  0 12G03G06G09G11G14G18G19G21G22G24G27G31
  23253591.297 5   7133613.844 5   5578037.43447  23253585.47347
  23402335.023 5   7738740.553 5   6038962.80347  23402328.96547
  22820691.953 6  -1822414.056 6  -1404523.97047  22820685.36747
  24564152.672 5  -3040839.602 5  -5001431.31946  24564143.85946
  20396971.820 7  -9883463.404 7  -7662340.29948  20396962.30548
  21768484.836 7   5523260.302 7   4310925.91848  21768475.90648
  22671373.680 6  -4903222.323 6  -3790507.45848  22671363.34448
  23509314.203 5  12706916.754 5   9900892.66246  23509308.37946
  20576036.820 7  -1619810.713 7  -1240957.22949  20576024.55149
  25514006.430 3   -277689.190 3    -88327.32045  25513998.78945
  24853955.313 5   6050283.268 5   4719509.71546  24853950.71946
  24922029.203 5  -5499500.459 5  -4251397.23546  24922026.13346
 11  3 31 18  0 15.0000000  0 12G03G06G09G11G14G18G19G21G22G24G27G31
  23260881.211 5   7171920.695 5   5607886.86947  23260874.85947
  23409606.047 6   7776950.280 6   6068736.54347  23409600.34047
  22824647.578 6  -1801627.932 6  -1388327.00947  22824640.46547
  24554763.063 5  -3090182.194 5  -5039880.10846  24554754.71946
  20394912.078 6  -9894287.689 6  -7670774.80848  20394902.56348
  21773141.367 7   5547727.695 7   4329991.39148  21773132.02748
  22672848.523 6  -4895470.975 6  -3784467.47948  22672838.30548
  23519066.961 5  12758165.953 5   9940826.98946  23519060.60946
  20576968.523 7  -1614909.541 7  -1237138.14649  20576957.83649
  25504236.172 2   -329029.949 2   -128333.27245  25504228.82445
  24860866.086 5   6086598.904 5   4747807.55546  24860861.31646
  24911585.391 5  -5554372.847 5  -4294154.85346  24911583.72746
 11  3 31 18  0 30.0000000  0 12G03G06G09G11G14G18G19G21G22G24G27G31
  23268182.977 6   7210291.261 6   5637785.95047  23268176.62547
  23416887.477 6   7815214.490 6   6098552.74547  23416881.47747
  22828632.867 6  -1780684.339 6  -1372007.34647  22828625.98847
  24545383.109 5  -3139475.720 5  -5078290.64045  24545374.53145
  20392875.406 6  -9904990.931 6  -7679114.99148  20392866.06648
  21777806.008 7   5572240.700 7   4349092.40548  21777796.19948
  22674349.773 6  -4887584.261 6  -3778322.00548  22674339.26248
  23528830.055 6  12809471.948 6   9980805.57346  23528824.05546
  20577912.586 7  -1609949.222 7  -1233272.97149  20577901.19549
  25494467.195 5   -380370.044 5   -168338.37446  25494459.02746
  24867793.117 5   6123001.743 5   4776173.33846  24867788.28946
  24901141.203 5  -5609264.270 5  -4336927.31646  24901137.66446
 11  3 31 18  0 45.0000000  0 12G03G06G09G11G14G18G19G21G22G24G27G31
  23275496.563 6   7248723.720 6   5667733.25547  23275489.97747
  23424179.500 6   7853531.466 6   6128410.05947  23424172.91447
  22832647.883 6  -1759584.850 6  -1355566.20647  22832640.82847
  24536012.828 5  -3188721.279 5  -5116663.79246  24536002.96146
  20390861.648 7  -9915574.522 7  -7687361.95048  20390851.54748
  21782478.883 7   5596797.798 7   4368227.78048  21782469.42648
  22675875.992 6  -4879563.677 6  -3772072.22248  22675866.00848
  23538604.328 6  12860833.177 6  10020827.20446  23538598.27046
  20578867.938 7  -1604931.168 7  -1229362.81049  20578856.19549
  25484695.914 5   -431710.187 5   -208343.97545  25484688.50845
  24874736.516 5   6159490.151 5   4804605.79446  24874731.86346
  24890691.430 5  -5664175.791 5  -4379715.40646  24890688.65246
 11  3 31 18  1  0.0000000  0 12G03G06G09G11G14G18G19G21G22G24G27G31
  23282821.742 6   7287218.587 6   5697729.19247  23282815.74247
  23431481.227 6   7891902.083 6   6158309.16447  23431475.22747
  22836692.891 6  -1738328.661 6  -1339002.95747  22836685.95347
  24526651.711 5  -3237917.426 5  -5154998.46046  24526641.78546
  20388870.469 6  -9926037.499 6  -7695514.91848  20388860.36748
  21787160.211 7   5621400.062 7   4387398.34648  21787151.34048
  22677427.156 6  -4871408.221 6  -3765717.35048  22677417.40648
  23548388.195 6  12912250.427 6  10060892.49546  23548382.89846
  20579834.461 7  -1599854.118 7  -1225406.68549  20579822.66049
  25474926.250 5   -483049.320 5   -248348.46646  25474919.95746
  24881696.422 5   6196064.837 5   4833105.47646  24881691.77046
  24880237.688 5  -5719105.947 5  -4422518.04446  24880234.96946
 11  3 31 18  1 15.0000000  0 12G03G06G09G11G14G18G19G21G22G24G27G31
  23290159.000 6   7325775.119 6   5727773.18247  23290152.35547
  23438792.477 6   7930325.217 6   6188249.18547  23438786.71147
  22840767.320 6  -1716916.260 6  -1322318.01247  22840760.61747
  24517298.961 5  -3287064.224 5  -5193294.63445  24517288.74245
  20386901.422 6  -9936380.507 6  -7703574.40448  20386892.37548
  21791850.383 7   5646047.018 7   4406603.73048  21791841.27748
  22679005.156 6  -4863118.495 6  -3759257.84347  22678995.28947
  23558183.258 6  12963723.045 6  10101000.91346  23558177.60946
  20580811.172 7  -1594718.726 7  -1221405.08949  20580799.48849
  25465156.484 3   -534387.620 3   -288352.37446  25465150.54346
  24888673.977 5   6232725.149 5   4861671.89846  24888668.27046
  24869781.711 5  -5774054.895 5  -4465335.30146  24869778.81646
 11  3 31 18  1 30.0000000  0 12G03G06G09G11G14G18G19G21G22G24G27G31
  23297507.547 6   7364393.230 6   5757865.15147  23297501.43047
  23446114.906 6   7968800.780 6   6218230.06947  23446109.08247
  22844871.648 6  -1695347.648 6  -1305511.30747  22844865.00447
  24507955.586 5  -3336161.232 5  -5231552.05445  24507946.12945
  20384956.828 6  -9946603.189 6  -7711540.12248  20384947.37148
  21796549.664 7   5670739.027 7   4425844.23748  21796540.09048
  22680608.352 6  -4854694.298 6  -3752693.55748  22680598.19148
  23567988.992 6  13015250.985 6  10141152.44647  23567983.57847
  20581799.734 7  -1589524.609 7  -1217357.73949  20581787.93449
  25455387.375 2   -585724.699 2   -328355.25846  25455382.25446
  24895665.805 5   6269471.104 5   4890305.05846  24895661.21146
  24859321.016 5  -5829022.107 5  -4508166.80946  24859319.35246
 11  3 31 18  1 45.0000000  0 12G03G06G09G11G14G18G19G21G22G24G27G31
  23304867.875 6   7403072.720 6   5788004.95147  23304861.93447
  23453445.820 6   8007328.774 6   6248251.80747  23453439.76247
  22849005.750 6  -1673622.853 6  -1288582.92247  22848999.39847
  24498621.469 5  -3385208.084 5  -5269770.37945  24498612.24645
  20383034.258 7  -9956705.488 7  -7719412.03748  20383024.68448
  21801256.773 7   5695476.090 7   4445119.83748  21801247.72748
  22682236.859 6  -4846135.836 6  -3746024.64748  22682226.75848
  23577805.164 6  13066834.218 6  10181347.06046  23577798.93046
  20582799.594 7  -1584271.751 7  -1213264.61149  20582787.79349
  25445618.688 5   -637060.203 5   -368356.97146  25445612.74646
  24902674.586 5   6306302.443 5   4919004.72946  24902669.64146
  24848857.258 5  -5884007.053 5  -4551012.13046  24848855.71146
 11  3 31 18  2  0.0000000  0 12G03G06G09G11G14G18G19G21G22G24G27G31
  23312240.391 6   7441812.858 6   5818192.02347  23312234.27347
  23460787.492 6   8045908.599 6   6278313.94547  23460781.72747
  22853169.406 6  -1651742.193 6  -1271533.07447  22853163.40647
  24489297.008 5  -3434204.527 5  -5307949.42545  24489288.84045
  20381135.258 7  -9966687.582 7  -7727190.29448  20381124.80548
  21805972.547 7   5720258.171 7   4464430.52248  21805963.50048
  22683891.031 6  -4837443.242 6  -3739251.23148  22683881.04748
  23587631.555 5  13118472.270 5  10221584.38446  23587625.78946
  20583810.195 7  -1578960.050 7  -1209125.63249  20583798.51249
  25435851.117 6   -688393.845 6   -408357.29246  25435844.35546
  24909699.539 5   6343218.828 5   4947770.69946  24909694.94546
  24838391.055 5  -5939009.626 5  -4593871.19046  24838389.21546
 11  3 31 18  2 15.0000000  0 12G03G06G09G11G14G18G19G21G22G24G27G31
  23319623.672 6   7480613.333 6   5848426.08247  23319617.49647
  23468138.422 6   8084539.700 6   6308416.02846  23468133.12546
  22857363.266 6  -1629705.886 6  -1254361.94747  22857356.03547
  24479983.430 5  -3483150.300 5  -5346088.99545  24479975.02745
  20379258.102 7  -9976549.654 7  -7734875.02948  20379249.23048
  21810697.328 7   5745085.320 7   4483776.31448  21810687.98848
  22685571.258 6  -4828616.779 6  -3732373.48847  22685560.16047
  23597468.438 5  13170164.866 5  10261864.21546  23597462.37946
  20584832.289 7  -1573589.723 7  -1204940.97549  20584820.60549
  25426083.453 5   -739725.736 5   -448356.23846  25426076.28146
  24916741.289 5   6380219.933 5   4976602.67646  24916736.05146
  24827920.555 4  -5994029.501 4  -4636743.74046  24827919.82846
 11  3 31 18  2 30.0000000  0 12G03G06G09G11G14G18G19G21G22G24G27G31
  23327018.664 6   7519473.843 6   5878706.93247  23327013.01647
  23475499.492 6   8123221.780 6   6338557.84347  23475494.07847
  22861586.375 6  -1607514.199 6  -1237069.75147  22861579.26247
  24470679.023 5  -3532045.292 5  -5384189.00045  24470670.62145
  20377404.188 7  -9986291.685 7  -7742466.21449  20377395.19949
  21815430.000 7   5769957.241 7   4503157.00448  21815420.77748
  22687275.531 6  -4819656.681 6  -3725391.61547  22687265.13747
  23607315.242 5  13221911.825 5  10302186.39946  23607310.00446
  20585865.164 7  -1568160.717 7  -1200710.59349  20585853.42249
  25416315.102 5   -791055.673 5   -488353.61146  25416308.80946
  24923797.992 5   6417305.388 5   5005500.33846  24923793.04746
  24817447.008 4  -6049066.330 4  -4679629.51046  24817446.51646
 11  3 31 18  2 45.0000000  0 12G03G06G09G11G14G18G19G21G22G24G27G31
  23334424.680 5   7558393.910 5   5909034.19247  23334419.32447
  23482870.289 6   8161954.598 6   6368739.17447  23482864.40647
  22865838.375 6  -1585167.391 6  -1219656.67347  22865831.73047
  24461385.102 5  -3580888.993 5  -5422249.03345  24461374.82445
  20375573.242 7  -9995913.666 7  -7749963.86548  20375564.07848
  21820171.539 6   5794874.057 6   4522572.67748  21820162.78548
  22689005.961 6  -4810563.061 6  -3718305.70348  22688995.74248
  23617173.359 5  13273712.877 5  10342550.72846  23617168.06346
  20586909.195 7  -1562673.028 7  -1196434.49349  20586897.62949
  25406547.750 5   -842383.358 5   -528349.22646  25406541.45746
  24930870.977 5   6454475.042 5   5034463.64846  24930866.55946
  24806971.250 4  -6104119.780 4  -4722528.23346  24806969.76246
 11  3 31 18  3  0.0000000  0 12G03G06G09G11G14G18G19G21G22G24G27G31
  23341842.813 6   7597373.130 6   5939407.54047  23341836.69547
  23490250.719 5   8200737.794 5   6398959.77946  23490244.89546
  22870120.570 6  -1562665.513 6  -1202122.76947  22870113.69147
  24452099.656 5  -3629681.025 5  -5460268.76445  24452090.37545
  20373765.250 7 -10005415.475 7  -7757367.87548  20373755.32448
  21824921.898 7   5819835.900 7   4542023.42648  21824912.67648
  22690762.297 6  -4801335.897 6  -3711115.71948  22690751.66848
  23627041.250 5  13325568.116 5  10382957.30046  23627036.12946
  20587964.750 7  -1557126.648 7  -1192112.64549  20587953.41849
  25396781.273 5   -893708.632 5   -568342.95846  25396775.21546
  24937960.453 4   6491728.719 4   5063492.42146  24937955.68446
  24796491.320 5  -6159189.496 5  -4765439.62246  24796490.41846
 11  3 31 18  3 15.0000000  0 12G03G06G09G11G14G18G19G21G22G24G27G31
  23349270.977 6   7636410.799 6   5969826.43146  23349265.09446
  23497641.000 5   8239570.608 5   6429219.04147  23497634.47347
  22874431.586 6  -1540009.128 6  -1184468.46747  22874424.88347
  24442824.664 5  -3678421.478 5  -5498248.36145  24442815.73445
  20371980.039 7 -10014797.796 7  -7764678.76648  20371970.28948
  21829680.484 7   5844842.227 7   4561508.84848  21829671.32048
  22692543.508 6  -4791975.762 6  -3703822.13748  22692533.05548
  23636918.633 5  13377476.598 5  10423405.34246  23636913.86346
  20589031.578 7  -1551521.814 7  -1187745.25749  20589019.77749
  25387015.438 5   -945031.436 5   -608334.82446  25387007.91446
  24945065.047 5   6529065.767 5   5092586.15946  24945060.04346
  24786009.438 4  -6214275.390 4  -4808363.63246  24786006.95346
 11  3 31 18  3 30.0000000  0 12G03G06G09G11G14G18G19G21G22G24G27G31
  23356711.547 6   7675507.120 6   6000291.03647  23356704.84447
  23505039.844 5   8278453.367 5   6459517.21747  23505033.72747
  22878772.813 6  -1517197.771 6  -1166693.40147  22878765.99247
  24433559.641 5  -3727109.499 5  -5536187.04145  24433551.06345
  20370217.367 7 -10024059.989 7  -7771896.06548  20370207.50048
  21834447.250 7   5869893.792 7   4581029.52348  21834438.67248
  22694349.891 6  -4782482.042 6  -3696424.46348  22694339.37948
  23646807.367 5  13429438.704 5  10463895.18346  23646802.36346
  20590109.320 7  -1545857.985 7  -1183331.89449  20590097.63749
  25377249.039 3   -996351.163 3   -648324.27846  25377242.21946
  24952186.570 5   6566486.584 5   5121745.16946  24952181.97746
  24775524.859 4  -6269376.559 4  -4851299.52146  24775521.61346
 11  3 31 18  3 45.0000000  0 12G03G06G09G11G14G18G19G21G22G24G27G31
  23364161.422 5   7714661.043 5   6030800.52347  23364156.24247
  23512448.633 5   8317385.118 5   6489853.57546  23512442.57446
  22883143.125 6  -1494232.176 6  -1148798.17447  22883136.30547
  24424304.969 4  -3775745.539 4  -5574085.24145  24424295.10245
  20368477.578 7 -10033202.803 7  -7779020.33348  20368467.59448
  21839223.383 7   5894989.960 7   4600584.94448  21839213.98448
  22696181.813 6  -4772855.738 6  -3688923.46648  22696171.24248
  23656705.281 5  13481453.525 5  10504426.06746  23656700.16046
  20591198.156 7  -1540135.714 7  -1178873.00049  20591186.47349
  25367483.359 5  -1047668.155 5   -688311.47446  25367477.35946
  24959323.461 4   6603990.155 4   5150968.65946  24959318.45746
  24765036.570 4  -6324493.277 4  -4894247.52346  24765032.73846
 11  3 31 18  4  0.0000000  0 12G03G06G09G11G14G18G19G21G22G24G27G31
  23371623.422 6   7753872.795 6   6061355.07047  23371617.65647
  23519865.633 5   8356365.816 5   6520228.06847  23519860.57047
  22887542.938 6  -1471112.209 6  -1130782.64347  22887535.47347
  24415060.422 5  -3824328.640 5  -5611942.21345  24415049.44145
  20366760.414 7 -10042225.624 7  -7786051.09749  20366750.95749
  21844007.375 7   5920131.187 7   4620175.47548  21843998.27048
  22698039.094 6  -4763096.485 6  -3681318.87748  22698028.52348
  23666613.961 5  13533521.430 5  10544998.34346  23666608.13746
  20592298.070 7  -1534354.574 7  -1174368.23049  20592286.73849
  25357717.750 4  -1098981.575 4   -728296.03246  25357712.39546
  24966475.977 5   6641576.591 5   5180256.74546  24966470.73846
  24754545.578 4  -6379624.799 4  -4937207.06346  24754542.09846
 11  3 31 18  4 15.0000000  0 12G03G06G09G11G14G18G19G21G22G24G27G31
  23379096.539 5   7793142.005 5   6091954.38047  23379090.07047
  23527293.125 5   8395395.374 5   6550640.63247  23527287.47747
  22891971.539 6  -1447838.187 6  -1112647.07647  22891965.01247
  24405824.820 5  -3872858.674 5  -5649757.79445  24405814.71945
  20365066.195 7 -10051128.651 7  -7792988.52048  20365056.91448
  21848800.344 7   5945317.329 7   4639801.01848  21848790.88748
  22699921.188 6  -4753204.502 6  -3673610.87048  22699910.50048
  23676532.266 5  13585642.104 5  10585611.73746  23676526.61746
  20593409.914 7  -1528514.626 7  -1169817.63149  20593398.11349
  25347953.63312  -2725711.52212  -1995877.71056  25347948.21956
  24973643.422 4   6679245.632 4   5209609.17046  24973639.18046
  24744050.414 4  -6434770.886 4  -4980177.97446  24744047.10946
 11  3 31 18  4 30.0000000  0 12G03G06G09G11G14G18G19G21G22G24G27G31
  23386580.500 6   7832468.544 6   6122598.37147  23386573.79747
  23534728.875 5   8434473.300 5   6581090.87047  23534723.87147
  22896429.969 6  -1424409.828 6  -1094391.22947  22896423.09047
  24396599.172 5  -3921334.957 5  -5687531.48145  24396590.47745
  20363395.070 6 -10059911.709 6  -7799832.46448  20363385.02748
  21853601.633 7   5970548.776 7   4659461.84948  21853591.88348
  22701829.180 6  -4743179.557 6  -3665799.25248  22701818.55148
  23686460.547 5  13637815.616 5  10626266.30546  23686455.19146
  20594532.172 7  -1522615.524 7  -1165220.94049  20594520.48849
  25338190.227 2  -2777017.400 2  -2035856.35845  25338184.28545
  24980827.219 4   6716997.308 4   5239026.02846  24980823.56346
  24733553.656 4  -6489930.686 4  -5023159.51846  24733551.46546
 11  3 31 18  4 45.0000000  0 12G03G06G09G11G14G18G19G21G22G24G27G31
  23394074.523 5   7871851.085 5   6153286.00747  23394068.11347
  23542174.813 5   8473598.459 5   6611577.94847  23542169.04747
  22900916.531 6  -1400828.269 6  -1076016.02847  22900910.18047
  24387384.844 4  -3969758.116 4  -5725263.82145  24387375.56345
  20361746.242 6 -10068575.710 6  -7806583.62748  20361736.49248
  21858411.555 7   5995824.582 7   4679157.25548  21858401.98048
  22703762.242 6  -4733022.699 6  -3657884.83648  22703751.78948
  23696398.875 5  13690040.783 5  10666961.11546  23696393.52046
  20595666.039 7  -1516658.084 7  -1160578.79549  20595653.82849
  25328428.375 3  -2828319.589 3  -2075832.19445  25328422.25845
  24988027.625 4   6754830.587 4   5268506.40546  24988022.79746
  24723053.984 3  -6545104.925 3  -5066152.30046  24723051.55946
 11  3 31 18  5  0.0000000  0 12G03G06G09G11G14G18G19G21G22G24G27G31
  23401579.375 6   7911290.389 6   6184017.85847  23401573.31647
  23549628.992 5   8512771.720 5   6642102.49446  23549623.22746
  22905434.297 6  -1377092.642 6  -1057520.76047  22905427.41847
  24378180.773 4  -4018126.599 4  -5762953.53745  24378171.55145
  20360120.383 7 -10077119.590 7  -7813241.20149  20360110.86749
  21863230.172 7   6021145.954 7   4698888.16048  21863220.77348
  22705719.828 6  -4722733.048 6  -3649866.95348  22705709.72748
  23706346.898 5  13742318.547 5  10707696.91346  23706341.13346
  20596811.039 7  -1510641.053 7  -1155890.21849  20596799.41449
  25318666.484 3  -2879617.140 3  -2115804.25646  25318660.77746
  24995241.422 3   6792746.237 3   5298050.98846  24995238.00046
  24712551.352 3  -6600292.160 3  -5109155.22746  24712549.98046
 11  3 31 18  5 15.0000000  0 12G03G06G09G11G14G18G19G21G22G24G27G31
  23409094.523 5   7950785.256 5   6214793.03047  23409088.87547
  23557092.953 5   8551991.901 5   6672663.60446  23557087.18846
  22909979.617 6  -1353203.926 6  -1038906.21547  22909973.09047
  24368987.766 5  -4066441.003 5  -5800601.10245  24368977.78145
  20358517.375 6 -10085544.187 6  -7819805.82148  20358507.85948
  21868057.273 7   6046512.199 7   4718654.03148  21868047.75848
  22707702.969 6  -4712311.506 6  -3641746.29947  22707692.57447
  23716304.930 5  13794647.942 5  10748472.95146  23716299.28146
  20597966.766 7  -1504565.377 7  -1151155.93249  20597955.25849
  25308904.648 1  -2930910.327 1  -2155773.05146  25308900.17246
  25002472.508 4   6830743.159 4   5327658.92146  25002468.44146
  24702047.805 3  -6655492.740 3  -5152168.54346  24702045.73046
 11  3 31 18  5 30.0000000  0 12G03G06G09G11G14G18G19G21G22G24G27G31
  23416621.664 5   7990335.336 5   6245611.19347  23416615.60547
  23564565.164 5   8591259.044 5   6703261.30347  23564559.63347
  22914554.445 6  -1329162.231 6  -1020172.46847  22914548.32847
  24359804.070 4  -4114700.963 4  -5838206.31446  24359794.26246
  20356937.273 6 -10093849.283 6  -7826277.32148  20356927.17248
  21872892.477 7   6071923.184 7   4738454.77248  21872883.54748
  22709711.438 6  -4701758.111 6  -3633522.90148  22709700.69148
  23726272.555 5  13847028.745 5  10789289.03446  23726266.73046
  20599134.484 7  -1498431.042 7  -1146375.94849  20599122.74249
  25299145.961 2  -2982199.089 2  -2195738.32445  25299140.13745
  25009718.938 4   6868821.300 4   5357330.14846  25009714.34446
  24691540.789 3  -6710706.065 3  -5195191.75546  24691538.48046
 11  3 31 18  5 45.0000000  0 12G03G06G09G11G14G18G19G21G22G24G27G31
  23424158.070 6   8029940.170 6   6276472.03847  23424151.83647
  23572046.047 5   8630572.351 5   6733894.96047  23572040.45747
  22919158.828 6  -1304967.736 6  -1001319.65647  22919152.41847
  24350631.742 5  -4162906.088 5  -5875768.66846  24350621.34846
  20355379.219 6 -10102035.106 6  -7832655.88248  20355369.29348
  21877736.594 7   6097379.072 7   4758290.49248  21877727.48848
  22711744.805 6  -4691072.966 6  -3625196.85347  22711734.41047
  23736250.016 4  13899460.735 4  10830145.00646  23736244.36746
  20600312.891 7  -1492237.895 7  -1141550.13049  20600301.09049
  25289388.320 2  -3033483.090 2  -2235699.89645  25289381.44145
  25016980.242 3   6906980.274 3   5387064.34346  25016976.11746
  24681031.469 3  -6765932.006 3  -5238224.80846  24681029.04346
 11  3 31 18  6  0.0000000  0 12G03G06G09G11G14G18G19G21G22G24G27G31
  23431704.359 6   8069599.565 6   6307375.40247  23431698.82847
  23579536.102 6   8669931.547 6   6764564.38847  23579530.62947
  22923791.883 6  -1280620.629 6   -982347.92447  22923785.41447
  24341467.852 4  -4211056.299 4  -5913288.31145  24341457.98445
  20353844.109 6 -10110101.845 6  -7838941.65448  20353834.47748
  21882589.398 7   6122879.794 7   4778161.15348  21882580.23448
  22713803.219 6  -4680256.346 6  -3616768.34047  22713792.88347
  23746236.672 4  13951943.466 4  10871040.51746  23746231.02346
  20601502.727 7  -1485986.058 7  -1136678.57849  20601490.98449
  25279629.523 2  -3084762.127 2  -2275657.55745  25279622.70345
  25024257.398 2   6945219.754 2   5416861.26846  25024252.92246
  24670519.875 4  -6821170.253 4  -5281267.44346  24670518.21146
 11  3 31 18  6 15.0000000  0 12G03G06G09G11G14G18G19G21G22G24G27G31
  23439262.367 6   8109313.258 6   6338321.06747  23439256.13347
  23587034.813 6   8709336.503 6   6795269.47647  23587029.16447
  22928454.547 5  -1256120.999 5   -963257.33547  22928447.60947
  24332315.992 4  -4259150.944 4  -5950764.60645  24332306.41845
  20352331.742 6 -10118049.262 6  -7845134.44548  20352322.10948
  21887450.680 6   6148425.493 6   4798066.85448  21887441.28148
  22715886.227 6  -4669308.175 6  -3608237.31848  22715876.12548
  23756232.961 4  14004477.018 4  10911975.60346  23756228.60246
  20602703.594 7  -1479675.264 7  -1131761.09549  20602691.96949
  25269872.375 1  -3136035.760 1  -2315611.09245  25269865.78945
  25031549.336 3   6983539.691 3   5446720.89746  25031544.85946
  24660006.961 4  -6876420.277 4  -5324319.24546  24660003.94946
 11  3 31 18  6 30.0000000  0 12G03G06G09G11G14G18G19G21G22G24G27G31
  23446829.539 6   8149080.474 6   6369308.44747  23446823.30547
  23594542.016 6   8748786.661 6   6826009.77347  23594536.19147
  22933145.539 5  -1231469.337 5   -944048.29547  22933138.48447
  24323174.234 4  -4307190.100 4  -5988197.71446  24323164.71946
  20350842.156 6 -10125877.719 6  -7851234.54348  20350832.40648
  21892320.484 6   6174015.810 6   4818007.33948  21892310.96948
  22717994.758 6  -4658228.992 6  -3599604.21248  22717984.42248
  23766239.789 4  14057060.774 4  10952949.80846  23766234.55146
  20603915.883 7  -1473305.722 7  -1126797.82549  20603904.31649
  25260116.898 1  -3187304.092 1  -2355560.42945  25260110.13745
  25038856.859 3   7021939.446 3   5476642.72446  25038851.68046
  24649491.383 4  -6931682.022 4  -5367380.18146  24649487.90246
 11  3 31 18  6 45.0000000  0 12G03G06G09G11G14G18G19G21G22G24G27G31
  23454407.367 6   8188901.328 6   6400337.60247  23454400.89847
  23602057.742 6   8788281.906 6   6856785.21046  23602052.38746
  22937865.242 6  -1206665.461 6   -924720.65147  22937858.48047
  24314043.336 3  -4355173.154 3  -6025587.09445  24314033.93845
  20349375.133 7 -10133586.871 7  -7857241.67348  20349365.38348
  21897198.484 7   6199651.256 7   4837982.97448  21897189.37948
  22720127.773 6  -4647018.563 6  -3590868.85147  22720117.78947
  23776255.914 4  14109695.034 4  10993963.39146  23776250.14846
  20605138.969 7  -1466877.130 7  -1121788.54949  20605127.10949
  25250362.219 1  -3238566.467 1  -2395505.11545  25250354.75445
  25046179.211 4   7060419.290 4   5506626.97446  25046174.14846
  24638972.453 4  -6986954.716 4  -5410449.66546  24638969.26646
 11  3 31 18  7  0.0000000  0 12G03G06G09G11G14G18G19G21G22G24G27G31
  23461995.086 6   8228775.257 6   6431408.12247  23461989.32047
  23609582.320 6   8827821.742 6   6887595.39947  23609576.49647
  22942614.734 6  -1181709.732 6   -905274.66647  22942607.85547
  24304923.883 4  -4403099.894 4  -6062932.57745  24304913.78145
  20347930.875 6 -10141176.905 6  -7863155.98548  20347921.30148
  21902085.383 7   6225331.614 7   4857993.61248  21902076.45348
  22722286.789 6  -4635677.250 6  -3582031.48748  22722276.04348
  23786281.648 4  14162379.538 4  11035016.10946  23786275.53146
  20606373.563 7  -1460389.709 7  -1116733.41949  20606361.87949
  25240608.492 1  -3289822.879 1  -2435445.24544  25240600.44144
  25053517.656 4   7098978.616 4   5536673.16846  25053512.18446
  24628452.656 4  -7042238.123 4  -5453527.48746  24628449.82046
 11  3 31 18  7 15.0000000  0 12G03G06G09G11G14G18G19G21G22G24G27G31
  23469593.250 6   8268701.667 6   6462519.54547  23469587.07447
  23617114.484 5   8867405.540 5   6918439.83147  23617109.07047
  22947391.930 5  -1156602.557 5   -885710.68847  22947385.34447
  24295813.734 4  -4450969.982 4  -6100233.94946  24295804.51246
  20346509.133 7 -10148648.211 7  -7868977.78548  20346499.38348
  21906980.969 6   6251056.769 6   4878039.14948  21906971.57048
  22724469.266 6  -4624205.070 6  -3573092.16248  22724459.34048
  23796316.773 5  14215113.534 5  11076107.41046  23796310.71546
  20607619.047 7  -1453843.598 7  -1111632.57349  20607607.53949
  25230856.219 1  -3341073.321 1  -2475380.58045  25230846.82045
  25060869.414 3   7137617.060 3   5566780.97246  25060864.46946
  24617930.563 4  -7097532.197 4  -5496613.59646  24617926.78946
 11  3 31 18  7 30.0000000  0 12G03G06G09G11G14G18G19G21G22G24G27G31
  23477200.250 5   8308680.584 5   6493671.88747  23477194.42647
  23624655.445 6   8907033.486 6   6949318.66646  23624650.44146
  22952198.500 5  -1131343.931 5   -866028.69847  22952192.20747
  24286715.711 4  -4498782.944 4  -6137490.75945  24286705.55145
  20345109.977 7 -10156000.413 7  -7874706.77248  20345100.16848
  21911884.445 6   6276827.006 6   4898119.81948  21911875.86748
  22726677.555 6  -4612602.160 6  -3564050.95847  22726667.27747
  23806361.578 5  14267897.166 5  11117237.37946  23806355.46146
  20608875.953 7  -1447238.161 7  -1106485.49249  20608864.15249
  25221105.89812  -3392317.21712  -2515310.84454  25221095.85554
  25068237.664 3   7176334.690 3   5596950.51146  25068232.42646
  24607405.820 5  -7152836.190 5  -5539707.48346  24607403.04346
 11  3 31 18  7 45.0000000  0 12G03G06G09G11G14G18G19G21G22G24G27G31
  23484818.945 6   8348711.453 6   6524864.69447  23484812.35947
  23632204.656 6   8946704.980 6   6980231.44647  23632198.89147
  22957033.766 5  -1105934.228 5   -846228.97447  22957027.76647
  24277627.172 4  -4546538.681 4  -6174702.99546  24277618.06646
  20343733.414 7 -10163233.793 7  -7880343.17348  20343724.13348
  21916797.289 7   6302641.987 7   4918235.36048  21916788.12548
  22728909.914 6  -4600869.018 6  -3554908.29047  22728899.87147
  23816415.531 5  14320730.047 5  11158405.74646  23816408.88746
  20610144.352 7  -1440573.819 7  -1101292.50949  20610133.02049
  25211356.055 1  -3443554.357 1  -2555235.98845  25211345.19145
  25075619.203 3   7215131.038 3   5627181.36646  25075615.72346
  24596879.547 5  -7208149.949 5  -5582808.94346  24596876.71146
 11  3 31 18  8  0.0000000  0 12G03G06G09G11G14G18G19G21G22G24G27G31
  23492446.102 6   8388793.797 6   6556097.61347  23492439.98447
  23639761.773 6   8986419.599 6   7011177.82347  23639756.65247
  22961898.141 5  -1080373.773 5   -826311.77547  22961891.96547
  24268551.203 4  -4594236.847 4  -6211870.38046  24268541.51246
  20342379.703 7 -10170348.510 7  -7885887.09948  20342369.95348
  21921718.258 6   6328501.815 6   4938385.83848  21921708.97748
  22731167.891 6  -4589005.749 6  -3545664.21647  22731157.55547
  23826478.492 5  14373611.891 5  11199612.24646  23826472.31646
  20611423.813 7  -1433850.549 7  -1096053.60949  20611412.36349
  25201607.219 2  -3494784.744 2  -2595155.67145  25201596.23845
  25083017.570 3   7254005.778 3   5657473.31146  25083013.32846
  24586352.109 5  -7263473.140 5  -5625917.74446  24586349.50846
 11  3 31 18  8 15.0000000  0 12G03G06G09G11G14G18G19G21G22G24G27G31
  23500082.898 6   8428927.385 6   6587370.45746  23500077.07446
  23647328.156 6   9026176.980 6   7042157.51647  23647322.39147
  22966790.883 6  -1054662.470 6   -806277.05747  22966784.29747
  24259485.664 4  -4641877.092 4  -6248992.64446  24259475.97346
  20341048.453 7 -10177344.426 7  -7891338.46749  20341038.58649
  21926647.820 7   6354406.593 7   4958571.35048  21926638.89148
  22733449.719 6  -4577012.428 6  -3536318.80347  22733439.79347
  23836551.063 5  14426542.514 5  11240856.76946  23836545.35546
  20612714.531 7  -1427068.239 7  -1090768.70649  20612702.90649
  25191859.219 1  -3546007.774 1                
  25090428.680 3   7292958.739 3   5687826.17646  25090425.31646
  24575821.953 5  -7318805.309 5  -5669033.57646  24575820.17246
 11  3 31 18  8 30.0000000  0 12G03G06G09G11G14G18G19G21G22G24G27G31
  23507730.063 6   8469111.745 6   6618682.88247  23507724.06347
  23654902.016 6   9065976.869 6   7073170.33546  23654896.13346
  22971712.180 6  -1028800.625 6   -786125.00947  22971705.82847
  24250431.297 4  -4689459.116 4  -6286069.53246  24250421.43046
  20339739.797 7 -10184221.690 7  -7896697.37648  20339730.22348
  21931585.461 7   6380356.499 7   4978792.01748  21931576.64848
  22735757.070 6  -4564889.103 6  -3526872.08447  22735747.02747
  23846632.906 5  14479521.715 5  11282139.14146  23846626.73046
  20614016.406 7  -1420226.921 7  -1085437.82449  20614004.89849
  25182114.289 3  -3597223.718 3                
  25097856.055 3   7331989.433 3   5718239.64546  25097853.10246
  24565290.758 5  -7374146.267 5  -5712156.23946  24565288.68446
 11  3 31 18  8 45.0000000  0 12G03G06G09G11G14G18G19G21G22G24G27G31
  23515386.727 6   8509346.383 6   6650034.47247  23515380.19947
  23662483.234 6   9105818.840 6   7104215.94647  23662477.76247
  22976661.805 6  -1002788.503 6   -765855.87947  22976655.80547
  24241387.047 4  -4736982.699 4  -6323100.87546  24241378.00046
  20338453.531 7 -10190980.463 7  -7901963.95248  20338444.13348
  21936532.367 7   6406351.397 7   4999047.74448  21936523.37948
  22738088.648 6  -4552636.042 6  -3517324.27347  22738078.72347
  23856724.148 5  14532549.165 5  11323459.11246  23856717.91446
  20615329.070 7  -1413326.514 7  -1080060.89449  20615317.79749
  25172368.211 3  -3648432.010 3                
  25105299.031 3   7371097.760 3   5748713.59146  25105295.19946
  24554758.477 5  -7429495.644 5  -5755285.48546  24554755.64146
 11  3 31 18  9  0.0000000  0 12G03G06G09G11G14G18G19G21G22G24G27G31
  23523052.109 6   8549630.969 6   6681424.99947  23523046.34447
  23670073.305 6   9145702.388 6   7135293.95946  23670067.36346
  22981641.016 6   -976626.406 6   -745469.88547  22981634.54747
  24232355.195 4  -4784447.645 4  -6360086.53846  24232346.09046
  20337189.750 7 -10197620.873 7  -7907138.29449  20337180.05949
  21941487.813 7   6432391.108 7   5019338.39748  21941478.70748
  22740445.336 6  -4540253.582 6  -3507675.62748  22740434.88348
  23866824.039 6  14585624.673 6  11364816.52846  23866818.62546
  20616653.602 7  -1406367.158 7  -1074638.03049  20616641.85949
  25162624.414 2  -3699632.576 2                
  25112756.156 3   7410283.382 3   5779247.80046  25112751.73846
  24544224.461 6  -7484853.161 6  -5798421.08346  24544221.68446
 11  3 31 18  9 15.0000000  0 12G03G06G09G11G14G18G19G21G22G24G27G31
  23530727.914 5   8589965.399 5   6712854.34147  23530721.85547
  23677670.320 6   9185627.437 6   7166404.31146  23677664.96546
  22986647.477 6   -950314.423 6   -724967.08847  22986641.35947
  24223333.602 5  -4831853.440 5  -6397026.07046  24223324.84846
  20335948.875 7 -10204142.728 7  -7912220.26648  20335938.83248
  21946451.805 7   6458475.845 7   5039664.12848  21946442.58248
  22742825.852 6  -4527741.545 6  -3497926.02547  22742816.57047
  23876933.734 5  14638748.023 5  11406211.22446  23876928.08646
  20617989.313 7  -1399348.631 7  -1069169.05649  20617977.62949
  25152883.867 2  -3750824.857 2                
  25120227.859 3   7449546.185 3   5809842.10346  25120223.55946
  24533688.914 6  -7540218.173 6  -5841562.52346  24533686.13746
 11  3 31 18  9 30.0000000  0 12G03G06G09G11G14G18G19G21G22G24G27G31
  23538412.320 5   8630348.691 5   6744321.77347  23538406.84847
  23685275.578 5   9225593.319 5   7197546.46246  23685270.22346
  22991683.766 5   -923853.134 5   -704347.96347  22991677.06347
  24214323.688 5  -4879200.137 5  -6433919.58346  24214315.16846
  20334729.977 7 -10210546.546 7  -7917210.25148  20334720.69548
  21951424.250 7   6484605.284 7   5060024.69648  21951414.91048
  22745231.617 6  -4515100.618 6  -3488075.98247  22745221.45747
  23887052.109 6  14691918.647 6  11447642.74846  23887046.16846
  20619336.094 7  -1392271.206 7  -1063654.19349  20619324.41049
  25143144.328 4  -3802009.263 4                
  25127714.461 3   7488885.378 3   5840495.97946  25127709.51646
  24523151.602 6  -7595590.641 6  -5884709.79046  24523148.00446
 11  3 31 18  9 45.0000000  0 12G03G06G09G11G14G18G19G21G22G24G27G31
  23546106.359 5   8670780.799 5   6775827.23147  23546100.59447
  23692889.156 5   9265599.888 5   7228720.34246  23692883.09846
  22996746.922 5   -897242.349 5   -683612.32747  22996740.92247
  24205325.531 5  -4926486.976 5  -6470766.47546  24205316.60246
  20333533.984 7 -10216832.059 7  -7922108.05848  20333524.76248
  21956404.828 6   6510779.688 6   5080420.30347  21956395.89847
  22747662.117 6  -4502330.582 6  -3478125.32447  22747651.37147
  23897179.086 5  14745136.653 5  11489111.19346  23897173.90646
  20620694.438 7  -1385134.594 7  -1058093.20349  20620682.93049
  25133404.695 4  -3853185.114 4                
  25135214.297 3   7528301.118 3   5871209.45946  25135209.93846
  24512613.133 6  -7650970.026 6  -5927862.45246  24512610.35546
 11  3 31 18 10  0.0000000  0 12G03G06G09G11G14G18G19G21G22G24G27G31
  23553809.492 5   8711261.479 5   6807370.54047  23553803.96147
  23700509.672 5   9305646.920 5   7259925.73446  23700504.14146
  23001838.922 5   -870482.415 5   -662760.48547  23001833.21547
  24196338.359 5  -4973713.679 5  -6507566.49346  24196330.13346
  20332360.422 7 -10222999.208 7  -7926913.62748  20332351.25848
  21961394.031 7   6536999.296 7   5100851.13148  21961385.04348
  22750115.961 6  -4489431.442 6  -3468074.07347  22750105.74247
  23907314.359 5  14798401.822 5  11530616.38746  23907309.94146
  20622063.516 7  -1377938.683 7  -1052486.01549  20622051.83249
  25123667.820 4  -3904352.123 4                
  25142729.500 3   7567793.160 3   5901982.41846  25142725.60946
  24502073.797 6  -7706355.882 6  -5971020.17246  24502070.02346
 11  3 31 18 10 15.0000000  0 12G03G06G09G11G14G18G19G21G22G24G27G31
  23561522.063 5   8751790.170 5   6838951.26346  23561516.59046
  23708138.133 5   9345733.800 5   7291162.18847  23708132.30947
  23006959.883 6   -843573.673 6   -641792.68347  23006953.64847
  24187363.727 5  -5020880.165 5  -6544319.58246  24187354.27046
  20331209.484 7 -10229048.256 7  -7931627.17749  20331199.61749
  21966392.070 7   6563263.725 7   5121316.89048  21966382.73048
  22752595.195 6  -4476403.769 6  -3457922.67447  22752585.44547
  23917459.820 5  14851713.864 5  11572158.10446  23917455.22746
  20623443.898 7  -1370683.827 7  -1046832.88549  20623432.50849
  25113932.367 5  -3955510.246 5                
  25150258.984 3   7607361.170 3   5932814.55746  25150254.50846
  24491532.656 6  -7761748.098 6  -6014182.85846  24491529.76246
 11  3 31 18 10 30.0000000  0 12G03G06G09G11G14G18G19G21G22G24G27G31
  23569243.930 5   8792366.844 5   6870569.38347  23569237.98847
  23715774.453 6   9385860.639 6   7322429.77746  23715768.21946
  23012108.891 6   -816515.959 6   -620708.79747  23012102.77347
  24178399.758 5  -5067985.760 5  -6581025.21946  24178390.77046
  20330080.961 7 -10234979.031 7  -7936248.56148  20330071.44548
  21971398.695 7   6589573.383 7   5141817.88548  21971389.82448
  22755099.094 6  -4463247.464 6  -3447671.03948  22755088.58248
  23927613.992 5  14905072.699 5  11613736.27346  23927609.51646
  20624836.070 7  -1363369.480 7  -1041133.41349  20624824.32849
  25104198.195 4  -4006658.850 4                
  25157802.641 4   7647005.043 4   5963705.80846  25157798.63346
  24480990.500 6  -7817146.080 6  -6057350.04946  24480987.60546
 11  3 31 18 10 45.0000000  0 12G03G06G09G11G14G18G19G21G22G24G27G31
  23576974.047 5   8832990.713 5   6902224.26346  23576968.75046
  23723417.148 6   9426026.559 6   7353727.79946  23723411.67646
  23017286.516 5   -789309.978 5   -599509.37747  23017279.69547
  24169446.453 5  -5115030.502 5  -6617683.44346  24169438.57846
  20328974.594 7 -10240792.000 7  -7940778.14949  20328965.02049
  21976413.828 6   6615927.895 6   5162353.82848  21976404.72348
  22757627.063 6  -4449963.012 6  -3437319.54248  22757616.78548
  23937776.391 5  14958477.748 5  11655350.46446  23937772.38346
  20626238.969 7  -1355996.126 7  -1035387.94649  20626227.46149
  25094467.414 5  -4057797.966 5                
  25165361.539 4   7686724.172 4   5994655.70646  25165357.35546
  24470448.008 6  -7872549.696 6  -6100521.63146  24470444.46946
 11  3 31 18 11  0.0000000  0 12G03G06G09G11G14G18G19G21G22G24G27G31
  23584713.898 5   8873661.528 5   6933915.71846  23584708.01646
  23731068.461 6   9466231.278 6   7385056.07946  23731062.22746
  23022491.898 6   -761955.859 6   -578194.53547  23022485.02047
  24160506.766 5  -5162014.031 5  -6654293.95646  24160497.25046
  20327891.250 7 -10246487.093 7  -7945215.88248  20327881.20748
  21981437.547 6   6642327.498 6   5182924.91247  21981428.50047
  22760178.711 6  -4436550.399 6  -3426868.18547  22760168.96147
  23947948.172 5  15011928.864 5  11697000.53546  23947943.98846
  20627653.523 7  -1348563.579 7  -1029596.36549  20627641.84049
  25084737.539 5  -4108927.339 5                
  25172934.258 4   7726518.357 4   6025664.08946  25172929.66446
  24459903.703 6  -7927958.423 6  -6143697.20546  24459900.69146
 11  3 31 18 11 15.0000000  0 12G03G06G09G11G14G18G19G21G22G24G27G31
  23592462.016 5   8914378.880 5   6965643.45246  23592456.89546
  23738726.383 5   9506474.529 5   7416414.37646  23738720.85246
  23027725.086 6   -734453.872 6   -556764.45747  23027718.73447
  24151577.438 5  -5208936.219 5  -6690856.68946  24151569.32846
  20326829.672 7 -10252064.340 7  -7949561.79348  20326820.09848
  21986469.648 7   6668771.923 7   5203530.92848  21986460.48448
  22762755.711 6  -4423009.957 6  -3416317.22147  22762745.78547
  23958127.641 5  15065425.700 5  11738686.22146  23958124.45346
  20629079.195 7  -1341071.762 7  -1023758.59949  20629067.16049
  25075009.453 5  -4160046.871 5                
  25180520.844 4   7766387.351 4   6056730.76645  25180516.71945
  24449358.500 6  -7983372.122 6  -6186876.64846  24449355.37146
 11  3 31 18 11 30.0000000  0 12G03G06G09G11G14G18G19G21G22G24G27G31
  23600219.063 5   8955142.468 5   6997407.21546  23600213.64846
  23746392.477 5   9546756.001 5   7447802.44446  23746386.30146
  23032986.594 6   -706804.028 6   -535219.17647  23032980.24247
  24142660.750 5  -5255796.448 5  -6727371.14546  24142651.35246
  20325790.797 7 -10257523.872 7  -7953815.98048  20325780.63748
  21991510.625 7   6695261.331 7   5224171.99148  21991501.52048
  22765356.508 6  -4409341.732 6  -3405666.68647  22765347.10947
  23968316.883 5  15118968.222 5  11780407.53246  23968313.75446
  20630515.938 7  -1333520.631 7  -1017874.61849  20630504.37149
  25065285.641 6  -4211156.193 6  -3153367.61256  25065278.93856
  25188122.281 4   7806330.965 4   6087855.62045  25188118.09845
  24438812.586 6  -8038790.224 6  -6230059.53646  24438809.86746
 11  3 31 18 11 45.0000000  0 12G03G06G09G11G14G18G19G21G22G24G27G31
  23607985.297 5   8995951.659 5   7029206.50146  23607979.59046
  23754064.344 5   9587075.165 5   7479219.89946  23754059.28146
  23038276.656 6   -679006.909 6   -513559.13347  23038270.24647
  24133754.680 5  -5302594.696 5  -6763837.27646  24133746.10246
  20324774.195 7 -10262865.875 7  -7957978.58948  20324764.38748
  21996559.891 7   6721795.591 7   5244848.00848  21996551.02048
  22767982.086 6  -4395546.205 6  -3394916.95948  22767972.10248
  23978513.977 5  15172555.976 5  11822164.07546  23978510.90646
  20631964.258 7  -1325910.459 7  -1011944.62049  20631952.34049
  25055561.125 5  -4262255.385 5  -3193185.20856  25055552.95756
  25195736.492 4   7846348.666 4   6119038.14346  25195731.95746
  24428266.086 6  -8094212.559 6  -6273245.74346  24428263.30946
 11  3 31 18 12  0.0000000  0 12G03G06G09G11G14G18G19G21G22G24G27G31
  23615759.555 5   9036806.327 5   7061041.22046  23615753.43846
  23761744.109 5   9627431.592 5   7510666.38146  23761738.46146
  23043594.359 6   -651062.553 6   -491784.35247  23043587.36347
  24124861.750 5  -5349330.466 5  -6800254.75146  24124852.99646
  20323779.984 7 -10268090.334 7  -7962049.59848  20323770.41048
  22001617.852 7   6748374.856 7   5265559.07947  22001608.74647
  22770631.555 6  -4381623.334 6  -3384068.00448  22770621.62948
  23988720.109 5  15226188.699 5  11863955.64046  23988717.50846
  20633423.695 7  -1318240.986 7  -1005968.42449  20633412.42249
  25045840.133 6  -4313343.921 6  -3232994.47446  25045832.02346
  25203366.773 4   7886440.367 4   6150278.35145  25203362.53145
  24417718.953 6  -8149638.644 6  -6316434.84546  24417715.53146
 11  3 31 18 12 15.0000000  0 12G03G06G09G11G14G18G19G21G22G24G27G31
  23623542.359 5   9077705.905 5   7092910.94246  23623536.53546
  23769430.352 5   9667824.917 5   7542141.60746  23769424.82046
  23048939.641 6   -622971.431 6   -469895.21447  23048933.46547
  24115979.445 5  -5396003.651 5  -6836623.45046  24115971.10246
  20322807.766 6 -10273197.587 6  -7966029.27249  20322798.07449
  22006684.523 7   6774998.863 7   5286305.02847  22006675.24247
  22773304.992 6  -4367573.585 6  -3373120.17447  22773294.71547
  23998934.547 5  15279866.125 5  11905782.05646  23998931.47746
  20634894.523 7  -1310512.427 7   -999946.18649  20634882.95749
  25036119.828 5  -4364421.729 5  -3272795.33046  25036112.89146
  25211010.406 4   7926605.625 4   6181575.89545  25211005.34445
  24407171.188 6  -8205068.385 6  -6359626.81546  24407167.35546
 11  3 31 18 12 30.0000000  0 12G03G06G09G11G14G18G19G21G22G24G27G31
  23631333.258 5   9118650.092 5   7124815.41546  23631328.43046
  23777124.836 5   9708255.226 5   7573645.66646  23777119.12946
  23054313.281 6   -594733.490 6   -447891.66947  23054306.81347
  24107110.289 5  -5442613.837 5  -6872943.03246  24107101.30146
  20321858.789 7 -10278187.283 7  -7969917.35249  20321848.98049
  22011759.297 7   6801667.998 7   5307086.14547  22011750.19147
  22776003.133 6  -4353396.802 6  -3362073.36047  22775993.14847
  24009157.828 5  15333588.104 5  11947643.18246  24009154.40646
  20636376.375 7  -1302724.416 7   -993877.61149  20636364.69149
  25026401.375 5  -4415488.347 5  -3312587.52246  25026395.43446
  25218666.625 4   7966844.241 4   6212930.65046  25218662.50046
  24396622.813 6  -8260501.138 6  -6402821.13646  24396618.57046
 11  3 31 18 12 45.0000000  0 12G03G06G09G11G14G18G19G21G22G24G27G31
  23639133.813 4   9159638.533 4   7156754.40346  23639128.39846
  23784825.133 5   9748721.734 5   7605177.92146  23784819.19146
  23059714.453 6   -566348.995 6   -425773.93047  23059708.33647
  24098252.625 5  -5489160.686 5  -6909213.28946  24098244.04746
  20320931.461 7 -10283059.561 7  -7973713.94048  20320922.00448
  22016842.688 7   6828382.067 7   5327902.26648  22016833.75848
  22778725.078 6  -4339093.124 6  -3350927.67148  22778714.97748
  24019389.219 4  15387354.448 4  11989538.87246  24019386.20746
  20637869.719 7  -1294877.037 7   -987762.78749  20637857.85949
  25016685.156 5  -4466543.554 5  -3352370.77946  25016679.62546
  25226338.273 5   8007156.121 5   6244342.43645  25226333.73845
  24386073.969 6  -8315936.602 6  -6446017.55546  24386069.31646
 11  3 31 18 13  0.0000000  0 12G03G06G09G11G14G18G19G21G22G24G27G31
  23646941.688 4   9200671.086 4   7188727.72846  23646936.80146
  23792532.469 5   9789224.469 5   7636738.40746  23792527.05546
  23065144.063 6   -537818.086 6   -403542.10347  23065137.65247
  24089407.484 5  -5535643.649 5  -6945433.76446  24089398.96546
  20320026.773 7 -10287814.507 7  -7977419.09448  20320017.02348
  22021934.852 7   6855141.323 7   5348753.59547  22021925.62947
  22781471.320 6  -4324662.705 6  -3339683.21648  22781461.10248
  24029628.992 5  15441165.068 5  12031469.05546  24029625.57046
  20639374.586 7  -1286970.085 7   -981601.54449  20639362.84449
  25006972.727 5  -4517586.965 5  -3392144.91946  25006966.84446
  25234023.625 5   8047540.996 5   6275811.12245  25234018.44545
  24375524.219 5  -8371374.226 5  -6489215.63246  24375520.32846
 11  3 31 18 13 15.0000000  0 12G03G06G09G11G14G18G19G21G22G24G27G31
  23654758.625 4   9241746.820 4   7220734.70846  23654752.80146
  23800246.688 5   9829762.590 5   7668326.47046  23800240.92246
  23070600.609 6   -509141.522 6   -381196.77047  23070594.66847
  24080574.008 5  -5582062.956 5  -6981604.65846  24080565.19546
  20319144.445 7 -10292452.677 7  -7981033.26048  20319134.63748
  22027035.781 7   6881945.391 7   5369639.84547  22027026.20747
  22784241.438 6  -4310106.228 6  -3328340.52448  22784231.21948
  24039877.445 4  15495019.149 4  12073433.11946  24039874.25846
  20640890.047 7  -1279004.128 7   -975394.31749  20640878.71549
  24997262.266 5  -4568618.898 5  -3431910.03246  24997255.32846
  25241722.313 5   8087998.055 5   6307336.04845  25241717.83645
  24364974.297 5  -8426814.189 5  -6532415.55846  24364970.34846
 11  3 31 18 13 30.0000000  0 12G03G06G09G11G14G18G19G21G22G24G27G31
  23662582.750 4   9282865.583 4   7252775.22146  23662577.68846
  23807967.922 5   9870335.894 5   7699941.94146  23807962.33246
  23076085.742 6   -480319.424 6   -358738.04947  23076079.03947
  24071753.109 5  -5628418.100 5  -7017725.52046  24071744.41446
  20318283.383 7 -10296973.879 7  -7984556.27348  20318273.92648
  22032145.125 6   6908794.431 6   5390561.14448  22032136.02048
  22787034.352 6  -4295423.787 6  -3316899.69848  22787024.89548
  24050134.195 5  15548916.756 5  12115431.10346  24050130.59846
  20642417.688 7  -1270978.869 7   -969140.87849  20642405.53549
  24987553.500 5  -4619638.876 5  -3471665.85046  24987547.32446
  25249434.867 4   8128527.331 4   6338917.21545  25249429.51245
  24354423.766 5  -8482255.896 5  -6575616.81146  24354420.28546
 11  3 31 18 13 45.0000000  0 12G03G06G09G11G14G18G19G21G22G24G27G31
  23670416.016 5   9324026.940 5   7284848.90846  23670410.66046
  23815694.844 5   9910944.209 5   7731584.70046  23815689.78146
  23081598.172 6   -451351.854 6   -336165.95647  23081591.58647
  24062944.180 5  -5674708.651 5  -7053796.04746  24062935.30946
  20317445.820 7 -10301378.245 7  -7987988.25748  20317435.77748
  22037262.539 7   6935688.448 7   5411517.48347  22037253.78547
  22789853.156 6  -4280615.472 6  -3305360.79148  22789842.99648
  24060399.258 5  15602857.785 5  12157462.91846  24060395.42646
  20643956.016 7  -1262894.215 7   -962841.16049  20643944.44949
  24977846.859 5  -4670646.460 5  -3511412.04546  24977840.44946
  25257160.016 5   8169128.533 5   6370554.50845  25257155.83245
  24343873.297 5  -8537698.805 5  -6618818.99446  24343869.81646
 11  3 31 18 14  0.0000000  0 12G03G06G09G11G14G18G19G21G22G24G27G31
  23678256.438 5   9365230.486 5   7316955.48046  23678251.43446
  23823429.172 5   9951586.912 5   7763254.24546  23823424.46146
  23087138.039 6   -422239.131 6   -313480.77447  23087131.45347
  24054147.367 5  -5720934.474 5  -7089816.15046  24054139.08246
  20316629.719 7 -10305666.057 7  -7991329.41048  20316620.20348
  22042389.016 7   6962627.359 7   5432508.80648  22042379.91048
  22792694.898 6  -4265681.473 6  -3293723.93447  22792684.91447
  24070671.969 5  15656841.675 5  12199528.11746  24070667.78546
  20645505.305 7  -1254750.228 7   -956495.20949  20645493.91449
  24968142.695 5  -4721641.644 5  -3551148.53546  24968136.81346
  25264900.938 5   8209801.423 5   6402247.58545  25264895.58245
  24333323.055 5  -8593142.812 5  -6662022.04346  24333319.69146
 11  3 31 18 14 15.0000000  0 12G03G06G09G11G14G18G19G21G22G24G27G31
  23686105.242 5   9406475.978 5   7349094.74746  23686100.59046
  23831169.773 5   9992263.765 5   7794950.41246  23831164.41846
  23092705.586 6   -392981.391 6   -290682.58647  23092699.23447
  24045363.266 5  -5767095.061 5  -7125785.44646  24045354.74646
  20315836.141 7 -10309836.992 7  -7994579.49448  20315826.62548
  22047523.820 6   6989611.167 6   5453535.11247  22047514.94947
  22795560.500 6  -4250621.957 6  -3281989.27348  22795550.63348
  24080953.578 5  15710868.351 5  12241626.66046  24080948.22346
  20647066.930 7  -1246546.853 7   -950102.98549  20647055.42249
  24958441.211 5  -4772624.087 5  -3590875.09946  24958434.62546
  25272654.102 5   8250545.678 5   6433996.30645  25272649.39145
  24322771.578 5  -8648587.488 5  -6705225.61246  24322768.21546
 11  3 31 18 14 30.0000000  0 12G03G06G09G11G14G18G19G21G22G24G27G31
  23693962.750 5   9447763.149 5   7381266.48146  23693957.51246
  23838917.422 5  10032974.648 5   7826673.06846  23838911.71546
  23098301.016 6   -363578.872 6   -267771.57247  23098294.43047
  24036592.070 5  -5813190.056 5  -7161703.59946  24036582.78946
  20315064.242 7 -10313891.225 7  -7997738.63948  20315054.78548
  22052667.078 7   7016640.087 7   5474596.57248  22052658.32448
  22798450.438 6  -4235437.063 6  -3270156.91448  22798440.21948
  24091243.039 5  15764937.623 5  12283758.40746  24091237.50846
  20648639.375 7  -1238283.932 7   -943664.36149  20648627.80949
  24948742.141 4  -4823593.286 4  -3630591.34546  24948735.90646
  25280420.375 5   8291361.197 5   6465800.55545  25280416.30945
  24312221.375 5  -8704032.220 5  -6748429.20246  24312217.66046
 11  3 31 18 14 45.0000000  0 12G03G06G09G11G14G18G19G21G22G24G27G31
  23701827.570 5   9489091.138 5   7413470.02246  23701821.92246
  23846670.156 5  10073718.729 5   7858421.61946  23846664.68446
  23103924.117 5   -334032.039 5   -244748.12547  23103916.94547
  24027832.945 5  -5859219.561 5  -7197570.71746  24027824.25046
  20314315.094 7 -10317828.933 7  -8000806.98448  20314305.46148
  22057819.258 6   7043713.876 6   5495692.99347  22057810.38747
  22801363.750 6  -4220127.324 6  -3258227.27648  22801353.94148
  24101539.906 5  15819048.992 5  12325922.97146  24101534.49246
  20650222.836 7  -1229961.787 7   -937179.58949  20650211.09449
  24939043.414 4  -4874549.475 4  -3670297.48646  24939038.87946
  25288201.711 5   8332247.332 5   6497659.79746  25288197.29346
  24301669.898 5  -8759477.059 5  -6791632.87046  24301666.82846
 11  3 31 18 15  0.0000000  0 12G03G06G09G11G14G18G19G21G22G24G27G31
  23709699.594 5   9530460.278 5   7445705.64346  23709693.88746
  23854429.703 5  10114496.280 5   7890196.25646  23854424.81646
  23109573.203 5   -304340.853 5   -221612.17847  23109566.79347
  24019087.148 5  -5905182.697 5  -7233386.16346  24019077.98446
  20313587.711 6 -10321649.742 6  -8003784.23948  20313578.60548
  22062979.758 6   7070833.061 6   5516824.79347  22062970.88747
  22804300.539 6  -4204692.295 6  -3246200.00848  22804290.73048
  24111845.359 5  15873202.666 5  12368120.48046  24111839.88746
  20651817.703 7  -1221579.773 7   -930648.16849  20651806.37149
  24929351.492 4  -4925491.705 4  -3709992.72846  24929345.25846
  25295995.133 5   8373204.331 5   6529574.28446  25295990.36346
  24291118.867 5  -8814921.100 5  -6834835.92846  24291116.20746
 11  3 31 18 15 15.0000000  0 12G03G06G09G11G14G18G19G21G22G24G27G31
  23717579.820 5   9571869.631 5   7477972.59146  23717573.70346
  23862196.664 5  10155306.384 5   7921996.23646  23862191.19146
  23115250.617 6   -274505.922 6   -198364.22847  23115244.55947
  24010352.453 5  -5951079.748 5  -7269150.06246  24010344.05146
  20312882.922 6 -10325354.568 6  -8006671.11948  20312873.34848
  22068148.750 6   7097996.952 6   5537991.43748  22068140.11348
  22807261.867 6  -4189132.803 6  -3234075.76447  22807251.94147
  24122158.977 5  15927397.984 5  12410350.42646  24122152.44946
  20653423.891 7  -1213138.499 7   -924070.56049  20653412.61749
  24919658.914 3  -4976420.471 3  -3749677.50146  24919653.44146
  25303802.688 4   8414231.309 4   6561543.28846  25303797.97746
  24280568.063 5  -8870364.462 5  -6878038.44446  24280565.40246
 11  3 31 18 15 30.0000000  0 12G03G06G09G11G14G18G19G21G22G24G27G31
  23725467.102 5   9613319.074 5   7510270.78146  23725461.62946
  23869968.406 5  10196148.825 5   7953821.43546  23869963.05146
  23120955.492 5   -244527.253 5   -175004.27047  23120949.37547
  24001631.422 5  -5996910.167 5  -7304862.08346  24001622.08246
  20312200.031 7 -10328943.085 7  -8009467.37149  20312190.39849
  22073326.727 6   7125205.883 6   5559193.15848  22073317.44548
  22810246.031 6  -4173448.767 6  -3221854.46647  22810236.28147
  24132479.648 5  15981634.841 5  12452612.75546  24132473.64846
  20655041.766 7  -1204637.654 7   -917446.54249  20655030.14149
  24909972.359 5  -5027335.019 5  -3789351.16146  24909964.83646
  25311623.250 4   8455328.311 4   6593566.90046  25311619.18446
  24270017.828 5  -8925806.531 5  -6921239.95646  24270014.99246
 11  3 31 18 15 45.0000000  0 12G03G06G09G11G14G18G19G21G22G24G27G31
  23733362.695 5   9654808.043 5   7542599.78846  23733356.75446
  23877746.266 5  10237023.277 5   7985671.60446  23877741.61346
  23126687.484 6   -214405.336 6   -151532.69147  23126681.60247
  23992922.250 5  -6042673.571 5  -7340521.85746  23992913.61346
  20311539.414 6 -10332415.541 6  -8012173.18148  20311529.78148
  22078512.813 6   7152459.668 6   5580429.83748  22078504.00048
  22813254.234 6  -4157640.674 6  -3209536.51547  22813244.42647
  24142808.102 5  16035912.839 5  12494907.13646  24142802.21946
  20656670.648 7  -1196077.501 7   -910776.31249  20656659.31649
  24900285.516 4  -5078235.570 4  -3829013.91046  24900278.57846
  25319456.867 4   8496494.808 4   6625644.58745  25319452.91845
  24259468.016 5  -8981247.151 5  -6964440.34146  24259465.00446
 11  3 31 18 16  0.0000000  0 12G03G06G09G11G14G18G19G21G22G24G27G31
  23741264.719 5   9696336.506 5   7574959.53446  23741259.53946
  23885530.938 5  10277929.346 5   8017546.32446  23885525.28946
  23132447.586 6   -184140.207 6   -127949.52247  23132440.88347
  23984227.805 5  -6088369.606 5  -7376129.16346  23984217.87946
  20310900.633 6 -10335771.918 6  -8014788.54248  20310890.94148
  22083707.547 6   7179758.458 6   5601701.58747  22083698.91047
  22816285.883 6  -4141708.507 6  -3197121.86947  22816276.89547
  24153144.797 5  16090231.809 5  12537233.44346  24153138.79746
  20658311.039 7  -1187457.723 7   -904059.61749  20658299.23849
  24890601.328 3  -5129121.617 3  -3868665.35146  24890595.15246
  25327303.625 4   8537730.665 4   6657776.34446  25327299.73446
  24248918.641 5  -9036685.891 5  -7007639.22746  24248915.04346
 11  3 31 18 16 15.0000000  0 12G03G06G09G11G14G18G19G21G22G24G27G31
  23749174.484 5   9737903.735 5   7607349.50146  23749169.89146
  23893321.000 5  10318866.682 5   8049445.44046  23893315.64546
  23138233.352 5   -153732.180 5   -104254.99247  23138227.11747
  23975543.961 5  -6133998.091 5  -7411683.80146  23975534.91446
  20310284.070 6 -10339012.263 6  -8017313.49048  20310274.49648
  22088911.320 6   7207102.342 6   5623008.48447  22088902.39147
  22819341.414 6  -4125652.519 6  -3184610.76047  22819331.84047
  24163489.875 5  16144591.561 5  12579591.55246  24163482.64546
  20659962.781 7  -1178778.264 7   -897296.41348  20659951.09848
  24880921.531 3  -5179992.953 3  -3908305.36246  24880914.53546
  25335164.625 4   8579035.660 4   6689961.99546  25335159.85546
  24238369.711 5  -9092122.392 5  -7050836.38747  24238365.99647
 11  3 31 18 16 30.0000000  0 12G03G06G09G11G14G18G19G21G22G24G27G31
  23757092.219 5   9779509.322 5   7639769.34946  23757087.68446
  23901116.211 5  10359835.118 5   8081368.79446  23901111.85246
  23144047.680 6   -123181.720 6    -80449.49147  23144040.97747
  23966874.398 5  -6179558.702 5  -7447185.57146  23966864.94146
  20309689.281 6 -10342136.845 6  -8019748.22648  20309679.76648
  22094123.320 6   7234491.143 6   5644350.36347  22094114.27347
  22822420.336 6  -4109473.044 6  -3172003.40247  22822410.23447
  24173841.445 5  16198991.735 5  12621981.14546  24173834.27346
  20661625.531 7  -1170039.236 7   -890486.79149  20661614.37549
  24871243.898 2  -5230849.347 2  -3947933.67746  24871236.90246
  25343037.859 4   8620409.360 4   6722201.17146  25343033.03146
  24227820.219 5  -9147556.288 5  -7094031.51447  24227817.20747
 11  3 31 18 16 45.0000000  0 12G03G06G09G11G14G18G19G21G22G24G27G31
  23765016.648 5   9821153.148 5   7672219.00446  23765011.87946
  23908917.734 5  10400834.148 5   8113315.98846  23908913.78546
  23149887.797 6    -92488.984 6    -56533.10247  23149881.21147
  23958216.805 5  -6225051.071 5  -7482634.15946  23958208.10946
  20309117.164 6 -10345145.544 6  -8022092.67148  20309106.94548
  22099343.945 6   7261925.037 6   5665727.39747  22099334.72347
  22825523.203 6  -4093170.023 6  -3159299.78248  22825512.92648
  24184201.023 5  16253432.228 5  12664402.13346  24184194.26246
  20663300.086 7  -1161240.506 7   -883630.65049  20663288.16849
  24861569.563 2  -5281690.500 2  -3987550.11846  24861562.33246
  25350924.102 4   8661851.634 4   6754493.78646  25350919.39146
  24217272.797 6  -9202987.130 6  -7137224.28046  24217269.14146
 11  3 31 18 17  0.0000000  0 12G03G06G09G11G14G18G19G21G22G24G27G31
  23772947.961 5   9862834.827 5   7704698.15446  23772942.78146
  23916726.273 5  10441863.498 5   8145286.82046  23916721.27046
  23155755.742 6    -61654.133 6    -32505.99147  23155749.09847
  23949572.773 5  -6270474.831 5  -7518029.27646  23949564.43046
  20308566.672 6 -10348038.479 6  -8024346.91448  20308556.74648
  22104572.828 6   7289404.012 6   5687139.53947  22104564.25047
  22828648.805 6  -4076743.620 6  -3146500.01847  22828638.58647
  24194568.977 5  16307912.794 5  12706854.38345  24194561.57045
  20664985.883 7  -1152382.058 7   -876727.97348  20664974.08248
  24851897.633 2  -5332516.060 2  -4027154.45546  24851890.63746
  25358823.516 4   8703362.290 4   6786839.68946  25358819.21546
  24206724.727 6  -9258414.371 6  -7180414.20246  24206721.01246
 11  3 31 18 17 15.0000000  0 12G03G06G09G11G14G18G19G21G22G24G27G31
  23780887.234 5   9904553.811 5   7737206.35946  23780882.58246
  23924539.633 5  10482922.599 5   8177280.83546  23924534.68846
  23161650.328 6    -30677.682 6     -8368.53347  23161643.91847
  23940941.797 5  -6315829.924 5  -7553370.91846  23940933.10246
  20308037.680 6 -10350816.085 6  -8026511.27948  20308027.98848
  22109810.594 6   7316928.006 6   5708586.78047  22109801.07847
  22831798.125 6  -4060194.424 6  -3133604.56747  22831787.78947
  24204943.242 5  16362432.902 5  12749337.47046  24204937.35946
  20666682.898 7  -1143464.030 7   -869778.87449  20666671.33249
  24842227.195 1  -5383326.040 1  -4066746.62545  24842222.25045
  25366735.430 4   8744940.796 4   6819238.46946  25366730.77746
  24196178.125 6  -9313838.078 6  -7223601.39447  24196174.58647
 11  3 31 18 17 30.0000000  0 12G03G06G09G11G14G18G19G21G22G24G27G31
  23788833.180 5   9946309.800 5   7769743.40646  23788828.46946
  23932358.867 5  10524011.316 5   8209297.91846  23932353.62946
  23167571.531 6       440.275 6     15879.18647  23167565.35547
  23932325.328 5  -6361115.912 5  -7588658.67946  23932315.16846
  20307531.289 6 -10353478.218 6  -8028585.67248  20307521.42248
  22115056.719 6   7344496.975 6   5730069.05847  22115048.02347
  22834970.297 6  -4043522.457 6  -3120613.44547  22834960.48847
  24215326.156 4  16416992.442 4  12791851.22746  24215319.86346
  20668391.313 7  -1134486.318 7   -862783.27248  20668379.98048
  24832560.633 1  -5434120.022 1  -4106326.32846  24832555.98046
  25374660.273 3   8786586.997 3   6851689.97446  25374656.09046
  24185631.805 6  -9369257.715 6  -7266785.41747  24185628.20747
 11  3 31 18 17 45.0000000  0 12G03G06G09G11G14G18G19G21G22G24G27G31
  23796786.289 5   9988102.357 5   7802308.95246  23796781.22746
  23940184.148 5  10565129.288 5   8241337.79046  23940178.91046
  23173520.391 5     31699.653 5     40237.10847  23173513.86347
  23923720.586 5  -6406332.420 5  -7623892.32046  23923711.42246
  20307046.539 6 -10356024.780 6  -8030569.99948  20307036.84848
  22120311.289 6   7372111.140 6   5751586.55447  22120302.47747
  22838166.672 6  -4026727.779 6  -3107526.72347  22838156.45347
  24225715.000 4  16471591.338 4  12834395.67746  24225710.87546
  20670111.016 7  -1125448.809 7   -855741.07048  20670099.39148
  24822899.219 2  -5484897.617 2  -4145893.26545  24822893.62945
  25382598.086 3   8828300.710 3   6884194.09546  25382594.25446
  24175087.227 6  -9424672.765 6  -7309965.85046  24175083.10246
 11  3 31 18 18  0.0000000  0 12G03G06G09G11G14G18G19G21G22G24G27G31
  23804746.125 5  10029931.100 5   7834902.67346  23804741.06346
  23948013.641 5  10606276.150 5   8273400.17946  23948009.04746
  23179495.844 5     63099.980 5     64704.85247  23179489.25847
  23915129.227 5  -6451479.138 5  -7659071.57146  23915119.41846
  20306584.133 6 -10358456.084 6  -8032464.52448  20306574.38348
  22125574.664 6   7399770.410 6   5773139.19747  22125565.79347
  22841385.281 6  -4009810.859 6  -3094344.74047  22841375.53147
  24236112.641 4  16526229.296 4  12876970.55345  24236108.63345
  20671842.117 7  -1116351.546 7   -848652.30649  20671830.60949
  24813240.594 2  -5535658.645 2  -4185447.25446  24813234.41846
  25390548.852 3   8870081.611 3   6916750.53945  25390544.60945
  24164542.633 6  -9480082.995 6  -7353142.54347  24164538.80147
 11  3 31 18 18 15.0000000  0 12G03G06G09G11G14G18G19G21G22G24G27G31
  23812713.117 5  10071795.566 5   7867524.26046  23812707.70346
  23955849.258 5  10647451.320 5   8305484.61546  23955844.48846
  23185496.938 6     94640.829 6     89282.09147  23185491.52347
  23906551.938 5  -6496556.089 5  -7694196.45246  23906541.66046
  20306143.367 7 -10360772.523 7  -8034269.54249  20306133.50049
  22130846.883 6   7427474.460 6   5794726.72947  22130838.01247
  22844627.883 6  -3992772.124 6  -3081067.84147  22844618.36747
  24246515.984 3  16580905.684 3  12919575.36945  24246513.38345
  20673584.727 7  -1107194.772 7   -841517.17649  20673572.98449
  24803582.813 2  -5586403.155 2  -4224988.45545  24803578.21945
  25398512.078 2   8911928.991 2   6949358.79945  25398508.01245
  24153999.172 6  -9535488.268 6  -7396315.36147  24153995.92647
 11  3 31 18 18 30.0000000  0 12G03G06G09G11G14G18G19G21G22G24G27G31
  23820685.906 5  10113693.337 5   7900171.77446  23820680.49246
  23963689.719 5  10688652.245 5   8337589.12646  23963684.42246
  23191525.633 6    126319.863 6    113967.02246  23191519.39846
  23897986.813 5  -6541564.956 5  -7729268.26246  23897976.77046
  20305724.039 7 -10362976.121 7  -8035986.63249  20305714.11349
  22136126.625 6   7455221.383 6   5816347.67347  22136118.04747
  22847893.070 6  -3975613.743 6  -3067697.70247  22847883.55547
  24256926.734 2  16635618.291 2  12962208.40145  24256925.42245
  20675338.047 7  -1097980.372 7   -834337.13449  20675326.71549
  24793930.461 3  -5637132.835 3  -4264518.02545  24793923.46545
  25406487.430 3   8953840.697 3   6982017.20146  25406483.48046
  24143456.555 6  -9590890.267 6  -7439485.63147  24143453.07447
 11  3 31 18 18 45.0000000  0 12G03G06G09G11G14G18G19G21G22G24G27G31
  23828666.109 5  10155628.428 5   7932848.39746  23828660.34446
  23971535.781 5  10729883.365 5   8369717.17246  23971530.60246
  23197581.539 5    158141.427 5    138762.99947  23197575.42247
  23889435.211 5  -6586500.741 5  -7764283.16346  23889425.87146
  20305326.578 7 -10365062.516 7  -8037612.39748  20305317.29748
  22141416.203 6   7483015.735 6   5838005.57347  22141407.27347
  22851181.883 6  -3958331.328 6  -3054230.93247  22851171.84047
  24267346.180 1  16690371.484 1  13004873.06545  24267344.98445
  20677103.383 7  -1088703.616 7   -827108.50048  20677091.93448
  24784278.852 3  -5687842.922 3  -4304032.35946  24784274.14146
  25414475.391 2   8995820.996 2   7014729.05046  25414472.43846
  24132914.867 6  -9646283.828 6  -7482649.31347  24132911.56347
 11  3 31 18 19  0.0000000  0 12G03G06G09G11G14G18G19G21G22G24G27G31
  23836652.500 5  10197598.475 5   7965552.22346  23836647.90646
  23979386.672 5  10771142.245 5   8401866.87046  23979381.84446
  23203663.445 5    190103.259 5    163668.28446  23203657.56346
  23880898.156 5  -6631365.243 5  -7799242.46546  23880888.40646
  20304951.859 6 -10367033.734 6  -8039148.40748  20304942.10948
  22146714.039 6   7510855.555 6   5859698.91147  22146704.93447
  22854494.078 6  -3940927.216 6  -3040669.30247  22854484.03547
  24277773.016 1  16745163.019 1  13047567.60445  24277772.05545
  20678879.992 7  -1079366.726 7   -819833.01849  20678868.54349
  24774633.320 3  -5738535.064 3  -4343532.74346  24774627.61346
  25422476.141 1   9037867.582 1   7047492.56845  25422474.35945
  24122375.430 6  -9701670.750 6  -7525807.83746  24122372.06646
 11  3 31 18 19 15.0000000  0 12G03G06G09G11G14G18G19G21G22G24G27G31
  23844645.688 5  10239602.379 5   7998282.46547  23844640.97747
  23987242.703 5  10812427.607 5   8434037.16846  23987238.57846
  23209772.305 5    222204.220 5    188681.98247  23209765.71947
  23872373.805 5  -6676159.013 5  -7834146.72346  23872364.40646
  20304598.508 6 -10368890.649 6  -8040595.35648  20304588.99248
  22152020.047 6   7538739.910 6   5881426.94347  22152011.35247
  22857828.492 6  -3923402.446 6  -3027013.69047  22857818.97747
  24288206.688 1  16799991.864 1  13090291.20845  24288206.60545
  20680668.305 7  -1069970.553 7   -812511.33849  20680656.68049
  24764989.141 3  -5789209.967 3  -4383019.63546  24764984.89846
  25430490.141 2   9079979.302 2   7080306.76745  25430487.36345
  24111836.813 6  -9757051.593 6  -7568961.60547  24111832.98047
 11  3 31 18 19 30.0000000  0 12G03G06G09G11G14G18G19G21G22G24G27G31
  23852645.453 5  10281640.359 5   8031039.22747  23852640.97747
  23995104.500 6  10853739.674 6   8466228.28346  23995100.14146
  23215907.477 5    254444.523 5    213804.25046  23215901.24246
  23863863.477 5  -6720881.117 5  -7868995.07446  23863854.54746
  20304266.953 6 -10370632.614 6  -8041952.73648  20304257.55548
  22157335.031 6   7566669.299 6   5903190.07247  22157326.16047
  22861187.109 6  -3905756.667 6  -3013263.76248  22861176.94948
  24298647.836 2  16854858.321 2  13133044.11345  24298647.57845
  20682467.633 7  -1060514.371 7   -805142.89749  20682456.12549
  24755350.539 3  -5839866.704 3  -4422492.42746  24755345.30146
  25438517.281 1   9122156.564 1   7113172.07245  25438513.33245
  24101298.992 6  -9812425.425 6  -7612109.93247  24101295.86347
 11  3 31 18 19 45.0000000  0 12G03G06G09G11G14G18G19G21G22G24G27G31
  23860651.188 6  10323711.834 6   8063822.10847  23860646.53547
  24002970.688 6  10895077.757 6   8498439.67246  24002966.50446
  23222069.398 6    286823.767 6    239034.79647  23222062.40247
  23855366.906 5  -6765531.414 5  -7903787.47546  23855357.33246
  20303957.477 6 -10372260.334 6  -8043221.08648  20303947.72748
  22162658.070 6   7594643.832 6   5924988.37547  22162649.60947
  22864567.500 6  -3887990.186 6  -2999419.77847  22864557.69147
  24309096.227 1  16909761.738 1  13175825.83545  24309096.02745
  20684278.820 7  -1050998.416 7   -797727.87649  20684266.84449
  24745715.125 4  -5890505.246 4  -4461951.03346  24745709.18446
  25446555.219 1   9164398.746 1   7146087.95745  25446552.03145
  24090763.320 6  -9867791.933 6  -7655252.54247  24090759.19547
 11  3 31 18 20  0.0000000  0 12G03G06G09G11G14G18G19G21G22G24G27G31
  23868663.422 5  10365815.794 5   8096630.29046  23868658.77046
  24010842.633 5  10936441.742 5   8530671.24346  24010837.74646
  23228256.914 5    319341.111 5    264372.95246  23228250.73846
  23846883.484 5  -6810110.202 5  -7938524.16446  23846874.43846
  20303669.148 6 -10373774.460 6  -8044400.93248  20303659.39848
  22167990.406 6   7622662.850 6   5946821.33947  22167981.24247
  22867971.117 6  -3870103.861 6  -2985482.42947  22867961.48447
  24319552.102 1  16964701.448 1  13218635.86445  24319551.55145
  20686100.734 7  -1041423.199 7   -790266.68649  20686089.05149
  24736083.508 5  -5941125.913 5  -4501395.69346  24736076.16046
  25454605.367 1   9206705.112 1   7179053.88945  25454602.88345
  24080228.695 6  -9923151.379 6  -7698389.63947  24080224.80547
 11  3 31 18 20 15.0000000  0 12G03G06G09G11G14G18G19G21G22G24G27G31
  23876681.977 5  10407952.894 5   8129464.31547  23876677.20747
  24018718.047 5  10977831.526 5   8562922.91346  24018714.44946
  23234470.883 6    351997.114 6    289819.14947  23234464.76647
  23838414.219 5  -6854616.340 5  -7973204.25446  23838405.64146
  20303402.656 6 -10375173.900 6  -8045491.41048  20303393.19948
  22173330.664 6   7650727.303 6   5968689.71047  22173322.14547
  22871397.891 6  -3852096.936 6  -2971451.08347  22871388.08247
  24330014.828 1  17019678.020 1  13261474.58545  24330013.86745
  20687934.164 7  -1031787.811 7   -782758.60849  20687922.71549
  24726454.055 5  -5991727.452 5  -4540825.46446  24726447.41046
  25462669.320 1   9249076.321 1   7212070.29645  25462667.07045
  24069695.492 6  -9978502.405 6  -7741520.18847  24069691.66047
 11  3 31 18 20 30.0000000  0 12G03G06G09G11G14G18G19G21G22G24G27G31
  23884706.805 6  10450122.169 6   8162323.38347  23884701.97747
  24026600.070 5  11019246.338 5   8595194.08847  24026595.82847
  23240711.609 5    384791.125 5    315372.88246  23240704.73046
  23829959.055 5  -6899049.661 5  -8007827.61946  23829950.00846
  20303158.359 7 -10376459.231 7  -8046492.96848  20303148.60948
  22178679.820 6   7678836.741 6   5990593.13147  22178671.06647
  22874847.305 6  -3833969.949 6  -2957326.20147  22874837.84847
  24340483.320 2  17074690.854 2  13304341.61345  24340483.18045
  20689779.156 7  -1022092.502 7   -775203.83349  20689767.70749
  24716828.367 5  -6042309.972 5  -4580240.40946  24716821.78146
  25470744.023 1   9291511.697 1   7245136.75145  25470740.95345
  24059164.438 6 -10033844.977 6  -7784644.16046  24059160.31346
 11  3 31 18 20 45.0000000  0 12G03G06G09G11G14G18G19G21G22G24G27G31
  23892737.258 6  10492323.280 6   8195207.27447  23892732.54747
  24034485.586 5  11060685.740 5   8627484.42547  24034481.16847
  23246977.969 6    417722.814 6    341033.90146  23246971.85246
  23821517.453 5  -6943410.089 5  -8042394.15946  23821508.69946
  20302935.102 6 -10377630.754 6  -8047405.83748  20302925.05948
  22184037.797 6   7706991.093 6   6012531.56047  22184028.34047
  22878320.063 6  -3815723.424 6  -2943108.15347  22878310.43047
  24350959.086 2  17129739.687 2  13347236.70945  24350959.35545
  20691635.664 7  -1012337.388 7   -767602.45949  20691623.98049
  24707206.414 5  -6092873.425 5  -4619640.49846  24707199.30146
  25478831.156 1   9334010.671 1   7278252.67645  25478828.37945
  24048634.570 6 -10089179.048 6  -7827761.50746  24048630.62146
 11  3 31 18 21  0.0000000  0 12G03G06G09G11G14G18G19G21G22G24G27G31
  23900774.492 6  10534556.133 6   8228115.90547  23900769.31347
  24042376.570 6  11102149.981 6   8659794.11246  24042371.68446
  23253271.242 6    450792.089 6    366802.11746  23253265.35946
  23813090.094 5  -6987697.024 5  -8076903.43546  23813081.10546
  20302733.859 7 -10378688.234 7  -8048229.85748  20302723.99248
  22189403.625 6   7735190.609 6   6034505.16747  22189394.93047
  22881814.016 6  -3797357.262 6  -2928796.90147  22881804.85247
  24361441.961 2  17184824.353 2  13390159.54545  24361441.76245
  20693503.258 7  -1002522.200 7   -759954.27848  20693492.27748
  24697587.195 5  -6143417.230 5  -4659025.28746  24697581.19546
  25486930.19511  -9528466.58211  -7419781.64655  25486927.47755
  24038106.508 6 -10144503.784 6  -7870871.58946  24038101.97346
 11  3 31 18 21 15.0000000  0 12G03G06G09G11G14G18G19G21G22G24G27G31
  23908816.797 6  10576820.047 6   8261048.73247  23908811.96947
  24050271.102 5  11143638.237 5   8692122.53046  24050266.91846
  23259590.039 6    483998.445 6    392677.14746  23259583.98046
  23804676.563 5  -7031910.511 5  -8111355.48546  23804667.16446
  20302554.523 7 -10379632.056 7  -8048965.30648  20302544.59848
  22194778.492 6   7763435.073 6   6056513.80747  22194769.68047
  22885332.008 6  -3778871.891 6  -2914392.76547  22885322.37547
  24371932.422 2  17239944.580 2                
  20695382.391 7   -992647.100 7   -752259.40548  20695370.82448
  24687972.922 5  -6193941.418 5  -4698394.74746  24687966.57046
  25495041.875 1  -9485840.680 1  -7386566.71545  25495039.91845
  24027580.281 6 -10199819.174 6  -7913974.39346  24027575.62946
 11  3 31 18 21 30.0000000  0 12G03G06G09G11G14G18G19G21G22G24G27G31
  23916865.305 6  10619114.866 6   8294005.63047  23916860.94547
  24058170.539 6  11185150.284 6   8724469.46546  24058166.29746
  23265935.031 5    517341.669 5    418658.84146  23265928.50446
  23796276.766 5  -7076050.118 5  -8145749.96246  23796268.36346
  20302396.344 7 -10380462.252 7  -8049612.21549  20302386.71149
  22200161.609 6   7791724.554 6   6078557.52147  22200152.73847
  22888872.641 6  -3760267.538 6  -2899895.89447  22888863.18447
  24382428.656 2  17295100.090 2                
  20697273.039 7   -982712.013 7   -744517.79349  20697261.64849
  24678363.125 5  -6244445.578 5  -4737748.63646  24678355.60246
  25503166.19511  -9443151.82011  -7353302.84855  25503162.65655
  24017055.336 6 -10255124.717 6  -7957069.52346  24017050.97746
 11  3 31 18 21 45.0000000  0 12G03G06G09G11G14G18G19G21G22G24G27G31
  23924919.625 6  10661440.011 6   8326986.16647  23924914.79747
  24066075.281 6  11226685.466 6   8756834.41746  24066070.62946
  23272306.055 6    550821.340 6    444746.84946  23272300.23046
  23787891.969 5  -7120115.609 5  -8180086.69746  23787882.92246
  20302260.047 6 -10381179.066 6  -8050170.77648  20302250.53148
  22205553.703 6   7820058.995 6   6100636.26847  22205544.42247
  22892435.172 6  -3741544.659 6  -2885306.67847  22892426.06647
  24392931.547 3  17350290.430 3                
  20699175.219 7   -972716.951 7   -736729.44548  20699163.77048
  24668756.063 5  -6294929.695 5  -4777086.94246  24668748.83246
  25511302.000 1  -9400400.414 1  -7319990.12145  25511297.58245
  24006533.523 6 -10310420.086 6  -8000156.71946  24006528.28546
 11  3 31 18 22  0.0000000  0 12G03G06G09G11G14G18G19G21G22G24G27G31
  23932980.086 5  10703795.425 5   8359990.29547  23932975.08247
  24073983.398 5  11268243.706 5   8789217.36347  24073978.86347
  23278703.219 5    584437.326 5    470941.07746  23278697.10246
  23779521.008 6  -7164106.535 6  -8214365.31646  23779511.37546
  20302145.477 7 -10381782.292 7  -8050640.81548  20302135.55148
  22210953.844 6   7848438.587 6   6122750.20147  22210945.03147
  22896021.031 6  -3722703.165 6  -2870625.03147  22896011.04747
  24403441.852 2  17405515.582 2                
  20701088.367 7   -962661.793 7   -728894.27548  20701077.27048
  24659153.859 5  -6345393.178 5  -4816409.11246  24659146.27746
  25519449.445 2  -9357586.501 2  -7286628.75945  25519445.37945
  23996012.766 5 -10365704.816 5  -8043235.60946  23996008.64146
 11  3 31 18 22 15.0000000  0 12G03G06G09G11G14G18G19G21G22G24G27G31
  23941045.438 6  10746180.419 6   8393017.45946  23941040.14146
  24081896.141 6  11309824.834 6   8821618.12346  24081891.48846
  23285126.352 6    618189.228 6    497241.21546  23285119.88346
  23771163.883 5  -7208022.843 5  -8248585.79046  23771154.66046
  20302052.031 7 -10382272.473 7  -8051022.78748  20302042.22348
  22216363.289 6   7876863.235 6   6144899.23647  22216354.06647
  22899628.367 6  -3703743.540 6  -2855851.33647  22899619.37947
  24413957.758 2  17460775.212 2                
  20703013.469 7   -952546.677 7   -721012.37848  20703002.02048
  24649553.328 5  -6395836.033 5  -4855715.23946  24649547.56346
  25527609.516 2  -9314710.654 2  -7253219.06546  25527604.74646
  23985494.391 5 -10420978.626 5  -8086306.00146  23985489.79746
 11  3 31 18 22 30.0000000  0 12G03G06G09G11G14G18G19G21G22G24G27G31
  23949116.813 6  10788594.809 6   8426067.54447  23949111.98447
  24089812.828 5  11351428.511 5   8854036.45547  24089808.35247
  23291574.086 5    652076.912 5    523647.14646  23291568.20346
  23762820.977 6  -7251863.968 6  -8282747.69546  23762811.87146
  20301979.836 7 -10382649.384 7  -8051316.48748  20301970.73048
  22221780.617 6   7905333.069 6   6167083.48547  22221771.51247
  22903259.664 6  -3684665.820 6  -2840985.61947  22903249.85547
  24424479.195 2  17516069.196 2                
  20704949.516 7   -942371.398 7   -713083.60748  20704938.35948
  24639958.617 5  -6446257.683 5  -4895004.84745  24639952.55945
  25535780.117 2  -9271772.753 2  -7219761.04346  25535775.99246
  23974978.188 6 -10476241.012 6  -8129367.50746  23974973.59446
 11  3 31 18 22 45.0000000  0 12G03G06G09G11G14G18G19G21G22G24G27G31
  23957193.742 6  10831038.296 6   8459140.28847  23957188.97347
  24097734.266 5  11393054.117 5   8886471.88046  24097729.61346
  23298048.820 5    686100.173 5    550158.73046  23298042.99646
  23754492.102 6  -7295629.467 6  -8316850.64946  23754483.40646
  20301929.859 7 -10382913.076 7  -8051521.96348  20301920.40248
  22227206.891 6   7933848.015 6   6189302.89247  22227198.19547
  22906912.047 6  -3665470.121 6  -2826027.97147  22906902.29747
  24435007.789 1  17571397.304 1                
  20706897.258 7   -932135.757 7   -705107.78748  20706886.16048
  24630367.906 5  -6496657.987 5  -4934277.80945  24630361.32045
  25543962.336 2  -9228773.237 2  -7186255.01246  25543958.50446
  23964464.516 5 -10531491.618 5  -8172419.82046  23964459.51246
