     2.11           OBSERVATION DATA    GPS(GPS)            RINEX VERSION / TYPE
cnvtToRINEX 2.11.0  Stan Thomas         02-Apr-11 18:25 UTC PGM / RUN BY / DATE 
----------------------------------------------------------- COMMENT             
BR2                                                         MARKER NAME         
BR2                                                         MARKER NUMBER       
Stan Thomas         University of Utah                      OBSERVER / AGENCY   
4644124574          NetRS               1.12                REC # / TYPE / VERS 
12532422            TRM41249.00                             ANT # / TYPE        
 -1911676.5772 -4567248.7241  4009469.9359                  APPROX POSITION XYZ 
        1.2210        0.0000        0.0000                  ANTENNA: DELTA H/E/N
     1     1     0                                          WAVELENGTH FACT L1/2
     4    C1    L1    L2    P2                              # / TYPES OF OBSERV 
  2011     4     1     0     0    0.0000000     GPS         TIME OF FIRST OBS   
  2011     4     1     3     6    0.0000000     GPS         TIME OF LAST OBS    
     0                                                      RCV CLOCK OFFS APPL 
    15                                                      LEAP SECONDS        
    17                                                      # OF SATELLITES     
   G03   745   745   745   745                              PRN / # OF OBS      
   G04    68    68    57    57                              PRN / # OF OBS      
   G05   469   466   457   457                              PRN / # OF OBS      
   G06   745   745   745   745                              PRN / # OF OBS      
   G07   745   745   745   745                              PRN / # OF OBS      
   G08   698   696   647   647                              PRN / # OF OBS      
   G10   745   745   745   745                              PRN / # OF OBS      
   G11    52    52    20    20                              PRN / # OF OBS      
   G13   745   745   745   745                              PRN / # OF OBS      
   G16   603   602   598   598                              PRN / # OF OBS      
   G19   618   610   587   587                              PRN / # OF OBS      
   G20   433   431   417   417                              PRN / # OF OBS      
   G23   745   745   745   745                              PRN / # OF OBS      
   G26   103   102    89    89                              PRN / # OF OBS      
   G28   401   401   401   401                              PRN / # OF OBS      
   G30   342   342   342   342                              PRN / # OF OBS      
   G31    33    30    33    33                              PRN / # OF OBS      
CARRIER PHASE MEASUREMENTS: PHASE SHIFTS REMOVED            COMMENT             
                                                            END OF HEADER       
 11  4  1  0  0  0.0000000  0 11G03G04G06G07G10G13G16G20G23G30G31   
  23729663.273 4  -4169454.039 4  -3014148.83946  23729656.98046
  25206575.141 5 -19941489.352 5 -19638760.88045  25206569.37545
  24103182.383 3  -7072867.622 3  -5351047.31946  24103175.85546
  23395159.445 6 -13877956.253 6 -10756982.47147  23395151.39547
  24063152.469 5  -7915599.886 5  -6131229.34046  24063143.65646
  21271523.594 7 -21804570.401 7 -19791508.94948  21271513.31648
  21026139.617 7 -21549795.521 7 -20416561.81048  21026128.98848
  21694866.328 7 -19936820.371 7 -18743219.72548  21694857.04748
  20135166.055 7 -29571918.200 7 -24262431.83749  20135153.55149
  21699009.969 7 -22087573.254 7 -20192985.55448  21699001.03948
  25536894.781 3  -2268287.214 3  -1733550.46045  25536886.08645
 11  4  1  0  0 15.0000000  0 11G03G04G06G07G10G13G16G20G23G30G31   
  23721338.734 5  -4213202.041 5  -3048238.13846  23721331.97346
  25210900.852 4 -19918748.497 4 -19621040.77845  25210897.25445
  24096902.852 4  -7105866.134 4  -5376760.38846  24096896.38346
  23387843.086 6 -13916403.315 6 -10786941.16747  23387835.38747
  24054874.492 5  -7959105.630 5  -6165129.85346  24054865.38746
  21265373.633 7 -21836887.584 7 -19816691.14948  21265363.76648
  21029029.461 7 -21534607.912 7 -20404727.30648  21029019.12548
  21702609.953 7 -19896127.665 7 -18711511.14948  21702600.84848
  20134076.930 8 -29577642.962 8 -24266892.68549  20134064.30949
  21705593.328 7 -22052977.126 7 -20166027.54948  21705584.92648
  25545217.016 3  -2224552.334 3  -1699471.35645  25545208.37945
 11  4  1  0  0 30.0000000  0 11G03G04G06G07G10G13G16G20G23G30G31   
  23713019.906 5  -4256915.679 5  -3082300.65146  23713013.73046
  25215246.820 5 -19895921.106 5 -19603253.25345  25215241.75845
  24090633.875 4  -7138807.974 4  -5402429.29746  24090627.99246
  23380534.703 6 -13954808.572 6 -10816867.27647  23380527.00447
  24046611.039 5  -8002528.413 5  -6198965.78045  24046601.64145
  21259233.445 7 -21869154.019 7 -19841833.80948  21259223.93048
  21031947.852 7 -21519272.357 7 -20392777.51648  21031937.28148
  21710371.836 7 -19855341.431 7 -18679729.69748  21710362.26248
  20133005.086 7 -29583274.880 7 -24271281.19149  20132992.81649
  21712200.578 7 -22018258.986 7 -20138974.46048  21712191.23848
  25553535.445 1  -2180835.636 1  -1665406.39645  25553527.45345
 11  4  1  0  0 45.0000000  0 11G03G04G06G07G10G13G16G20G23G30G31   
  23704708.508 5  -4300594.209 5  -3116335.82446  23704701.80546
  25219610.211 6 -19873007.478 6 -19585398.47946  25219601.80946
  24084376.680 5  -7171692.636 5  -5428053.67846  24084370.27046
  23373233.977 6 -13993171.857 6 -10846760.68247  23373226.39547
  24038363.266 5  -8045867.763 5  -6232736.68045  24038354.57045
  21253103.039 7 -21901369.304 7 -19866936.61348  21253093.05548
  21034894.281 7 -21503788.780 7 -20380712.39548  21034883.65248
  21718150.828 7 -19814461.784 7 -18647875.44548  21718142.13348
  20131950.805 8 -29588813.651 8 -24275597.11249  20131938.47749
  21718830.000 7 -21983418.977 7 -20111826.41548  21718821.36348
  25561852.234 2  -2137136.974 2  -1631355.56145  25561843.07045
 11  4  1  0  1  0.0000000  0 11G03G04G06G07G10G13G16G20G23G30G31   
  23696403.367 4  -4344237.257 4  -3150343.31846  23696396.31346
  25223986.211 6 -19850007.751 6 -19567476.58745  25223978.33645
  24078130.039 4  -7204519.667 4  -5453633.10246  24078122.98446
  23365942.008 6 -14031493.054 6 -10876621.31047  23365934.07447
  24030131.938 4  -8089123.093 4  -6266442.03745  24030123.77045
  21246982.328 7 -21933533.215 7 -19891999.38648  21246972.46148
  21037868.711 7 -21488157.234 7 -20368531.96948  21037858.55148
  21725947.539 7 -19773488.918 7 -18615948.56448  21725938.55148
  20130914.727 8 -29594259.026 8 -24279840.26049  20130902.45749
  21725482.883 7 -21948457.365 7 -20084583.61248  21725474.30548
  25570162.336 1  -2093456.256 1  -1597318.64345  25570155.86745
 11  4  1  0  1 15.0000000  0 11G03G04G06G07G10G13G16G20G23G30G31   
  23688105.195 5  -4387844.016 5  -3184322.56446  23688098.66846
  25228373.789 4 -19826921.739 4 -19549487.50745  25228371.71545
  24071893.766 3  -7237288.113 3  -5479166.90746  24071887.47346
  23358657.945 6 -14069771.557 6 -10906448.64847  23358650.18847
  24021916.898 4  -8132293.634 4  -6300081.40546  24021908.14546
  21240871.727 7 -21965645.038 7 -19917021.57648  21240861.27348
  21040871.617 7 -21472377.517 7 -20356236.08548  21040861.28148
  21733762.203 7 -19732422.708 7 -18583948.94848  21733753.09848
  20129896.602 7 -29599610.465 7 -24284010.20849  20129884.21549
  21732158.953 7 -21913374.066 7 -20057245.98848  21732150.14148
  25578471.51611 -85547052.96811 -66626095.39955  25578464.69555
 11  4  1  0  1 30.0000000  0 11G03G04G06G07G10G13G16G20G23G30G31   
  23679815.359 5  -4431407.527 5  -3218268.10146  23679808.36346
  25232786.078 5 -19803743.264 5 -19531426.41745  25232782.07045
  24065670.297 3  -7269991.282 3  -5504649.83346  24065664.12146
  23351383.484 6 -14108000.928 6 -10936237.71947  23351375.14147
  24013718.914 4  -8175372.610 4  -6333649.38145  24013710.10245
  21234772.008 7 -21997697.975 7 -19941997.86948  21234762.19948
  21043903.852 7 -21456443.258 7 -20343819.77548  21043893.28148
  21741595.969 7 -19691257.007 7 -18551871.79948  21741586.39548
  20128897.492 7 -29604861.279 7 -24288101.75249  20128885.04749
  21738859.383 7 -21878162.894 7 -20029808.72248  21738850.92248
  25586779.81311                 -66592080.92055  25586771.46955
 11  4  1  0  1 45.0000000  0 11G03G04G06G07G10G13G16G20G23G30G31   
  23671529.484 5  -4474948.196 5  -3252195.82946  23671522.78146
  25237212.898 5 -19780493.519 5 -19513309.71445  25237206.37145
  24059456.156 3  -7302649.525 3  -5530097.76546  24059449.51246
  23344113.938 6 -14146201.939 6 -10966004.68447  23344105.77047
  24005536.008 4  -8218380.578 4  -6367162.08246  24005527.02046
  21228679.664 7 -22029712.551 7 -19966944.27948  21228669.85548
  21046961.102 7 -21440375.612 7 -20331299.53048  21046951.05948
  21749444.313 7 -19650013.068 7 -18519733.68548  21749434.85548
  20127913.313 7 -29610032.160 7 -24292131.00249  20127901.21949
  21745580.703 7 -21842845.041 7 -20002288.32748  21745571.65648
  25595079.242 1 -85459781.094 1 -66558091.33345  25595072.42245
 11  4  1  0  2  0.0000000  0 11G03G04G06G07G10G13G16G20G23G30G31   
  23663252.797 5  -4518445.508 5  -3286089.79346  23663245.91846
  25241655.594 5 -19757152.705 5 -19495122.07445  25241647.89545
  24053253.188 4  -7335242.730 4  -5555494.99546  24053247.24646
  23336853.367 6 -14184354.502 6 -10995733.90047  23336845.19947
  23997368.813 5  -8261297.102 5  -6400603.46146  23997359.76646
  21222598.883 7 -22061668.586 7 -19991845.05848  21222589.19148
  21050048.047 7 -21424154.624 7 -20318659.80648  21050037.82848
  21757311.648 7 -19608671.036 7 -18487519.13848  21757302.36748
  20126948.273 7 -29615102.835 7 -24296082.17149  20126935.88749
  21752325.383 7 -21807400.655 7 -19974669.33148  21752316.86348
  25603377.570 1 -85416173.001 1 -66524111.02545  25603370.28145
 11  4  1  0  2 15.0000000  0 11G03G04G06G07G10G13G16G20G23G30G31   
  23654982.242 5  -4561905.007 5  -3319954.26246  23654975.65646
  25246112.219 5 -19733727.227 5 -19476868.45246  25246105.69146
  24047062.359 4  -7367776.327 4  -5580845.79746  24047056.35946
  23329601.469 6 -14222464.663 6 -11025430.07047  23329592.94947
  23989218.539 5  -8304128.005 5  -6433978.13046  23989209.60946
  21216528.242 7 -22093572.149 7 -20016704.96748  21216518.25848
  21053163.164 7 -21407786.645 7 -20305905.53448  21053152.53548
  21765196.039 7 -19567237.262 7 -18455233.10548  21765187.22748
  20126001.086 8 -29620079.264 8 -24299959.90949  20125988.87549
  21759092.750 7 -21771836.156 7 -19946956.73648  21759083.93848
  25611673.117 1 -85372583.253 1 -66490145.05145  25611665.12545
 11  4  1  0  2 30.0000000  0 11G03G04G06G07G10G13G16G20G23G30G31   
  23646720.820 5  -4605318.710 5  -3353783.08046  23646714.11746
  25250584.609 4 -19710209.660 4 -19458543.15245  25250580.83645
  24040884.055 4  -7400242.076 4  -5606143.73546  24040878.64146
  23322358.672 6 -14260524.766 6 -11055087.23947  23322350.73847
  23981085.055 3  -8346865.136 3  -6467279.74346  23981076.88746
  21210468.461 7 -22125415.177 7 -20041517.69848  21210458.71148
  21056306.602 7 -21391264.003 7 -20293030.74548  21056296.61748
  21773099.563 7 -19525704.294 7 -18422869.78148  21773090.45748
  20125073.664 7 -29624953.573 7 -24303758.06749  20125061.57049
  21765884.633 7 -21736144.221 7 -19919144.84748  21765875.99648
  25619962.97711                 -66456187.15655  25619957.68055
 11  4  1  0  2 45.0000000  0 11G03G04G06G07G10G13G16G20G23G30G31   
  23638464.016 5  -4648708.545 5  -3387593.27046  23638457.37146
  25255075.781 5 -19686622.715 5 -19440163.74346  25255070.07446
  24034715.844 5  -7432662.415 5  -5631406.33646  24034708.96546
  23315121.211 6 -14298557.099 6 -11084722.76347  23315113.62947
  23972966.063 4  -8389530.743 4  -6500525.62646  23972957.13346
  21204416.117 7 -22157219.990 7 -20066300.64848  21204406.07448
  21059476.211 7 -21374609.435 7 -20280053.15448  21059466.05148
  21781017.164 7 -19484095.025 7 -18390446.99648  21781008.70348
  20124161.367 8 -29629748.007 8 -24307493.99049  20124149.27349
  21772696.938 7 -21700347.520 7 -19891251.32048  21772687.53948
  25628250.63311 -85285457.74711 -66422255.14055  25628244.10555
 11  4  1  0  3  0.0000000  0 11G03G04G06G07G10G13G16G20G23G30G31   
  23630215.906 5  -4692052.147 5  -3421367.44746  23630209.20346
  25259581.297 5 -19662944.734 5 -19421713.36945  25259575.82445
  24028558.828 5  -7465014.891 5  -5656615.96046  24028552.41846
  23307894.047 6 -14336539.705 6 -11114319.54947  23307885.58647
  23964864.750 4  -8432102.456 4  -6533698.34146  23964856.17246
  21198375.648 7 -22188964.265 7 -20091036.42648  21198365.37148
  21062674.758 7 -21357801.141 7 -20266955.78348  21062664.77348
  21788954.016 6 -19442387.812 6 -18357947.88648  21788945.14548
  20123268.406 8 -29634440.372 8 -24311150.36749  20123256.37149
  21779532.445 7 -21664424.378 7 -19863259.26348  21779524.10248
  25636534.66411 -85241922.50111 -66388331.61555  25636529.07455
 11  4  1  0  3 15.0000000  0 11G03G04G06G07G10G13G16G20G23G30G31   
  23621977.047 5  -4735349.987 5  -3455105.95946  23621970.10946
  25264104.023 5 -19639176.856 5 -19403193.00045  25264098.25845
  24022415.258 5  -7497299.790 5  -5681772.98146  24022408.73046
  23300675.109 6 -14374473.098 6 -11143877.98447  23300667.11747
  23956781.266 4  -8474580.837 4  -6566798.35446  23956773.44946
  21192345.984 7 -22220648.770 7 -20115725.63948  21192336.11748
  21065902.250 7 -21340840.098 7 -20253739.38748  21065892.32448
  21796908.992 6 -19400583.786 6 -18325373.35748  21796900.06348
  20122395.039 7 -29639031.401 7 -24314727.79249  20122382.41849
  21786392.695 7 -21628376.003 7 -19835169.63348  21786383.59048
  25644816.19511                 -66354417.30355  25644811.13355
 11  4  1  0  3 30.0000000  0 11G03G04G06G07G10G13G16G20G23G30G31   
  23613742.273 5  -4778621.771 5  -3488824.16446  23613735.74646
  25268641.398 5 -19615339.594 5 -19384618.54145  25268634.75445
  24016280.172 5  -7529537.137 5  -5706892.94646  24016274.28946
  23293461.930 6 -14412377.594 6 -11173413.90347  23293454.17247
  23948712.188 4  -8516985.757 4  -6599841.10046  23948704.48846
  21186324.461 7 -22252293.345 7 -20140383.72648  21186314.12548
  21069154.977 7 -21323746.618 7 -20240419.78648  21069144.75848
  21804878.789 7 -19358703.396 7 -18292739.31148  21804869.62548
  20121536.711 7 -29643541.050 7 -24318241.79849  20121524.14849
  21793271.953 7 -21592222.849 7 -19806998.34948  21793263.14148
  25653094.523 2 -85154907.764 2 -66320527.99746  25653087.46946
 11  4  1  0  3 45.0000000  0 11G03G04G06G07G10G13G16G20G23G30G31   
  23605516.570 5  -4821845.482 5  -3522504.93246  23605510.51246
  25273192.664 5 -19591411.676 5 -19365973.41045  25273187.66045
  24010159.156 5  -7561704.723 5  -5731958.53246  24010152.68846
  23286258.781 6 -14450231.697 6 -11202910.54447  23286250.61347
  23940660.828 4  -8559295.284 4  -6632809.53146  23940653.07046
  21180314.148 7 -22283876.280 7 -20164993.79848  21180304.39848
  21072437.109 7 -21306499.341 7 -20226980.35448  21072426.83248
  21812867.297 6 -19316725.504 6 -18260029.29248  21812858.07448
  20120698.344 7 -29647947.599 7 -24321675.47749  20120685.78149
  21800175.922 7 -21555943.787 7 -19778728.96147  21800166.64147
  25661367.883 2 -85111427.131 2 -66286646.99646  25661362.23446
 11  4  1  0  4  0.0000000  0 11G03G04G06G07G10G13G16G20G23G30G31   
  23597299.117 5  -4865029.741 5  -3556154.92746  23597292.76646
  25277760.188 4 -19567402.162 4 -19347264.72845  25277756.76645
  24004049.539 5  -7593811.434 5  -5756976.71646  24004043.24646
  23279062.836 6 -14488044.426 6 -11232374.95547  23279054.66847
  23932626.188 4  -8601518.073 4  -6665710.34846  23932618.19546
  21174314.188 7 -22315406.325 7 -20189562.64348  21174304.26248
  21075746.961 7 -21289107.472 7 -20213428.24748  21075736.09848
  21820871.977 7 -19274659.334 7 -18227250.48148  21820862.98848
  20119877.617 7 -29652260.004 7 -24325035.78849  20119865.64149
  21807101.828 7 -21519548.144 7 -19750368.71747  21807093.13347
  25669638.078 3 -85067966.146 3 -66252781.31846  25669632.07846
 11  4  1  0  4 15.0000000  0 11G03G04G06G07G10G13G16G20G23G30G31   
  23589089.336 5  -4908173.056 5  -3589773.05246  23589082.63346
  25282348.828 5 -19543310.705 5 -19328492.21645  25282341.36345
  23997950.750 4  -7625855.734 4  -5781946.23446  23997944.92646
  23271875.453 6 -14525814.664 6 -11261806.25947  23271867.22747
  23924608.563 5  -8643652.657 5  -6698542.46846  23924599.92646
  21168324.477 7 -22346882.212 7 -20214089.29548  21168314.72748
  21079083.734 7 -21271570.164 7 -20199762.80648  21079073.75048
  21828893.281 6 -19232504.238 6 -18194402.37948  21828884.41048
  20119075.359 7 -29656477.029 7 -24328321.77849  20119062.68049
  21814049.461 7 -21483035.167 7 -19721917.06247  21814041.00047
  25677905.391 4 -85024523.777 4 -66218930.15146  25677898.98046
 11  4  1  0  4 30.0000000  0 11G03G04G06G07G10G13G16G20G23G30G31   
  23580887.148 5  -4951275.932 5  -3623359.64246  23580880.68046
  25286947.391 5 -19519138.367 5 -19309656.64345  25286941.27345
  23991865.734 4  -7657838.177 4  -5806867.56946  23991859.32446
  23264696.023 6 -14563543.245 6 -11291205.10647  23264687.79747
  23916607.320 5  -8685699.701 5  -6731306.34346  23916599.09446
  21162345.078 7 -22378304.714 7 -20238574.34548  21162334.97748
  21082448.773 7 -21253888.527 7 -20185984.91648  21082438.37948
  21836932.102 7 -19190261.351 7 -18161485.86348  21836923.40648
  20118290.398 7 -29660599.411 7 -24331534.01849  20118278.48049
  21821020.188 7 -21446405.934 7 -19693374.81347  21821011.31647
  25686169.320 4 -84981101.015 4 -66185094.22146  25686162.03146
 11  4  1  0  4 45.0000000  0 11G03G04G06G07G10G13G16G20G23G30G31   
  23572692.797 6  -4994336.668 6  -3656913.40547  23572686.73847
  25291560.680 5 -19494883.972 5 -19290757.14345  25291557.19945
  23985791.430 4  -7689757.109 4  -5831739.41946  23985785.02046
  23257525.008 6 -14601228.756 6 -11320570.38247  23257516.43047
  23908623.398 4  -8727657.457 4  -6764000.65146  23908615.34846
  21156376.016 7 -22409672.190 7 -20263016.51248  21156365.73848
  21085840.914 7 -21236061.430 7 -20172093.67148  21085830.63748
  21844987.305 6 -19147929.582 6 -18128500.09748  21844979.19548
  20117524.383 7 -29664625.639 7 -24334671.33649  20117512.11349
  21828013.148 6 -21409659.477 6 -19664741.22148  21828003.98448
  25694428.320 5 -84937696.375 5 -66151272.47046  25694422.02746
 11  4  1  0  5  0.0000000  0 11G03G04G06G07G10G13G16G20G23G30G31   
  23564506.336 6  -5037355.627 6  -3690434.62146  23564499.75046
  25296192.664 5 -19470548.561 5 -19271794.51245  25296187.48445
  23979729.219 4  -7721612.791 4  -5856561.95446  23979722.75046
  23250361.883 6 -14638872.005 6 -11349902.73747  23250352.66047
  23900654.906 5  -8769526.420 5  -6796625.76946  23900647.55946
  21150417.391 7 -22440985.186 7 -20287416.23648  21150407.28948
  21089260.875 7 -21218089.842 7 -20158089.83448  21089250.83248
  21853060.578 6 -19105510.113 6 -18095445.99248  21853050.59448
  20116776.484 7 -29668556.195 7 -24337734.10849  20116764.33249
  21835027.281 7 -21372796.933 7 -19636017.16947  21835018.52747
  25702685.805 4 -84894310.746 4 -66117465.49446  25702677.87146
 11  4  1  0  5 15.0000000  0 11G03G04G06G07G10G13G16G20G23G30G31   
  23556328.469 5  -5080331.867 5  -3723922.55646  23556321.94146
  25300839.281 5 -19446132.299 5 -19252768.89645  25300834.16045
  23973679.813 5  -7753404.602 5  -5881334.74246  23973673.28546
  23243206.586 6 -14676472.552 6 -11379201.83147  23243197.71547
  23892705.164 5  -8811305.867 5  -6829181.15346  23892697.46546
  21144469.242 7 -22472243.142 7 -20311773.07648  21144459.14148
  21092708.438 7 -21199973.472 7 -20143973.18848  21092697.92648
  21861149.641 6 -19063003.099 6 -18062323.66948  21861140.41848
  20116047.172 7 -29672390.645 7 -24340721.98949  20116034.55149
  21842064.336 7 -21335818.160 7 -19607202.54747  21842055.64147
  25710937.977 4 -84850944.046 4 -66083673.27546  25710930.62946
 11  4  1  0  5 30.0000000  0 11G03G04G06G07G10G13G16G20G23G30G31   
  23548158.211 5  -5123265.317 5  -3757377.13346  23548151.85946
  25305502.461 5 -19421635.671 5 -19233680.62545  25305495.28945
  23967642.211 5  -7785132.535 5  -5906057.75446  23967635.50846
  23236059.258 6 -14714030.679 6 -11408467.85447  23236050.32847
  23884772.016 5  -8852995.893 5  -6861666.85946  23884763.90646
  21138531.125 7 -22503446.221 7 -20336087.15248  21138521.55148
  21096182.836 7 -21181713.018 7 -20129744.26548  21096172.91048
  21869253.875 6 -19020409.082 6 -18029133.54348  21869245.00448
  20115335.406 8 -29676129.175 8 -24343635.12849  20115323.25449
  21849122.797 7 -21298723.996 7 -19578298.02147  21849114.21947
  25719186.242 4 -84807596.493 4 -66049895.98346  25719179.07046
 11  4  1  0  5 45.0000000  0 11G03G04G06G07G10G13G16G20G23G30G31   
  23539996.383 5  -5166155.344 5  -3790797.88346  23539989.38746
  25310176.875 5 -19397058.768 5 -19214529.81546  25310172.28146
  23961616.852 4  -7816795.847 4  -5930730.40846  23961610.14846
  23228919.906 6 -14751545.950 6 -11437700.48947  23228911.56347
  23876856.055 5  -8894595.707 5  -6894082.25546  23876848.12146
  21132603.930 7 -22534594.253 7 -20360358.32648  21132594.18048
  21099685.664 7 -21163308.317 7 -20115402.93748  21099675.27048
  21877376.195 6 -18977728.067 6 -17995875.63147  21877366.44547
  20114642.383 8 -29679771.429 8 -24346473.24849  20114630.11349
  21856203.688 7 -21261514.561 7 -19549303.67547  21856194.93447
  25727431.016 4 -84764267.846 4 -66016133.41446  25727424.19546
 11  4  1  0  6  0.0000000  0 11G03G04G06G07G10G13G16G20G23G30G31   
  23531843.180 6  -5209001.312 6  -3824184.30346  23531836.71146
  25314867.727 4 -19372401.603 4 -19195316.51846  25314864.18846
  23955604.117 4  -7848393.947 4  -5955352.24346  23955597.41446
  23221789.547 6 -14789018.025 6 -11466899.45847  23221781.02747
  23868956.914 5  -8936105.010 5  -6926427.14946  23868948.98046
  21126687.719 7 -22565686.309 7 -20384585.88948  21126677.50048
  21103214.930 7 -21144759.366 7 -20100949.20648  21103205.06348
  21885514.359 6 -18934960.188 6 -17962550.02948  21885505.60548
  20113967.719 7 -29683316.902 7 -24349235.95249  20113955.50849
  21863306.516 7 -21224189.910 7 -19520219.54248  21863297.64548
  25735673.125 4 -84720957.877 4 -65982385.40946  25735666.36346
 11  4  1  0  6 15.0000000  0 11G03G04G06G07G10G13G16G20G23G30G31   
  23523697.852 6  -5251803.298 6  -3857536.41946  23523691.55946
  25319578.078 5 -19347665.022 5 -19176041.29345  25319572.02045
  23949602.922 4  -7879927.050 4  -5979923.42346  23949596.98046
  23214666.297 6 -14826447.755 6 -11496065.45247  23214658.01247
  23861074.930 5  -8977523.920 5  -6958701.59146  23861067.58246
  21120781.453 7 -22596722.678 7 -20408770.06648  21120771.35248
  21106772.656 7 -21126066.889 7 -20086383.64848  21106762.08648
  21893669.578 6 -18892106.174 6 -17929157.32648  21893660.18048
  20113311.383 7 -29686765.880 7 -24351923.46749  20113299.05549
  21870431.344 7 -21186750.730 7 -19491046.17347  21870422.35547
  25743911.156 4 -84677667.118 4 -65948652.36246  25743904.16046
 11  4  1  0  6 30.0000000  0 11G03G04G06G07G10G13G16G20G23G30G31   
  23515561.719 6  -5294560.811 6  -3890853.92946  23515555.25046
  25324299.844 5 -19322849.163 5 -19156704.25245  25324293.90245
  23943615.203 4  -7911394.594 4  -6004443.52946  23943608.32446
  23207552.008 6 -14863834.816 6 -11525198.17247  23207543.78147
  23853210.531 5  -9018851.970 5  -6990905.22846  23853202.59846
  21114886.234 7 -22627703.060 7 -20432910.60748  21114876.01648
  21110357.055 7 -21107231.011 7 -20071706.34448  21110346.48448
  21901840.766 6 -18849166.266 6 -17895697.68248  21901831.77748
  20112673.109 7 -29690118.176 7 -24354535.64149  20112660.95749
  21877577.070 7 -21149197.183 7 -19461783.68247  21877568.55147
  25752145.273 5 -84634395.400 5 -65914934.15447  25752138.45347
 11  4  1  0  6 45.0000000  0 11G03G04G06G07G10G13G16G20G23G30G31   
  23507433.805 6  -5337272.857 6  -3924135.99946  23507427.39546
  25329034.734 4 -19297953.853 4 -19137305.35946  25329031.54746
  23937639.195 5  -7942795.772 5  -6028911.92946  23937633.13746
  23200445.359 6 -14901178.699 6 -11554297.26347  23200437.01647
  23845362.820 5  -9060088.428 5  -7023037.49546  23845355.23846
  21109001.117 7 -22658626.821 7 -20457007.02348  21108991.30948
  21113968.742 7 -21088251.263 7 -20056916.92748  21113958.23048
  21910028.242 6 -18806140.163 6 -17862170.87548  21910018.96148
  20112054.242 7 -29693373.066 7 -24357071.91749  20112041.79749
  21884745.289 7 -21111529.157 7 -19432431.98547  21884736.71147
  25760375.844 5 -84591142.375 5 -65881230.49747  25760368.78947
 11  4  1  0  7  0.0000000  0 11G03G04G06G07G10G13G16G20G23G30G31   
  23499314.680 5  -5379939.538 5  -3957382.73046  23499307.50846
  25333788.297 4 -19272979.870 4 -19117845.16345  25333784.23045
  23931676.539 5  -7974130.769 5  -6053328.75946  23931670.30546
  23193347.172 6 -14938480.053 6 -11583363.20747  23193339.53147
  23837533.719 5  -9101233.261 5  -7055098.38047  23837526.07847
  21103127.219 7 -22689494.327 7 -20481059.61648  21103117.52748
  21117607.164 7 -21069128.546 7 -20042016.10548  21117597.47348
  21918231.930 6 -18763028.873 6 -17828577.68548  21918222.88348
  20111453.250 7 -29696531.014 7 -24359532.65949  20111440.57049
  21891934.766 7 -21073747.575 7 -19402991.81647  21891925.83647
  25768603.883 5 -84547908.567 5 -65847541.83346  25768596.35946
 11  4  1  0  7 15.0000000  0 11G03G04G06G07G10G13G16G20G23G30G31   
  23491204.125 5  -5422560.378 5  -3990593.72446  23491197.48046
  25338557.883 5 -19247927.632 5 -19098323.97645  25338551.70745
  23925726.383 5  -8005399.035 5  -6077693.56746  23925719.44546
  23186257.406 6 -14975738.285 6 -11612395.54747  23186249.12147
  23829721.414 5  -9142286.190 5  -7087087.65046  23829713.53946
  21097264.516 7 -22720305.172 7 -20505068.05848  21097254.18048
  21121273.523 7 -21049862.785 7 -20027003.82948  21121263.18848
  21926452.023 6 -18719832.593 6 -17794918.27548  21926443.32848
  20110870.695 7 -29699591.578 7 -24361917.51749  20110858.54349
  21899146.016 7 -21035852.516 7 -19373463.21247  21899137.49647
  25776826.867 5 -84504693.742 5 -65813867.95947  25776819.81347
 11  4  1  0  7 30.0000000  0 11G03G04G06G07G10G13G16G20G23G30G31   
  23483102.570 6  -5465135.486 6  -4023769.09146  23483095.51646
  25343338.891 4 -19222797.826 4 -19078742.30045  25343333.41845
  23919788.727 5  -8036600.791 5  -6102006.58146  23919782.14146
  23179175.555 6 -15012954.086 6 -11641394.84047  23179167.50447
  23821926.758 5  -9183247.477 5  -7119005.49346  23821919.17646
  21091412.234 7 -22751059.587 7 -20529032.52648  21091402.25048
  21124966.680 7 -21030454.960 7 -20011880.85248  21124956.28548
  21934688.008 6 -18676552.237 6 -17761193.34048  21934679.13748
  20110306.656 7 -29702555.302 7 -24364226.91649  20110294.85549
  21906379.227 7 -20997845.116 7 -19343847.07648  21906369.94548
  25785046.656 5 -84461498.661 5 -65780209.46346  25785039.60246
 11  4  1  0  7 45.0000000  0 11G03G04G06G07G10G13G16G20G23G30G31   
  23475009.781 6  -5507663.373 6  -4056907.65946  23475002.31646
  25348133.977 4 -19197589.787 4 -19059099.70745  25348130.90645
  23913863.750 4  -8067734.710 4  -6126266.76046  23913857.34046
  23172101.547 6 -15050126.443 6 -11670360.27347  23172093.61347
  23814150.547 5  -9224115.653 5  -7150850.80646  23814142.14546
  21085570.445 7 -22781756.612 7 -20552952.27648  21085560.57848
  21128687.164 7 -21010904.173 7 -19996646.47848  21128676.59448
  21942940.359 6 -18633187.180 6 -17727402.41848  21942931.37148
  20109761.203 8 -29705420.933 8 -24366459.87149  20109749.28549
  21913632.711 7 -20959724.640 7 -19314142.83048  21913623.60548
  25793263.203 5 -84418322.476 5 -65746565.68146  25793255.56346
 11  4  1  0  8  0.0000000  0 11G03G04G06G07G10G13G16G20G23G30G31   
  23466925.594 5  -5550144.259 5  -4090009.62746  23466918.12946
  25352946.633 4 -19172304.380 4 -19039396.85045  25352942.27345
  23907952.703 4  -8098800.998 4  -6150474.16046  23907946.17646
  23165035.844 6 -15087255.912 6 -11699292.27947  23165027.85247
  23806390.406 5  -9264890.925 5  -7182623.69546  23806383.23446
  21079739.922 7 -22812396.377 7 -20576827.40748  21079730.23048
  21132434.375 7 -20991211.080 7 -19981301.20848  21132424.21548
  21951208.406 6 -18589738.110 6 -17693546.02148  21951199.47748
  20109234.727 7 -29708188.755 7 -24368616.61749  20109222.75049
  21920908.281 7 -20921491.682 7 -19284350.92847  21920899.64547
  25801474.914 5 -84375165.664 5 -65712937.03147  25801468.38747
 11  4  1  0  8 15.0000000  0 10G03G04G06G07G10G13G16G20G23G30      
  23458851.742 5  -5592571.047 5  -4123069.40446  23458844.92246
  25357775.039 5 -19146935.353 5 -19019628.79846  25357770.21146
  23902055.359 5  -8129792.494 5  -6174623.34546  23902047.95346
  23157980.156 6 -15124335.827 6 -11728185.68347  23157971.63747
  23798650.172 5  -9305566.518 5  -7214318.93647  23798642.70747
  21073921.391 7 -22842972.167 7 -20600652.68348  21073911.64148
  21136210.094 7 -20971369.324 7 -19965840.09848  21136199.69948
  21959493.570 6 -18546198.768 6 -17659619.28548  21959484.58248
  20108728.273 7 -29710852.256 7 -24370692.07549  20108716.23849
  21928206.531 7 -20883140.088 7 -19254466.58748  21928197.54348
 11  4  1  0  8 30.0000000  0 10G03G04G06G07G10G13G16G20G23G30      
  23450786.047 5  -5634956.907 5  -4156097.29446  23450779.40246
  25362616.211 5 -19121496.690 5 -18999806.48446  25362611.20746
  23896169.195 5  -8160722.631 5  -6198724.69746  23896161.90646
  23150930.109 6 -15161379.829 6 -11757051.09047  23150922.00047
  23790926.469 5  -9346155.781 5  -7245946.91546  23790918.88746
  21068112.797 7 -22873497.345 7 -20624438.52548  21068102.46148
  21140011.672 7 -20951392.901 7 -19950274.05148  21140001.27748
  21967793.586 6 -18502583.313 6 -17625633.23948  21967784.71548
  20108238.242 7 -29713424.908 7 -24372696.73849  20108225.91449
  21935524.328 6 -20844683.976 6 -19224500.79848  21935515.39848
 11  4  1  0  8 45.0000000  0 10G03G04G06G07G10G13G16G20G23G30      
  23442729.227 6  -5677294.319 6  -4189087.42646  23442722.93446
  25367471.000 4 -19095981.333 4 -18979924.43545  25367466.34845
  23890296.453 5  -8191583.755 5  -6222772.27746  23890289.63346
  23143889.797 6 -15198380.621 6 -11785882.83847  23143881.39547
  23783220.531 5  -9386651.158 5  -7277501.71046  23783212.42246
  21062315.133 7 -22903964.657 7 -20648179.26948  21062305.14848
  21143840.422 7 -20931274.672 7 -19934597.50848  21143829.79348
  21976108.742 6 -18458884.766 6 -17591582.44848  21976099.98848
  20107767.383 7 -29715899.202 7 -24374624.75449  20107755.34849
  21942863.555 6 -20806116.214 6 -19194448.01247  21942854.68447
 11  4  1  0  9  0.0000000  0 10G03G04G06G07G10G13G16G20G23G30      
  23434682.523 5  -5719583.239 5  -4222039.81846  23434675.29346
  25372340.023 4 -19070390.000 4 -18959983.13245  25372335.48845
  23884437.117 5  -8222375.836 5  -6246766.05446  23884429.77046
  23136857.109 6 -15235338.531 6 -11814681.16647  23136848.64847
  23775532.461 6  -9427052.630 6  -7308983.35246  23775524.35246
  21056528.484 7 -22934374.024 7 -20671874.86748  21056518.44148
  21147695.211 7 -20911015.337 7 -19918811.01448  21147685.05148
  21984440.023 6 -18415103.789 6 -17557467.43347  21984431.27047
  20107315.234 7 -29718275.426 7 -24376476.35949  20107302.96549
  21950224.164 7 -20767437.650 7 -19164308.89047  21950214.64847
 11  4  1  0  9 15.0000000  0 10G03G04G06G07G10G13G16G20G23G30      
  23426644.875 5  -5761822.879 5  -4254953.76746  23426637.29346
  25377224.273 4 -19044722.593 4 -18939982.65945  25377219.21145
  23878591.070 5  -8253098.253 5  -6270705.51746  23878583.84046
  23129832.461 6 -15272253.234 6 -11843445.81747  23129823.94147
  23767862.367 5  -9467359.470 5  -7340391.25846  23767854.25846
  21050752.969 7 -22964724.849 7 -20695524.85548  21050742.92648
  21151577.313 7 -20890614.606 7 -19902914.34448  21151567.15248
  21992787.023 6 -18371240.353 6 -17523288.15048  21992778.03548
  20106881.734 7 -29720553.198 7 -24378251.24349  20106869.52349
  21957605.406 7 -20728648.221 7 -19134083.36747  21957596.35947
 11  4  1  0  9 30.0000000  0 10G03G04G06G07G10G13G16G20G23G30      
  23418615.977 5  -5804012.962 5  -4287829.10746  23418608.92246
  25382124.727 5 -19018979.943 5 -18919923.43145  25382118.72745
  23872757.781 4  -8283751.013 4  -6294590.79346  23872750.60946
  23122815.672 6 -15309124.975 6 -11872177.00647  23122807.62147
  23760210.805 5  -9507571.886 5  -7371725.57446  23760201.58246
  21044988.516 7 -22995017.344 7 -20719129.37748  21044978.59048
  21155486.281 7 -20870073.139 7 -19886907.99348  21155475.82848
  22001149.484 6 -18327295.172 6 -17489045.18048  22001140.26248
  20106466.984 7 -29722732.527 7 -24379949.42449  20106454.77349
  21965007.883 7 -20689748.634 7 -19103772.02047  21964998.83647
 11  4  1  0  9 45.0000000  0 10G03G04G06G07G10G13G16G20G23G30      
  23410596.164 5  -5846153.413 5  -4320665.77646  23410589.63746
  25387036.492 4 -18993162.402 4 -18899805.92845  25387031.89845
  23866937.938 4  -8314333.824 4  -6318421.51946  23866930.88346
  23115807.297 6 -15345953.868 6 -11900874.81047  23115799.12947
  23752575.906 5  -9547689.514 5  -7402986.01346  23752567.68046
  21039234.766 7 -23025251.331 7 -20742688.32248  21039225.25048
  21159421.828 7 -20849391.336 7 -19870792.30948  21159411.25848
  22009527.844 6 -18283268.660 6 -17454738.83248  22009518.62148
  20106071.484 7 -29724813.403 7 -24381570.88049  20106058.80549
  21972430.523 6 -20650739.270 6 -19073375.12847  21972421.82847
 11  4  1  0 10  0.0000000  0 10G03G04G06G07G10G13G16G20G23G30      
  23402587.234 5  -5888242.959 5  -4353462.77446  23402580.29746
  25391964.156 5 -18967269.559 5 -18879629.73045  25391959.50445
  23861131.617 4  -8344845.621 4  -6342196.90646  23861125.09046
  23108807.281 6 -15382739.165 6 -11929538.62747  23108799.11347
  23744959.969 6  -9587711.409 6  -7434171.87946  23744952.21146
  21033492.586 7 -23055425.848 7 -20766200.90948  21033482.83648
  21163384.391 7 -20828568.602 7 -19854566.79448  21163373.93848
  22017921.297 6 -18239160.404 6 -17420368.78648  22017912.19148
  20105693.945 7 -29726794.871 7 -24383114.88049  20105681.61749
  21979875.188 6 -20611619.764 6 -19042892.40947  21979866.43447
 11  4  1  0 10 15.0000000  0 10G03G04G06G07G10G13G16G20G23G30      
  23394587.586 6  -5930281.856 6  -4386220.29546  23394580.59046
  25396904.617 3 -18941302.241 3 -18859395.49345  25396900.78545
  23855339.203 4  -8375286.495 4  -6365917.03946  23855331.73846
  23101815.086 6 -15419481.364 6 -11958168.85747  23101807.27047
  23737361.484 5  -9627637.761 5  -7465283.27946  23737354.02046
  21027762.234 7 -23085541.312 7 -20789667.49648  21027752.66048
  21167373.500 7 -20807605.715 7 -19838232.07148  21167363.16448
  22026330.063 6 -18194971.302 6 -17385935.74348  22026321.25048
  20105336.031 7 -29728677.499 7 -24384581.86049  20105323.46949
  21987340.094 6 -20572391.159 6 -19012324.67847  21987331.57447
 11  4  1  0 10 30.0000000  0 11G03G04G06G07G08G10G13G16G20G23G30   
  23386598.055 6  -5972269.238 6  -4418937.68046  23386590.94146
  25401862.234 4 -18915260.527 4 -18839103.29545  25401855.70745
  23849559.617 4  -8405656.024 4  -6389581.57146  23849552.56346
  23094831.867 6 -15456180.263 6 -11986765.34147  23094823.81647
  25832561.33611                                
  23729782.508 5  -9667467.950 5  -7496319.75146  23729774.39846
  21022042.836 7 -23115596.990 7 -20813087.48548  21022032.79348
  21171389.133 7 -20786502.595 7 -19821788.08048  21171378.62148
  22034754.672 6 -18150701.445 6 -17351439.77648  22034745.44948
  20104996.344 7 -29730460.800 7 -24385971.45049  20104984.07449
  21994825.930 7 -20533053.462 7 -18981671.94347  21994817.23447
 11  4  1  0 10 45.0000000  0 11G03G04G06G07G08G10G13G16G20G23G30   
  23378617.578 6  -6014205.485 6  -4451615.22346  23378610.23046
  25406831.414 4 -18889145.650 4 -18818754.01845  25406825.29745
  23843794.109 4  -8435954.404 4  -6413190.66446  23843787.23046
  23087856.773 6 -15492836.452 6 -12015328.55447  23087848.25447
  25824564.01611                                
  23722221.203 5  -9707202.250 5  -7527281.50146  23722213.38746
  21016334.352 7 -23145593.808 7 -20836461.61748  21016324.60248
  21175431.867 7 -20765260.242 7 -19805235.59548  21175421.47348
  22043194.180 6 -18106352.022 6 -17316881.81048  22043184.95748
  20104676.008 7 -29732145.254 7 -24387284.00749  20104663.50449
  22002332.180 7 -20493607.664 7 -18950934.97247  22002323.48447
 11  4  1  0 11  0.0000000  0 10G03G04G06G07G10G13G16G20G23G30      
  23370647.000 5  -6056089.216 5  -4484251.83346  23370640.00446
  25411813.703 3 -18862956.636 3 -18798347.05845  25411809.40245
  23838041.969 4  -8466180.383 4  -6436743.34846  23838035.26646
  23080888.984 6 -15529449.008 6 -12043857.76547  23080880.75847
  23714678.695 6  -9746839.679 6  -7558167.77046  23714670.11746
  21010637.469 7 -23175530.471 7 -20859788.87648  21010627.42648
  21179500.242 7 -20743877.972 7 -19788574.07648  21179490.19948
  22051648.641 6 -18061922.302 6 -17282261.27148  22051639.41848
  20104374.430 7 -29733729.908 7 -24388518.79649  20104362.16049
  22009859.016 7 -20454053.214 7 -18920113.33547  22009850.55547
 11  4  1  0 11 15.0000000  0 10G03G04G06G07G10G13G16G20G23G30      
  23362686.219 6  -6097920.630 6  -4516847.67346  23362679.80946
  25416812.719 4 -18836694.461 4 -18777883.08845  25416807.07045
  23832303.688 4  -8496333.939 4  -6460239.58846  23832297.16046
  23073930.016 6 -15566018.349 6 -12072353.29747  23073921.73047
  23707153.953 5  -9786380.330 5  -7588978.64146  23707145.72746
  21004951.961 7 -23205407.250 7 -20883069.46048  21004942.21148
  21183595.906 7 -20722356.537 7 -19771804.12248  21183585.39548
  22060118.898 6 -18017412.965 6 -17247578.69948  22060109.61748
  20104091.531 7 -29735214.983 7 -24389676.00149  20104079.55549
  22017406.289 7 -20414390.873 7 -18889207.63047  22017397.59447
 11  4  1  0 11 30.0000000  0 10G03G04G06G07G10G13G16G20G23G30      
  23354736.711 5  -6139699.591 5  -4549402.65446  23354729.01246
  25421823.109 3 -18810359.813 3 -18757362.58945  25421817.87145
  23826580.055 4  -8526415.385 4  -6483679.62346  23826572.76646
  23066979.570 6 -15602544.849 6 -12100815.45647  23066971.22747
  23699648.281 5  -9825824.254 5  -7619714.11646  23699640.05546
  20999278.242 7 -23235224.298 7 -20906303.50348  20999268.49248
  21187717.602 7 -20700696.543 7 -19754926.20148  21187707.20748
  22068603.492 6 -17972825.017 6 -17212834.86748  22068594.68048
  20103827.820 7 -29736600.866 7 -24390755.90749  20103815.60949
  22024974.406 7 -20374621.466 7 -18858218.49947  22024965.77047
 11  4  1  0 11 45.0000000  0 10G03G04G06G07G10G13G16G20G23G30      
  23346796.664 6  -6181424.951 6  -4581915.87246  23346788.96546
  25426847.531 3 -18783952.280 3 -18736785.33845  25426842.46945
  23820869.383 4  -8556423.255 4  -6507062.35246  23820862.56346
  23060036.695 6 -15639027.679 6 -12129243.57847  23060028.82047
  23692160.703 5  -9865170.243 5  -7650373.29246  23692152.06646
  20993616.086 7 -23264980.430 7 -20929490.08048  20993605.63348
  21191865.703 7 -20678897.275 7 -19737939.74848  21191855.36748
  22077103.258 6 -17928157.876 6 -17178029.32248  22077094.44548
  20103583.328 7 -29737886.462 7 -24391757.66349  20103571.29349
  22032562.977 7 -20334744.525 7 -18827145.56747  22032553.87147
 11  4  1  0 12  0.0000000  0 10G03G04G06G07G10G13G16G20G23G30      
  23338866.266 6  -6223096.524 6  -4614387.16746  23338858.91846
  25431887.172 3 -18757472.401 3 -18716151.68345  25431881.69945
  23815172.875 4  -8586357.603 4  -6530387.78246  23815166.05546
  23053102.203 6 -15675466.987 6 -12157637.77047  23053094.79747
  23684692.125 5  -9904418.287 5  -7680956.14846  23684684.01646
  20987964.930 7 -23294675.708 7 -20952629.24948  20987955.18048
  21196040.570 7 -20656959.168 7 -19720845.11748  21196030.05948
  22085617.977 6 -17883412.022 6 -17143162.46048  22085609.69148
  20103357.766 7 -29739071.970 7 -24392681.44249  20103345.55549
  22040171.539 6 -20294760.636 6 -18795989.30647  22040162.84447
 11  4  1  0 12 15.0000000  0 11G03G04G06G07G08G10G13G16G20G23G30   
  23330945.875 6  -6264716.644 6  -4646818.34146  23330939.17246
  25436939.906 3 -18730923.487 3 -18695464.23645  25436934.55145
  23809490.133 4  -8616221.248 4  -6553658.12346  23809483.72346
  23046176.766 6 -15711865.893 6 -12186000.50447  23046168.12947
  25776628.40611    715116.31211                
  23677240.977 5  -9943571.181 5  -7711464.85846  23677233.04346
  20982325.109 7 -23324313.060 7 -20975723.26648  20982314.77348
  21200240.688 7 -20634885.784 7 -19703645.07748  21200230.70348
  22094147.172 6 -17838590.855 6 -17108236.89948  22094138.71148
  20103150.820 7 -29740160.174 7 -24393529.39249  20103138.49249
  22047799.461 7 -20254673.073 7 -18764752.26447  22047791.17647
 11  4  1  0 12 30.0000000  0 11G03G04G06G07G08G10G13G16G20G23G30   
  23323037.094 6  -6306279.454 6  -4679204.88146  23323030.09846
  25442006.102 3 -18704300.197 3 -18674718.87045  25442000.33645
  23803821.180 4  -8646008.102 4  -6576868.61746  23803815.35546
  23039258.586 6 -15748218.766 6 -12214327.35747  23039250.06647
  25768649.625 1    673189.718 1                
  23669810.063 5  -9982622.926 5  -7741894.75346  23669801.95346
  20976697.641 7 -23353886.849 7 -20998767.76048  20976687.89148
  21204467.984 7 -20612671.672 7 -19686335.37748  21204457.76648
  22102691.984 6 -17793689.234 6 -17073248.65347  22102682.87947
  20102963.430 7 -29741145.396 7 -24394297.09649  20102950.75049
  22055448.977 7 -20214476.555 7 -18733430.30547  22055440.57447
 11  4  1  0 12 45.0000000  0 11G03G04G06G07G08G10G13G16G20G23G30   
  23315138.359 6  -6347787.901 6  -4711549.05346  23315131.18846
  25447086.461 3 -18677606.183 3 -18653918.32245  25447080.52045
  23798167.359 4  -8675720.971 4  -6600021.46346  23798161.00846
  23032349.023 6 -15784528.741 6 -12242620.78947  23032340.27047
  25760676.555 2    631278.954 2                
  23662397.625 5 -10021576.449 5  -7772248.09746  23662389.34046
  20971081.070 7 -23383399.872 7 -21021764.90048  20971071.49648
  21208721.484 7 -20590320.184 7 -19668918.62848  21208711.09048
  22111250.781 6 -17748710.678 6 -17038200.45248  22111242.08648
  20102794.938 7 -29742030.690 7 -24394986.93749  20102782.49249
  22063118.180 7 -20174174.682 7 -18702026.25847  22063109.54347
 11  4  1  0 13  0.0000000  0 11G03G04G06G07G08G10G13G16G20G23G30   
  23307250.117 6  -6389240.951 6  -4743850.06946  23307243.12146
  25452177.648 2 -18650841.057 2 -18633062.48645  25452174.16845
  23792527.516 5  -8705359.081 5  -6623116.04446  23792520.81346
  23025447.430 6 -15820795.340 6 -12270880.42547  23025438.85247
  25752700.906 1    589384.377 1                
  23655003.852 5 -10060431.035 5  -7802524.37246  23654995.39146
  20965476.852 7 -23412851.263 7 -21044714.02148  20965466.92648
  21213001.172 7 -20567831.023 7 -19651394.60748  21212990.71948
  22119824.727 6 -17703654.979 6 -17003092.14647  22119816.03147
  20102645.109 7 -29742815.364 7 -24395598.36149  20102633.36749
  22070807.656 6 -20133767.248 6 -18670539.95947  22070798.60947
 11  4  1  0 13 15.0000000  0 11G03G04G06G07G08G10G13G16G20G23G30   
  23299372.234 6  -6430637.824 6  -4776107.29346  23299365.35546
  25457286.938 3 -18624005.028 3 -18612151.29445  25457280.64545
  23786902.016 5  -8734921.696 5  -6646151.80546  23786894.90246
  23018554.711 6 -15857017.995 6 -12299105.81547  23018546.01647
  25744734.453 2    547506.719 2                
  23647629.320 5 -10099185.776 5  -7832722.81846  23647620.80146
  20959884.406 7 -23442240.403 7 -21067614.63848  20959874.24648
  21217306.977 7 -20545204.095 7 -19633763.23048  21217296.87548
  22128413.180 6 -17658522.173 6 -16967923.75447  22128404.25047
  20102515.445 7 -29743498.943 7 -24396131.02349  20102503.17649
  22078516.883 7 -20093254.235 7 -18638971.40147  22078508.07047
 11  4  1  0 13 30.0000000  0 11G03G04G06G07G08G10G13G16G20G23G30   
  23291505.555 6  -6471979.122 6  -4808321.21346  23291497.91446
  25462405.141 3 -18597099.381 3 -18591185.87445  25462400.72345
  23781290.742 4  -8764409.199 4  -6669129.02546  23781283.86346
  23011669.992 6 -15893197.884 6 -12327297.88647  23011661.41447
  25736765.789 2    505644.940 2                
  23640273.047 6 -10137841.635 6  -7862844.24746  23640264.52746
  20954303.688 7 -23471568.195 7 -21090467.44848  20954293.58648
  21221638.508 7 -20522440.745 7 -19616025.55548  21221628.05548
  22137016.422 6 -17613313.637 6 -16932696.34448  22137007.55148
  20102404.188 7 -29744082.331 7 -24396585.60949  20102392.27049
  22086246.266 7 -20052637.078 7 -18607321.67847  22086237.27747
 11  4  1  0 13 45.0000000  0 11G03G04G06G07G08G10G13G16G20G23G30   
  23283649.047 6  -6513263.372 6  -4840490.70346  23283641.75846
  25467538.984 3 -18570123.415 3 -18570165.70745  25467533.92245
  23775693.906 4  -8793820.703 4  -6692047.02946  23775686.67646
  23004792.891 6 -15929333.904 6 -12355455.77347  23004784.60547
  25728802.695 2    463800.118 2                
  23632936.359 5 -10176397.066 5  -7892887.39746  23632927.19546
  20948734.320 7 -23500833.321 7 -21113271.43348  20948724.39548
  21225996.031 7 -20499540.085 7 -19598180.88748  21225985.69548
  22145633.695 6 -17568028.438 6 -16897409.21947  22145625.11747
  20102312.984 7 -29744564.271 7 -24396961.14849  20102300.59849
  22093995.109 6 -20011915.012 6 -18575590.21647  22093986.47347
 11  4  1  0 14  0.0000000  0 11G03G04G06G07G08G10G13G16G20G23G30   
  23275803.961 6  -6554490.635 6  -4872615.77546  23275796.55546
  25472683.703 1 -18543077.663 1 -18549091.08245  25472680.51645
  23770111.461 4  -8823155.959 4  -6714905.63546  23770103.99646
  22997924.734 6 -15965426.496 6 -12383579.81547  22997916.50847
  25720843.281 1    421971.761 1                
  23625617.563 5 -10214852.370 5  -7922852.52146  23625609.16046
  20943177.281 7 -23530036.113 7 -21136026.84048  20943167.29748
  21230380.102 7 -20476502.908 7 -19580229.83648  21230370.05948
  22154265.430 6 -17522667.503 6 -16862063.06347  22154256.79347
  20102240.242 7 -29744945.085 7 -24397257.88249  20102227.97349
  22101764.453 7 -19971088.847 7 -18543777.64047  22101755.40647
 11  4  1  0 14 15.0000000  0 11G03G04G06G07G08G10G13G16G20G23G30   
  23267969.633 6  -6595660.469 6  -4904696.11846  23267961.87546
  25477848.078 4 -18515962.896 4                
  23764543.977 4  -8852414.959 4  -6737704.80146  23764536.57046
  22991064.570 6 -16001475.925 6 -12411670.21547  22991056.40247
  25712887.69511  -1195260.55311                
  23618318.992 5 -10253207.223 5  -7952739.40446  23618310.53146
  20937632.180 7 -23559176.457 7 -21158733.58848  20937622.54748
  21234789.805 7 -20453329.471 7 -19562172.61548  21234779.70348
  22162911.883 6 -17477231.355 6 -16826658.29848  22162902.60248
  20102187.172 7 -29745224.830 7 -24397475.85949  20102174.66849
  22109552.594 6 -19930159.035 6 -18511884.30047  22109544.25047
 11  4  1  0 14 30.0000000  0 11G03G04G06G07G08G10G13G16G20G23G30   
  23260145.859 6  -6636773.038 6  -4936731.82346  23260139.27346
  25483019.055 3 -18488779.617 3                
  23758990.633 4  -8881597.525 4  -6760444.41446  23758983.57846
  22984212.813 6 -16037482.100 6 -12439726.93747  22984204.41047
  25704931.844 1  -1237056.456 1                
  23611039.273 5 -10291461.692 5  -7982548.07846  23611030.69546
  20932099.094 7 -23588254.441 7 -21181391.74248  20932088.81648
  21239225.367 7 -20430020.471 7 -19544009.76448  21239215.50048
  22171572.633 6 -17431720.694 6 -16791195.47447  22171563.87947
  20102152.875 7 -29745403.587 7 -24397615.15249  20102140.25449
  22117361.180 6 -19889126.312 6 -18479910.76847  22117352.66047
 11  4  1  0 14 45.0000000  0 11G03G04G06G07G08G10G13G16G20G23G30   
  23252333.602 6  -6677826.627 6  -4968721.56746  23252326.31346
  25488202.867 2 -18461527.019 2                
  23753451.453 4  -8910702.178 4  -6783123.30246  23753444.80946
  22977369.336 6 -16073443.831 6 -12467748.99947  22977361.16847
  25696982.852 2  -1278835.431 2                
  23603779.281 5 -10329614.405 5  -8012277.41746  23603770.76246
  20926577.711 7 -23617268.661 7 -21204000.20748  20926567.60948
  21243686.859 7 -20406574.757 7 -19525740.37548  21243676.64148
  22180247.195 6 -17386134.487 6 -16755673.79147  22180237.85547
  20102138.227 7 -29745480.075 7 -24397674.75049  20102126.19149
  22125189.391 7 -19847989.802 7 -18447856.36147  22125180.63747
 11  4  1  0 15  0.0000000  0 11G03G04G06G07G08G10G13G16G20G23G30   
  23244531.969 6  -6718821.737 6  -5000665.75146  23244525.38346
  25493403.875 2 -18434206.172 2                
  23747927.773 4  -8939729.374 4  -6805741.83646  23747921.12946
  22970534.750 6 -16109362.159 6 -12495737.26347  22970526.11347
  25689035.789 1  -1320597.582 1                
  23596538.734 5 -10367665.865 5  -8041927.88046  23596529.98046
  20921068.531 7 -23646219.706 7 -21226559.45348  20921058.25448
  21248174.492 7 -20382993.498 7 -19507365.36648  21248164.21548
  22188935.758 6 -17340474.086 6 -16720094.28147  22188926.77047
  20102142.891 7 -29745455.021 7 -24397655.22949  20102130.97349
  22133036.719 7 -19806750.640 7 -18415721.97647  22133028.19947
 11  4  1  0 15 15.0000000  0 11G03G04G06G07G08G10G13G16G20G23G30   
  23236742.289 6  -6759757.572 6  -5032563.75746  23236735.29346
  25498615.875 2 -18406817.339 2                
  23742418.984 4  -8968678.613 4  -6828299.62646  23742411.75446
  22963707.727 6 -16145236.858 6 -12523691.52547  22963699.38347
  25681090.117 1  -1362343.255 1                
  23589316.602 5 -10405615.586 5  -8071499.06746  23589308.14146
  20915571.195 7 -23675107.304 7 -21249069.25548  20915561.03548
  21252687.531 7 -20359276.733 7 -19488884.77148  21252676.96148
  22197638.977 6 -17294739.653 6 -16684457.09048  22197630.39848
  20102167.234 7 -29745328.106 7 -24397556.33649  20102155.19949
  22140903.672 7 -19765408.996 7 -18383507.72647  22140895.56347
 11  4  1  0 15 30.0000000  0 11G03G04G06G07G08G10G13G16G20G23G30   
  23228963.727 6  -6800634.610 6  -5064415.94146  23228956.84846
  25503842.078 2 -18379361.646 2                
  23736925.273 4  -8997550.246 4  -6850796.95746  23736917.86746
  22956889.211 6 -16181068.654 6 -12551612.35147  22956880.98447
  25673151.516 1  -1404072.861 1                
  23582113.602 5 -10443463.951 5  -8100991.28046  23582106.02046
  20910086.063 7 -23703931.930 7 -21271529.98948  20910076.07848
  21257226.547 7 -20335425.591 7 -19470299.47048  21257215.97748
  22206356.125 6 -17248932.262 6 -16648763.05347  22206346.96147
  20102210.617 7 -29745100.052 7 -24397378.62749  20102198.46549
  22148790.258 6 -19723966.068 6 -18351214.56047  22148782.03147
 11  4  1  0 15 45.0000000  0 11G03G04G06G07G08G10G13G16G20G23G30   
  23221196.461 6  -6841451.633 6  -5096221.37146  23221189.87546
  25509078.469 1 -18351838.443 1                
  23731445.539 4  -9026343.115 4  -6873232.91446  23731438.89546
  22950079.023 6 -16216856.561 6 -12579498.97847  22950070.85547
  25665210.039 1  -1445785.649 1                
  23574931.633 6 -10481209.850 6  -8130403.62646  23574922.99646
  20904612.969 7 -23732692.486 7 -21293940.80448  20904602.63348
  21261790.578 7 -20311439.524 7 -19451609.03348  21261780.71148
  22215086.477 6 -17203051.432 6 -16613011.78247  22215077.66447
  20102273.703 7 -29744769.721 7 -24397121.22849  20102261.43449
  22156695.656 6 -19682421.457 6 -18318842.15647  22156687.48847
 11  4  1  0 16  0.0000000  0 11G03G04G06G07G08G10G13G16G20G23G30   
  23213441.625 6  -6882208.001 6  -5127979.54446  23213433.98446
  25514328.64811 -26201347.64711                
  23725981.984 4  -9055056.762 4  -6895607.13746  23725974.87146
  22943277.195 6 -16252600.461 6 -12607351.32947  22943268.96947
  25657276.844 1  -1487481.147 1                
  23567768.641 6 -10518852.658 6  -8159735.65646  23567760.18046
  20899152.555 7 -23761388.512 7 -21316301.33248  20899142.27748
  21266380.852 7 -20287318.462 7 -19432813.40248  21266370.34048
  22223831.813 6 -17157097.148 6 -16577203.27847  22223822.41447
  20102355.750 7 -29744336.715 7 -24396783.82249  20102343.65649
  22164620.539 6 -19640775.132 6 -18286390.49547  22164612.25447
 11  4  1  0 16 15.0000000  0 11G03G04G06G07G08G10G13G16G20G23G30   
  23205696.695 6  -6922904.025 6  -5159690.68447  23205689.46547
  25519597.508 3 -26173690.866 3                
  23720533.023 5  -9083691.576 5  -6917919.91346  23720525.55946
  22936483.641 6 -16288301.242 6 -12635170.07148  22936475.12148
  25649346.297 1  -1529160.312 1                
  23560624.945 6 -10556393.018 6  -8188987.87646  23560616.13346
  20893703.719 7 -23790020.631 7 -21338612.06948  20893694.02748
  21270996.477 7 -20263063.485 7 -19413913.42948  21270986.25848
  22232590.086 6 -17111070.747 6 -16541338.58347  22232580.86347
  20102457.609 7 -29743801.963 7 -24396367.12549  20102445.51649
  22172565.102 6 -19599028.338 6 -18253860.54347  22172556.34847
 11  4  1  0 16 30.0000000  0 11G03G04G06G07G08G10G13G16G20G23G30   
  23197964.109 6  -6963539.505 6  -5191354.65246  23197956.93846
  25524867.578 1 -26145968.440 1                
  23715099.352 4  -9112247.464 4  -6940171.18446  23715091.59446
  22929697.922 6 -16323958.992 6 -12662955.28347  22929689.87147
  25641416.617 1  -1570823.438 1                
  23553500.688 6 -10593830.889 6  -8218160.20246  23553492.34446
  20888267.648 7 -23818588.839 7 -21360872.99748  20888257.60548
  21275637.188 7 -20238675.106 7 -19394909.50348  21275626.79348
  22241362.391 6 -17064972.818 6 -16505418.14347  22241353.40247
  20102578.703 7 -29743165.448 7 -24395871.14349  20102566.08249
  22180528.398 6 -19557181.668 6 -18221252.77047  22180519.46947
 11  4  1  0 16 45.0000000  0 11G03G04G06G07G08G10G13G16G20G23G30   
  23190243.477 6  -7004112.129 6  -5222969.64046  23190236.36346
  25530152.15611 -26118178.67311                
  23709680.250 5  -9140722.230 5  -6962359.25446  23709672.96146
  22922921.234 6 -16359571.671 6 -12690705.37447  22922912.53947
  25633490.547 1  -1612468.559 1                
  23546396.273 6 -10631163.915 6  -8247250.85646  23546387.57846
  20882843.719 7 -23847090.945 7 -21383082.41748  20882833.73448
  21280304.016 7 -20214151.683 7 -19375800.34348  21280293.91448
  22250148.641 6 -17018801.751 6 -16469440.72347  22250139.35947
  20102719.398 7 -29742425.008 7 -24395294.16949  20102707.42249
  22188511.266 6 -19515233.436 6 -18188565.86247  22188502.21947
 11  4  1  0 17  0.0000000  0 10G03G06G07G08G10G13G16G20G23G30      
  23182534.078 6  -7044622.441 6  -5254536.07347  23182527.72747
  23704276.758 5  -9169116.236 5  -6984484.41346  23704269.46946
  22916152.672 6 -16395140.350 6 -12718421.18447  22916144.03547
  25625571.250 1  -1654096.349 1                
  23539311.688 6 -10668392.697 6  -8276260.25846  23539303.63746
  20877432.516 7 -23875527.591 7 -21405240.83948  20877422.53148
  21284995.898 7 -20189494.321 7 -19356586.81348  21284985.85548
  22258948.031 6 -16972558.631 6 -16433407.15147  22258939.51247
  20102880.086 7 -29741581.400 7 -24394636.81349  20102868.05149
  22196512.266 6 -19473184.958 6 -18155800.83747  22196503.45347
 11  4  1  0 17 15.0000000  0 10G03G06G07G08G10G13G16G20G23G30      
  23174836.820 6  -7085071.368 6  -5286054.68747  23174830.46947
  23698888.422 4  -9197430.754 4  -7006547.62446  23698881.89546
  22909392.688 6 -16430666.397 6 -12746103.78247  22909383.52347
  25617651.117 1  -1695708.428 1                
  23532247.797 6 -10705518.562 6  -8305189.47546  23532238.28146
  20872032.969 7 -23903900.042 7 -21427349.23248  20872023.39548
  21289713.875 7 -20164704.600 7 -19337270.15948  21289702.83648
  22267761.383 6 -16926245.426 6 -16397318.97347  22267752.33647
  20103060.094 7 -29740635.910 7 -24393900.06749  20103048.05949
  22204532.742 6 -19431038.001 6 -18122959.07347  22204523.87147
 11  4  1  0 17 30.0000000  0 10G03G06G07G08G10G13G16G20G23G30      
  23167151.977 6  -7125457.343 6  -5317524.24847  23167144.68847
  23693515.914 5  -9225664.103 5  -7028547.56746  23693508.74246
  22902640.086 6 -16466148.419 6 -12773752.07147  22902631.50847
  25609735.695 1  -1737303.463 1                
  23525202.563 6 -10742539.968 6  -8334037.30546  23525193.75046
  20866646.781 7 -23932206.930 7 -21449406.53448  20866636.56348
  21294456.297 7 -20139781.639 7 -19317849.67448  21294445.84448
  22276588.000 6 -16879861.195 6 -16361175.45047  22276579.01247
  20103259.609 7 -29739587.236 7 -24393082.92049  20103247.34049
  22212571.938 6 -19388791.608 6 -18090039.83247  22212563.41847
 11  4  1  0 17 45.0000000  0 10G03G06G07G08G10G13G16G20G23G30      
  23159478.680 6  -7165780.331 6  -5348944.71647  23159471.91847
  23688158.867 5  -9253816.374 5  -7050484.36346  23688151.34446
  22895896.852 6 -16501586.829 6 -12801366.37247  22895888.03947
  25601824.891 1  -1778881.818 1                
  23518177.250 6 -10779456.863 6  -8362803.67846  23518167.91046
  20861272.227 7 -23960448.427 7 -21471412.88148  20861262.53548
  21299223.508 7 -20114726.175 7 -19298325.94148  21299213.52348
  22285427.891 6 -16833406.676 6 -16324977.14647  22285419.48847
  20103478.828 7 -29738435.652 7 -24392185.58449  20103466.55949
  22220629.953 6 -19346446.545 6 -18057043.68547  22220621.37547
 11  4  1  0 18  0.0000000  0 10G03G06G07G08G10G13G16G20G23G30      
  23151817.531 6  -7206039.622 6  -5380315.56247  23151811.00447
  23682817.180 5  -9281886.792 5  -7072357.37346  23682809.83246
  22889161.609 6 -16536981.267 6 -12828946.41147  22889152.15247
  25593914.789 1  -1820443.093 1                
  23511172.445 6 -10816268.671 6  -8391488.18846  23511163.16446
  20855910.852 7 -23988623.758 7 -21493367.67248  20855900.86748
  21304017.148 7 -20089538.143 7 -19278698.90748  21304006.69548
  22294280.719 6 -16786881.834 6 -16288724.05347  22294272.60947
  20103717.578 7 -29737180.750 7 -24391207.73549  20103705.66049
  22228706.555 6 -19304002.882 6 -18023970.73047  22228698.44547
 11  4  1  0 18 15.0000000  0 10G03G06G07G08G10G13G16G20G23G30      
  23144168.531 6  -7246235.203 6  -5411636.75047  23144161.06647
  23677491.414 5  -9309875.641 5  -7094166.80646  23677484.35946
  22882434.063 6 -16572332.329 6 -12856492.66247  22882425.60247
  25586010.086 2  -1861987.791 2                
  23504186.836 6 -10852975.652 6  -8420090.98846  23504178.19946
  20850561.867 7 -24016733.330 7 -21515271.22548  20850551.94148
  21308835.203 7 -20064218.219 7 -19258969.10048  21308824.86748
  22303147.695 6 -16740287.534 6 -16252416.84047  22303139.23447
  20103976.023 7 -29735822.775 7 -24390149.57449  20103963.93049
  22236802.055 6 -19261461.455 6 -17990821.58747  22236793.41847
 11  4  1  0 18 30.0000000  0 10G03G06G07G08G10G13G16G20G23G30      
  23136531.914 6  -7286366.122 6  -5442907.56247  23136524.74247
  23672180.180 5  -9337782.106 5  -7115912.06046  23672173.59446
  22875715.281 6 -16607639.274 6 -12884004.53447  22875706.70347
  25578107.109 2  -1903515.314 2                
  23497222.164 6 -10889577.014 6  -8448611.49946  23497213.17646
  20845225.383 7 -24044776.379 7 -21537122.94348  20845215.34048
  21313678.602 7 -20038766.195 7 -19239136.35348  21313668.38348
  22312027.742 6 -16693623.641 6 -16216055.39647  22312019.16447
  20104253.945 7 -29734361.310 7 -24389010.76649  20104241.61749
  22244916.234 6 -19218822.170 6 -17957596.18347  22244907.42247
 11  4  1  0 18 45.0000000  0 10G03G06G07G08G10G13G16G20G23G30      
  23128907.445 6  -7326431.966 6  -5474127.66547  23128900.62547
  23666885.867 5  -9365605.952 5  -7137592.94446  23666878.22746
  22869004.664 6 -16642902.394 6 -12911482.27047  22868996.32047
  25570207.523 3  -1945025.888 3                
  23490276.898 6 -10926072.449 6  -8477049.48946  23490268.84846
  20839901.891 7 -24072752.970 7 -21558922.87848  20839891.37948
  21318547.188 7 -20013182.482 7 -19219200.99848  21318537.08648
  22320920.586 6 -16646890.746 6 -16179640.18447  22320912.47747
  20104551.719 7 -29732796.168 7 -24387791.17849  20104539.56649
  22253048.406 6 -19176085.591 6 -17924294.98147  22253039.71147
 11  4  1  0 19  0.0000000  0 11G03G06G07G08G10G13G16G19G20G23G30   
  23121295.102 6  -7366432.730 6  -5505297.05047  23121288.63347
  23661607.414 4  -9393346.812 4  -7159209.14846  23661599.77346
  22862303.078 6 -16678121.767 6 -12938925.90647  22862293.97347
  25562313.258 2  -1986519.381 2                
  23483352.750 6 -10962461.785 6  -8505404.77646  23483343.93846
  20834590.148 7 -24100662.873 7 -21580670.83948  20834580.57448
  21323440.680 7 -19987467.374 7 -19199163.24448  21323430.93048
  25217390.43811                                
  22329826.781 6 -16600089.116 6 -16143171.41847  22329818.73047
  20104869.539 7 -29731127.236 7 -24386490.70849  20104857.32849
  22261199.445 6 -19133251.984 6 -17890918.16147  22261190.92647
 11  4  1  0 19 15.0000000  0 11G03G06G07G08G10G13G16G19G20G23G30   
  23113696.203 6  -7406367.874 6  -5536415.30147  23113689.26647
  23656343.766 4  -9421004.561 4  -7180760.58546  23656336.30146
  22855609.180 6 -16713297.394 6 -12966335.44947  22855600.66047
  25554418.289 1  -2027995.890 1                
  23476448.336 6 -10998744.800 6  -8533677.22346  23476439.17246
  20829292.086 7 -24128505.868 7 -21602366.66848  20829282.21948
  21328358.656 7 -19961621.301 7 -19179023.45448  21328348.67248
  25208916.375 1   -136598.737 1                
  22338746.188 6 -16553219.157 6 -16106649.39247  22338737.55147
  20105206.727 7 -29729354.566 7 -24385109.40949  20105194.51649
  22269368.406 6 -19090321.758 6 -17857466.05047  22269360.23847
 11  4  1  0 19 30.0000000  0 11G03G06G07G08G10G13G16G19G20G23G30   
  23106109.078 6  -7446236.595 6  -5567481.78847  23106102.37547
  23651096.570 4  -9448578.444 4  -7202246.69246  23651088.93046
  22848923.648 6 -16748428.924 6 -12993710.63347  22848915.12947
  25546528.656 2  -2069455.043 2                
  23469564.008 6 -11034920.959 6  -8561866.41146  23469554.96146
  20824006.563 7 -24156281.369 7 -21624009.90448  20823996.52048
  21333301.977 7 -19935644.092 7 -19158781.47248  21333291.87548
  25200437.88311                                
  22347677.945 6 -16506281.000 6 -16070074.23947  22347669.89547
  20105564.156 7 -29727477.581 7 -24383646.82449  20105552.18049
  22277556.477 6 -19047294.946 6 -17823938.68347  22277548.07447
 11  4  1  0 19 45.0000000  0 11G03G06G07G08G10G13G16G19G20G23G30   
  23098535.375 6  -7486038.943 6  -5598496.56747  23098527.91047
  23645865.164 5  -9476068.328 5  -7223667.34146  23645857.58246
  22842246.852 6 -16783516.670 6 -13021051.69547  22842237.92247
  25538642.680 1  -2110897.087 1                
  23462700.156 6 -11070990.349 6  -8589972.39146  23462691.93046
  20818733.844 7 -24183989.557 7 -21645600.69448  20818723.91848
  21338270.438 7 -19909536.353 7 -19138437.77948  21338259.98448
  25191952.74211  -1801169.52711                
  22356623.125 6 -16459275.347 6 -16033446.49647  22356614.48847
  20105941.141 7 -29725496.594 7 -24382103.19949  20105928.87149
  22285762.188 6 -19004172.334 6 -17790336.67447  22285753.60947
 11  4  1  0 20  0.0000000  0 11G03G06G07G08G10G13G16G19G20G23G30   
  23090973.719 6  -7525774.315 6  -5629459.15047  23090967.01647
  23640650.680 5  -9503473.976 5  -7245022.34546  23640643.15646
  22835578.188 6 -16818560.433 6 -13048358.48647  22835569.84447
  25530759.664 2  -2152321.944 2                
  23455856.625 5 -11106952.311 5  -8617994.68046  23455848.34046
  20813474.047 7 -24211629.990 7 -21667138.68248  20813464.41448
  21343263.172 7 -19883298.154 7 -19117992.43248  21343253.18848
  25183463.89811                                
  22365580.469 6 -16412202.313 6 -15996766.23647  22365572.12547
  20106337.656 7 -29723411.350 7 -24380478.33549  20106325.68049
  22293987.102 6 -18960954.029 6 -17756660.09047  22293978.34847
 11  4  1  0 20 15.0000000  0 11G03G06G07G08G10G13G16G19G20G23G30   
  23083425.039 6  -7565442.746 6  -5660369.57147  23083418.04347
  23635450.891 4  -9530795.408 4  -7266311.73946  23635443.83646
  22828917.953 6 -16853560.603 6 -13075631.32347  22828908.96547
  25522880.609 2  -2193729.912 2                
  23449033.742 5 -11142807.079 5  -8645933.42046  23449025.75046
  20808227.359 7 -24239202.778 7 -21688623.95848  20808216.96548
  21348280.641 7 -19856930.346 7 -19097446.08848  21348270.59848
  25174967.57811                                
  22374550.906 6 -16365062.686 6 -15960034.09647  22374542.38747
  20106754.578 7 -29721222.032 7 -24378772.37349  20106742.19149
  22302229.320 6 -18917640.797 6 -17722909.54047  22302220.80147
 11  4  1  0 20 30.0000000  0 11G03G06G07G08G10G13G16G19G20G23G30   
  23075886.719 6  -7605056.616 6  -5691237.46247  23075879.60547
  23630265.375 4  -9558044.929 4  -7287545.09046  23630258.32046
  22822263.242 6 -16888529.871 6 -13102880.06747  22822254.54747
  25515000.461 1  -2235133.685 1                
  23442228.844 6 -11178567.063 6  -8673798.31046  23442220.50046
  20802990.547 7 -24266720.524 7 -21710066.34448  20802980.68048
  21353320.930 7 -19830445.892 7 -19076808.85148  21353310.59448
  25166463.88311  -1935095.03411                
  22383531.320 6 -16317869.528 6 -15923260.23147  22383523.27047
  20107188.609 7 -29718941.267 7 -24376995.15049  20107176.51649
  22310486.922 6 -18874245.693 6 -17689095.19847  22310477.99247
 11  4  1  0 20 45.0000000  0 11G03G06G07G08G10G13G16G19G20G23G30   
  23068364.430 6  -7644588.889 6  -5722041.79646  23068357.08246
  23625098.906 5  -9585195.747 5  -7308701.53246  23625092.08646
  22815619.602 6 -16923441.769 6 -13130084.10447  22815611.14147
  25507130.047 2  -2276506.611 2                
  23435446.758 6 -11214205.344 6  -8701568.37646  23435439.05946
  20797769.711 7 -24294156.506 7 -21731445.02048  20797759.60948
  21358387.445 7 -19803818.369 7 -19056060.13048  21358377.28548
  25157959.805 1  -1979780.407 1                
  22392527.039 6 -16270596.700 6 -15886424.29247  22392518.93047
  20107645.086 7 -29716542.495 7 -24375125.98249  20107632.93449
  22318765.258 6 -18830742.535 6 -17655196.65047  22318756.91447
 11  4  1  0 21  0.0000000  0 11G03G06G07G08G10G13G16G19G20G23G30   
  23060856.375 6  -7684039.594 6  -5752782.55947  23060849.84847
  23619951.008 5  -9612247.856 5  -7329781.04546  23619943.83646
  22808987.023 6 -16958296.802 6 -13157243.82647  22808978.27047
  25499258.148 1  -2317849.453 1                
  23428688.258 6 -11249722.273 6  -8729243.85847  23428680.14847
  20792564.266 7 -24321511.002 7 -21752760.19748  20792554.16448
  21363481.844 7 -19777048.617 7 -19035200.58348  21363471.50848
  25149453.92211                                
  22401538.102 6 -16223244.909 6 -15849526.82647  22401529.46547
  20108123.992 7 -29714025.987 7 -24373165.06249  20108111.72349
  22327064.172 6 -18787132.164 6 -17621214.56447  22327055.30147
 11  4  1  0 21 15.0000000  0 10G03G06G07G08G10G13G16G20G23G30      
  23053360.211 6  -7723434.679 6  -5783479.97347  23053353.56647
  23614817.164 5  -9639227.349 5  -7350804.00546  23614809.58246
  22802360.344 6 -16993120.984 6 -13184379.52247  22802351.70747
  25491396.109 2  -2359188.315 2                
  23421947.742 6 -11285143.901 6  -8756845.11447  23421939.34047
  20787369.445 7 -24348809.994 7 -21774032.13348  20787359.63748
  21368597.906 7 -19750163.144 7 -19014250.85748  21368587.68848
  22410558.578 6 -16175840.868 6 -15812588.64347  22410550.29347
  20108620.125 7 -29711417.862 7 -24371132.76049  20108607.85549
  22335378.320 6 -18743441.223 6 -17587169.69447  22335369.62547
 11  4  1  0 21 30.0000000  0 10G03G06G07G08G10G13G16G20G23G30      
  23045876.977 6  -7762760.536 6  -5814123.46346  23045869.21946
  23609699.031 4  -9666120.705 4  -7371759.85446  23609692.68046
  22795741.695 6 -17027901.364 6 -13211481.08347  22795733.29347
  25483528.727 1  -2400509.910 1                
  23415228.469 6 -11320456.694 6  -8784361.54147  23415219.89147
  20782187.867 7 -24376040.114 7 -21795250.40048  20782177.88348
  21373738.688 7 -19723149.217 7 -18993201.04748  21373728.29348
  22419592.031 6 -16128371.846 6 -15775599.81747  22419583.33647
  20109136.508 7 -29708704.952 7 -24369018.80449  20109124.23849
  22343710.148 6 -18699656.829 6 -17553052.00247  22343701.21947
 11  4  1  0 21 45.0000000  0 10G03G06G07G08G10G13G16G20G23G30      
  23038406.570 6  -7802016.255 6  -5844712.26447  23038399.28147
  23604598.148 4  -9692927.265 4  -7392648.01846  23604591.38746
  22789131.383 6 -17062637.414 6 -13238548.09248  22789123.33248
  25475672.930 2  -2441814.008 2                
  23408529.031 6 -11355659.879 6  -8811792.56847  23408521.09847
  20777019.266 7 -24403200.823 7 -21816414.57548  20777009.04748
  21378903.594 7 -19696006.652 7 -18972050.99948  21378893.37548
  22428637.359 6 -16080837.709 6 -15738560.26447  22428629.25047
  20109672.750 7 -29705886.716 7 -24366822.77349  20109660.42249
  22352059.711 6 -18655779.034 6 -17518861.53547  22352050.95747
 11  4  1  0 22  0.0000000  0 10G03G06G07G08G10G13G16G20G23G30      
  23030949.539 6  -7841202.408 6  -5875246.88347  23030942.60247
  23599512.883 5  -9719647.502 5  -7413468.94546  23599506.47346
  22782529.523 6 -17097330.031 6 -13265581.25947  22782521.59047
  25467814.547 1  -2483101.297 1                
  23401850.719 6 -11390754.123 6  -8839138.70647  23401843.13747
  20771863.883 7 -24430292.724 7 -21837525.13848  20771854.01648
  21384092.875 7 -19668736.587 7 -18950801.60448  21384083.00848
  22437694.719 6 -16033239.713 6 -15701470.95447  22437686.72747
  20110228.477 7 -29702963.856 7 -24364545.22449  20110216.44149
  22360427.000 6 -18611809.080 6 -17484599.24647  22360418.30547
 11  4  1  0 22 15.0000000  0 10G03G06G07G08G10G13G16G20G23G30      
  23023505.609 6  -7880317.276 6  -5905725.95947  23023499.25847
  23594445.906 5  -9746279.829 5  -7434221.38046  23594438.55946
  22775936.805 6 -17131978.038 6 -13292579.66847  22775927.93447
  25459960.719 1  -2524370.734 1                
  23395193.938 5 -11425738.032 5  -8866398.87647  23395185.53547
  20766721.641 7 -24457314.347 7 -21858580.94048  20766712.18448
  21389306.984 7 -19641338.097 7 -18929452.12748  21389296.35548
  22446764.938 6 -15985577.084 6 -15664331.26547  22446756.35947
  20110805.477 7 -29699935.089 7 -24362185.14749  20110793.09049
  22368811.875 6 -18567746.110 6 -17450264.49947  22368803.29747
 11  4  1  0 22 30.0000000  0 10G03G06G07G08G10G13G16G20G23G30      
  23016075.984 6  -7919361.514 6  -5936149.98447  23016069.22347
  23589394.336 5  -9772825.023 5  -7454905.91646  23589386.75446
  22769352.102 6 -17166582.385 6 -13319544.06047  22769342.58647
  25452112.633 2  -2565622.912 2                
  23388557.109 5 -11460612.424 5  -8893573.70147  23388549.41047
  20761593.211 7 -24484266.395 7 -21879582.52648  20761582.87548
  21394544.773 7 -19613812.470 7 -18908003.59548  21394534.67248
  22455846.781 6 -15937851.083 6 -15627142.21247  22455838.49647
  20111401.539 7 -29696801.287 7 -24359743.22349  20111389.32849
  22377214.039 6 -18523591.570 6 -17415858.37747  22377205.46147
 11  4  1  0 22 45.0000000  0 10G03G06G07G08G10G13G16G20G23G30      
  23008659.906 6  -7958333.937 6  -5966518.06347  23008652.96947
  23584359.414 5  -9799282.027 5  -7475521.72546  23584352.59446
  22762775.477 6 -17201142.147 6 -13346473.71348  22762766.13748
  25444262.633 1  -2606857.229 1                
  23381942.055 6 -11495376.037 6  -8920662.19447  23381933.71147
  20756477.547 7 -24511147.851 7 -21900529.09648  20756467.32848
  21399806.953 7 -19586159.040 7 -18886455.46948  21399796.67648
  22464940.594 6 -15890061.169 6 -15589903.34647  22464932.19147
  20112018.195 7 -29693561.424 7 -24357218.66149  20112006.10249
  22385634.305 6 -18479344.800 6 -17381380.38747  22385625.14147
 11  4  1  0 23  0.0000000  0 10G03G06G07G08G10G13G16G20G23G30      
  23001256.969 6  -7997235.051 6  -5996830.56047  23001250.26647
  23579341.461 5  -9825651.182 5  -7496069.09346  23579334.75846
  22756206.461 6 -17235658.302 6 -13373369.38347  22756197.59047
  25436422.367 3  -2648074.599 3                
  23375347.688 6 -11530029.407 6  -8947664.79347  23375339.63747
  20751375.688 7 -24537959.403 7 -21921421.20948  20751365.58648
  21405093.344 7 -19558379.168 7 -18864808.81748  21405082.94948
  22474047.172 6 -15842208.708 6 -15552615.74647  22474038.06647
  20112654.570 7 -29690216.317 7 -24354612.08049  20112642.77049
  22394071.617 6 -18435007.143 6 -17346831.59747  22394062.68847
 11  4  1  0 23 15.0000000  0 10G03G06G07G08G10G13G16G20G23G30      
  22993868.000 6  -8036063.844 6  -6027086.71047  22993860.77047
  23574340.375 5  -9851931.626 5  -7516547.34446  23574333.37946
  22749646.828 6 -17270130.246 6 -13400230.60347  22749638.30947
  25428580.242 2  -2689274.347 2                
  23368774.328 6 -11564571.781 6  -8974580.91147  23368766.51247
  20746287.305 7 -24564700.276 7 -21942258.24148  20746276.73448
  21410403.875 7 -19530472.541 7 -18843063.39548  21410393.71548
  22483164.883 6 -15794293.469 6 -15515279.23247  22483156.59847
  20113311.477 7 -29686765.403 7 -24351923.05449  20113298.97349
  22402526.352 6 -18390578.438 6 -17312211.84647  22402517.12947
 11  4  1  0 23 30.0000000  0 10G03G06G07G08G10G13G16G20G23G30      
  22986493.172 5  -8074819.584 5  -6057285.94547  22986486.52747
  23569356.781 5  -9878122.739 5  -7536955.97046  23569349.25846
  22743095.773 6 -17304557.707 6 -13427057.17147  22743086.60947
  25420744.555 3  -2730456.147 3                
  23362222.445 6 -11599002.414 6  -9001409.95247  23362214.51247
  20741211.977 7 -24591369.857 7 -21963039.72548  20741201.93448
  21415738.406 7 -19502439.022 7 -18821219.10248  21415727.89548
  22492294.992 6 -15746315.469 6 -15477893.80447  22492286.64847
  20113988.328 7 -29683208.024 7 -24349151.07549  20113976.05949
  22410997.867 6 -18346058.688 6 -17277521.15047  22410989.11347
 11  4  1  0 23 45.0000000  0 10G03G06G07G08G10G13G16G20G23G30      
  22979131.883 6  -8113502.874 6  -6087428.70946  22979125.00446
  23564389.805 5  -9904225.411 5  -7557295.68046  23564382.51646
  22736552.539 6 -17338941.757 6 -13453849.91147  22736543.31647
  25412911.234 2  -2771621.145 2                
  23355691.102 6 -11633322.305 6  -9028152.69347  23355683.28547
  20736150.031 7 -24617969.199 7 -21983766.47348  20736140.22348
  21421096.672 7 -19474280.010 7 -18799277.00548  21421086.62948
  22501436.875 6 -15698276.293 6 -15440460.70847  22501428.47347
  20114685.414 7 -29679545.392 7 -24346297.07849  20114673.02749
  22419486.844 6 -18301449.348 6 -17242760.63847  22419478.32447
 11  4  1  0 24  0.0000000  0 10G03G06G07G08G10G13G16G20G23G30      
  22971785.125 6  -8152112.116 6  -6117513.77647  22971777.71947
  23559439.586 5  -9930238.172 5  -7577565.34347  23559431.88747
  22730017.602 6 -17373281.287 6 -13480607.95047  22730009.31647
  25405080.508 3  -2812768.315 3                
  23349181.688 6 -11667530.152 6  -9054808.13547  23349173.69547
  20731101.773 7 -24644496.857 7 -22004437.36648  20731091.78948
  21426479.586 7 -19445994.779 7 -18777236.57448  21426469.19148
  22510589.969 6 -15650174.854 6 -15402979.11047  22510581.62547
  20115402.438 7 -29675776.211 7 -24343360.05949  20115390.10949
  22427992.875 6 -18256749.597 6 -17207929.67547  22427984.18047
 11  4  1  0 24 15.0000000  0 10G03G06G07G08G10G13G16G20G23G30      
  22964451.648 6  -8190647.678 6  -6147541.44646  22964444.88746
  23554506.313 5  -9956161.311 5  -7597765.15546  23554498.96546
  22723491.328 6 -17407576.772 6 -13507331.66347  22723482.75047
  25397253.688 3  -2853898.139 3                
  23342692.984 5 -11701626.072 5  -9081376.35347  23342685.46147
  20726067.695 7 -24670953.244 7 -22025052.71948  20726057.88748
  21431885.578 7 -19417584.332 7 -18755098.56548  21431875.53548
  22519754.875 6 -15602012.367 6 -15365449.92247  22519746.82447
  20116139.891 7 -29671900.980 7 -24340340.39849  20116127.62149
  22436515.383 6 -18211960.466 6 -17173029.07447  22436507.44947
 11  4  1  0 24 30.0000000  0 10G03G06G07G08G10G13G16G20G23G30      
  22957133.148 6  -8229108.869 6  -6177511.15646  22957125.85946
  23549590.828 5  -9981993.853 5  -7617894.37247  23549583.12947
  22716973.516 6 -17441827.696 6 -13534020.63447  22716965.46547
  25389428.375 2  -2895010.159 2  -2654498.10855  25389424.30955
  23336226.234 5 -11735609.408 5  -9107856.86147  23336218.59447
  20721046.992 7 -24697337.651 7 -22045611.99048  20721036.83248
  21437315.773 7 -19389048.355 7 -18732862.74248  21437305.43848
  22528931.531 6 -15553788.767 6 -15327873.13147  22528923.18847
  20116897.711 7 -29667918.936 7 -24337237.50749  20116885.50049
  22445055.375 6 -18167081.886 6 -17138058.77047  22445047.26647
 11  4  1  0 24 45.0000000  0 10G03G06G07G08G10G13G16G20G23G30      
  22949828.109 6  -8267495.613 6  -6207422.85247  22949820.58647
  23544691.742 5 -10007736.197 5  -7637953.31947  23544684.57047
  22710464.063 6 -17476034.831 6 -13560675.49848  22710456.01248
  25381609.945 3  -2936104.528 3  -2686519.56845  25381603.88745
  23329782.141 5 -11769480.319 5  -9134249.75046  23329773.73846
  20716040.016 7 -24723650.420 7 -22066115.43548  20716029.79748
  21442769.805 7 -19360387.750 7 -18710529.81348  21442759.29348
  22538120.102 6 -15505505.063 6 -15290249.50247  22538111.75847
  20117675.578 7 -29663830.722 7 -24334051.88349  20117663.54349
  22453612.773 6 -18122114.780 6 -17103019.48347  22453604.72347
 11  4  1  0 25  0.0000000  0 10G03G06G07G08G10G13G16G20G23G30      
  22942538.047 6  -8305807.080 6  -6237275.88347  22942530.46547
  23539810.625 5 -10033387.944 5  -7657941.65847  23539803.68847
  22703963.625 7 -17510197.726 7 -13587295.89947  22703954.63747
  25373790.859 1  -2977181.210 1  -2718527.28845  25373787.43845
  23323357.469 5 -11803238.388 5  -9160554.70746  23323349.00846
  20711046.727 7 -24749890.966 7 -22086562.60548  20711036.50848
  21448247.672 7 -19331602.276 7 -18688099.57448  21448237.10248
  22547319.281 6 -15457161.111 6 -15252578.91147  22547310.93847
  20118473.914 7 -29659635.806 7 -24330783.12249  20118461.76249
  22462186.750 6 -18077059.082 6 -17067911.16847  22462178.75847
 11  4  1  0 25 15.0000000  0 10G03G06G07G08G10G13G16G20G23G30      
  22935261.555 6  -8344042.969 6  -6267070.04447  22935254.03147
  23534946.438 5 -10058948.375 5  -7677858.85546  23534938.73846
  22697470.555 7 -17544316.416 7 -13613881.87247  22697461.62547
  25365979.633 3  -3018240.239 3  -2750521.16645  25365974.57045
  23316955.250 6 -11836883.276 6  -9186771.48347  23316947.31647
  20706066.516 7 -24776059.024 7 -22106953.28448  20706056.41448
  21453748.867 7 -19302692.434 7 -18665572.43048  21453738.82448
  22556530.258 6 -15408757.215 6 -15214861.62747  22556521.91447
  20119292.438 7 -29655334.257 7 -24327431.26049  20119280.57849
  22470777.359 6 -18031915.222 6 -17032734.15547  22470768.89847
 11  4  1  0 25 30.0000000  0 10G03G06G07G08G10G13G16G20G23G30      
  22928000.063 6  -8382203.250 6  -6296805.28946  22927992.59846
  23530099.758 5 -10084417.647 5  -7697704.99147  23530092.41047
  22690986.344 6 -17578391.105 6 -13640433.53847  22690977.70747
  25358169.695 3  -3059281.821 3  -2782501.52245  25358164.45745
  23310574.820 6 -11870414.999 6  -9212900.08547  23310566.35947
  20701100.547 7 -24802154.736 7 -22127287.60348  20701090.79748
  21459273.781 7 -19273658.797 7 -18642948.82748  21459263.62148
  22565752.945 6 -15360294.100 6 -15177098.19547  22565744.01647
  20120131.391 7 -29650926.073 7 -24323996.31549  20120119.06349
  22479384.422 6 -17986683.838 6 -16997488.94547  22479376.07847
 11  4  1  0 25 45.0000000  0 10G03G06G07G08G10G13G16G20G23G30      
  22920752.406 6  -8420286.959 6  -6326480.85346  22920745.58646
  23525270.844 5 -10109795.062 5  -7717479.58247  23525263.37947
  22684510.695 7 -17612421.377 7 -13666950.59747  22684501.94147
  25350362.313 2  -3100305.517 2  -2814467.91945  25350358.07045
  23304215.008 6 -11903832.794 6  -9238939.90146  23304206.02046
  20696148.570 7 -24828177.418 7 -22147565.00948  20696138.87948
  21464822.320 7 -19244501.064 7 -18620228.50848  21464812.10248
  22574986.250 6 -15311771.618 6 -15139288.50147  22574977.67247
  20120990.633 7 -29646410.798 7 -24320477.92349  20120978.77349
  22488008.234 6 -17941364.885 6 -16962175.49547  22487999.83247
 11  4  1  0 26  0.0000000  0 10G03G06G07G08G10G13G16G20G23G30      
  22913519.977 6  -8458294.174 6  -6356096.81747  22913513.33247
  23520459.227 5 -10135080.413 5  -7737182.40247  23520451.76247
  22678042.883 7 -17646407.420 7 -13693433.17748  22678034.42248
  25342559.523 2  -3141311.524 2  -2846420.55545  25342555.28145
  23297878.125 6 -11937136.853 6  -9264891.08146  23297869.31346
  20691210.758 7 -24854127.181 7 -22167785.58948  20691200.89148
  21470394.469 7 -19215219.948 7 -18597412.07048  21470384.30948
  22584230.547 6 -15263190.478 6 -15101433.10847  22584222.26247
  20121870.063 7 -29641788.634 7 -24316876.23949  20121858.08649
  22496648.563 6 -17895959.008 6 -16926794.31947  22496640.57047
 11  4  1  0 26 15.0000000  0 10G03G06G07G08G10G13G16G20G23G30      
  22906302.578 6  -8496224.014 6  -6385652.49646  22906294.87946
  23515665.102 5 -10160273.251 5  -7756813.15446  23515657.87146
  22671584.398 6 -17680349.075 6 -13719881.17948  22671576.17248
  25334759.813 3  -3182299.702 3  -2878359.27845  25334755.62945
  23291561.484 5 -11970326.694 5  -9290753.27346  23291552.96546
  20686286.563 7 -24880003.407 7 -22187948.87548  20686276.87148
  21475989.867 6 -19185815.474 6 -18574499.49648  21475979.82448
  22593486.766 6 -15214550.819 6 -15063532.10147  22593477.83647
  20122770.367 7 -29637059.247 7 -24313191.00449  20122758.09849
  22505306.031 6 -17850466.453 6 -16891345.60347  22505296.92647
 11  4  1  0 26 30.0000000  0 10G03G06G07G08G10G13G16G20G23G30      
  22899098.969 6  -8534076.317 6  -6415147.74446  22899091.85546
  23510888.984 5 -10185373.447 5  -7776371.70247  23510881.52047
  22665134.156 6 -17714246.536 6 -13746294.74448  22665125.34448
  25326962.844 3  -3223270.260 3  -2910284.28845  25326959.42245
  23285267.445 5 -12003402.084 5  -9316526.29046  23285258.98446
  20681376.719 7 -24905806.195 7 -22208054.93048  20681366.67648
  21481608.836 7 -19156288.219 7 -18551491.24948  21481598.09048
  22602753.438 6 -15165853.252 6 -15025585.97047  22602745.50447
  20123690.477 7 -29632222.810 7 -24309422.35349  20123678.38349
  22513979.266 6 -17804887.616 6 -16855829.63847  22513970.33647
 11  4  1  0 26 45.0000000  0 10G03G06G07G08G10G13G16G20G23G30      
  22891911.109 6  -8571850.495 6  -6444582.12847  22891903.64547
  23506129.516 5 -10210380.283 5  -7795857.50446  23506122.10946
  22658691.719 6 -17748099.408 6 -13772673.56248  22658683.49248
  25319170.383 4  -3264222.784 4  -2942195.23046  25319166.08246
  23278994.945 5 -12036362.562 5  -9342209.75246  23278987.07046
  20676480.641 7 -24931534.937 7 -22228103.29748  20676470.18848
  21487251.242 7 -19126638.145 7 -18528387.29948  21487240.84848
  22612031.734 6 -15117097.815 6 -14987594.76047  22612023.27347
  20124631.367 7 -29627278.568 7 -24305569.69849  20124619.09849
  22522669.336 6 -17759222.597 6 -16820246.52647  22522660.40647
 11  4  1  0 27  0.0000000  0 10G03G06G07G08G10G13G16G20G23G30      
  22884737.633 6  -8609546.806 6  -6473955.83147  22884730.52047
  23501388.516 5 -10235294.370 5  -7815271.03447  23501381.63747
  22652258.242 6 -17781908.456 6 -13799018.23348  22652249.48848
  25311380.805 4  -3305157.906 4  -2974092.63546  25311375.97746
  23272744.742 5 -12069208.473 5  -9367803.93646  23272736.04746
  20671598.516 7 -24957190.245 7 -22248094.43648  20671588.12148
  21492916.492 7 -19096866.259 7 -18505188.42248  21492906.27348
  22621320.367 6 -15068285.499 6 -14949559.23147  22621311.61347
  20125592.594 7 -29622227.308 7 -24301633.65449  20125580.26649
  22531374.953 6 -17713472.445 6 -16784597.07447  22531366.78547
 11  4  1  0 27 15.0000000  0 10G03G06G07G08G10G13G16G20G23G30      
  22877578.500 6  -8647164.047 6  -6503267.91547  22877571.62147
  23496666.641 5 -10260114.376 5  -7834611.26346  23496658.41446
  22645833.102 7 -17815672.750 7 -13825328.03348  22645824.75848
  25303593.469 4  -3346074.708 4  -3005975.74646  25303589.69546
  23266516.859 6 -12101938.639 6  -9393307.92746  23266508.16446
  20666730.375 7 -24982770.953 7 -22268027.44248  20666720.62548
  21498605.227 7 -19066971.686 7 -18481893.95848  21498594.65648
  22630619.922 6 -15019415.707 6 -14911478.90547  22630611.28547
  20126574.250 7 -29617068.036 7 -24297613.44249  20126562.39149
  22540097.148 6 -17667636.594 6 -16748880.85547  22540088.98047
 11  4  1  0 27 30.0000000  0 10G03G06G07G08G10G13G16G20G23G30      
  22870435.531 6  -8684702.542 6  -6532518.64647  22870428.88747
  23491960.070 5 -10284840.744 5  -7853878.50646  23491952.95746
  22639416.438 6 -17849393.083 6 -13851603.58048  22639407.68448
  25295811.016 5  -3386973.961 5  -3037845.20646  25295806.53946
  23260310.242 6 -12134553.703 6  -9418722.25346  23260301.78146
  20661876.672 7 -25008277.577 7 -22287902.73048  20661866.27748
  21504316.625 7 -19036955.730 7 -18458504.90648  21504306.93448
  22639930.305 6 -14970489.636 6 -14873354.73347  22639921.55147
  20127576.469 7 -29611801.420 7 -24293509.59149  20127564.37549
  22548835.773 6 -17621716.250 6 -16713098.79047  22548827.60547
 11  4  1  0 27 45.0000000  0 10G03G06G07G08G10G13G16G20G23G30      
  22863307.859 6  -8722161.291 6  -6561707.22847  22863299.98447
  23487272.516 5 -10309472.699 5  -7873072.19247  23487265.52047
  22633007.672 6 -17883068.896 6 -13877844.43448  22632999.38748
  25288031.063 5  -3427855.195 5  -3069700.61046  25288027.17246
  23254125.797 6 -12167052.807 6  -9444046.19447  23254117.10247
  20657037.422 7 -25033709.394 7 -22307719.71648  20657027.37948
  21510052.039 7 -19006818.293 7 -18435021.19348  21510041.41048
  22649250.875 6 -14921507.070 6 -14835186.52447  22649242.64847
  20128599.422 7 -29606426.851 7 -24289321.61749  20128587.27049
  22557590.063 6 -17575711.231 6 -16677250.74747  22557581.66047
 11  4  1  0 28  0.0000000  0 10G03G06G07G08G10G13G16G20G23G30      
  22856195.117 6  -8759540.155 6  -6590833.57947  22856187.30147
  23482603.594 5 -10334010.315 5  -7892192.36447  23482596.24647
  22626607.813 6 -17916700.609 6 -13904050.91848  22626599.64548
  25280254.648 4  -3468718.849 4  -3101542.31146  25280250.99246
  23247963.469 6 -12199435.920 6  -9469279.76546  23247954.94946
  20652212.219 7 -25059066.517 7 -22327478.50448  20652202.29348
  21515809.914 7 -18976559.964 7 -18411443.27848  21515799.52048
  22658583.250 6 -14872468.884 6 -14796974.99147  22658574.67247
  20129642.375 7 -29600944.566 7 -24285049.71149  20129630.51649
  22566360.516 6 -17529622.166 6 -16641337.21647  22566352.17247
 11  4  1  0 28 15.0000000  0 10G03G06G07G08G10G13G16G20G23G30      
  22849097.398 6  -8796838.105 6  -6619896.88247  22849089.93447
  23477952.594 5 -10358452.487 5  -7911238.17846  23477945.48046
  22620216.898 6 -17950287.444 6 -13930222.43148  22620207.96948
  25272482.555 5  -3509564.062 5  -3133369.65546  25272478.02046
  23241823.188 6 -12231702.238 6  -9494422.32647  23241814.55147
  20647401.102 7 -25084348.089 7 -22347178.42648  20647391.41048
  21521591.016 7 -18946180.414 7 -18387770.90748  21521580.97348
  22667925.203 6 -14823374.753 6 -14758719.85947  22667916.97747
  20130706.438 7 -29595353.726 7 -24280693.21449  20130693.99249
  22575147.156 6 -17483448.829 6 -16605358.00847  22575138.93047
 11  4  1  0 28 30.0000000  0 10G03G06G07G08G10G13G16G20G23G30      
  22842014.430 6  -8834055.612 6  -6648897.49647  22842007.60947
  23473319.391 5 -10382799.887 5  -7930210.12547  23473311.75047
  22613833.500 6 -17983830.307 6 -13956359.69348  22613824.57048
  25264713.523 5  -3550391.592 5  -3165183.20146  25264708.52046
  23235705.625 6 -12263852.385 6  -9519474.36046  23235696.69546
  20642604.391 7 -25109554.608 7 -22366819.85948  20642594.17248
  21527394.625 7 -18915680.696 7 -18364004.89948  21527384.64148
  22677278.164 6 -14774225.819 6 -14720422.02347  22677269.76247
  20131790.797 7 -29589655.205 7 -24276252.80849  20131778.87949
  22583949.367 6 -17437192.442 6 -16569314.09647  22583941.19947
 11  4  1  0 28 45.0000000  0 10G03G06G07G08G10G13G16G20G23G30      
  22834948.086 6  -8871192.098 6  -6677834.96747  22834940.27047
  23468703.914 5 -10407051.986 5  -7949107.82247  23468696.68447
  22607459.109 7 -18017328.970 7 -13982462.51148  22607450.12148
  25256947.398 4  -3591201.347 4  -3196982.88446  25256942.62946
  23229609.398 6 -12295886.046 6  -9544435.63347  23229601.23047
  20637821.938 7 -25134685.838 7 -22386402.62248  20637812.42248
  21533221.578 6 -18885060.974 6 -18340145.38148  21533211.53548
  22686640.766 6 -14725022.333 6 -14682081.67647  22686632.36347
  20132895.750 7 -29583848.815 7 -24271728.35049  20132883.59849
  22592767.500 6 -17390853.273 6 -16533205.68147  22592758.62947
 11  4  1  0 29  0.0000000  0 10G03G06G07G08G10G13G16G20G23G30      
  22827896.641 6  -8908246.770 6  -6706708.69746  22827889.76246
  23464107.367 5 -10431208.071 5  -7967930.69746  23464100.02046
  22601093.414 7 -18050782.902 7 -14008530.47448  22601083.89848
  25249184.391 4  -3631992.890 4  -3228768.38546  25249179.97346
  23223536.391 6 -12327802.242 6  -9569305.37647  23223527.05147
  20633054.258 7 -25159740.941 7 -22405926.06548  20633044.27348
  21539071.406 7 -18854321.013 7 -18316192.17348  21539061.07048
  22696014.875 6 -14675764.068 6 -14643698.65047  22696006.76647
  20134021.539 7 -29577933.834 7 -24267119.28449  20134009.27049
  22601601.594 6 -17344431.044 6 -16497032.53347  22601593.48447
 11  4  1  0 29 15.0000000  0 10G03G06G07G08G10G13G16G20G23G30      
  22820860.602 6  -8945219.536 6  -6735518.60947  22820852.84447
  23459528.477 5 -10455268.031 5  -7986678.67247  23459521.53947
  22594735.188 7 -18084192.480 7 -14034563.87748  22594726.31648
  25241425.961 4  -3672766.463 4  -3260539.86546  25241421.30946
  23217484.883 6 -12359601.211 6  -9594083.76647  23217476.53947
  20628301.063 7 -25184720.066 7 -22425390.30848  20628290.96148
  21544943.875 7 -18823461.516 7 -18292145.81848  21544933.30548
  22705398.539 6 -14626451.814 6 -14605273.54947  22705390.25447
  20135167.453 7 -29571910.466 7 -24262425.75149  20135155.41849
  22610450.516 6 -17297926.420 6 -16460795.18847  22610442.69947
 11  4  1  0 29 30.0000000  0 10G03G06G07G08G10G13G16G20G23G30      
  22813841.234 6  -8982110.118 6  -6764264.47947  22813833.65247
  23454968.570 5 -10479231.749 5  -8005351.64846  23454961.80946
  22588386.375 7 -18117557.692 7 -14060562.72348  22588377.32848
  25233670.383 5  -3713522.025 5  -3292297.33846  25233665.26246
  23211456.336 6 -12391282.700 6  -9618770.60746  23211447.64146
  20623562.016 7 -25209622.942 7 -22444795.14248  20623552.44148
  21550838.961 7 -18792482.753 7 -18268006.52848  21550828.39148
  22714792.477 6 -14577085.989 6 -14566806.71447  22714784.13347
  20136334.281 7 -29565778.786 7 -24257647.82249  20136321.95349
  22619315.875 6 -17251339.870 6 -16424494.01247  22619307.94147
 11  4  1  0 29 45.0000000  0 10G03G06G07G08G10G13G16G20G23G30      
  22806836.773 6  -9018917.746 6  -6792945.71647  22806828.72347
  23450427.266 5 -10503098.591 5  -8023949.15047  23450419.85947
  22582045.633 7 -18150878.348 7 -14086526.83348  22582036.29348
  25225917.859 4  -3754259.441 4  -3324040.62246  25225913.73446
  23205449.555 6 -12422845.962 6  -9643365.34546  23205441.15246
  20618837.789 7 -25234449.122 7 -22464140.21348  20618827.80548
  21556756.586 7 -18761384.760 7 -18243774.33448  21556746.07448
  22724196.836 6 -14527666.536 6 -14528298.08547  22724188.60947
  20137521.711 7 -29559538.321 7 -24252785.12949  20137509.55949
  22628197.055 6 -17204671.488 6 -16388129.06647  22628188.59447
 11  4  1  0 30  0.0000000  0 10G03G06G07G08G10G13G16G20G23G30      
  22799847.984 6  -9055642.338 6  -6821562.24446  22799839.87546
  23445903.805 5 -10526868.514 5  -8042471.12447  23445896.57447
  22575713.516 7 -18184154.616 7 -14112456.36048  22575704.00048
  25218169.523 4  -3794978.840 4  -3355769.89246  25218164.46146
  23199465.570 6 -12454291.199 6  -9667868.10646  23199457.16846
  20614128.039 7 -25259198.742 7 -22483425.61848  20614118.23048
  21562696.531 7 -18730168.184 7 -18219449.73748  21562686.48848
  22733611.242 6 -14478194.166 6 -14489748.22147  22733602.72347
  20138730.313 7 -29553189.252 7 -24247837.80349  20138718.16049
  22637093.273 6 -17157921.976 6 -16351700.89147  22637084.57847
 11  4  1  0 30 15.0000000  0 10G03G06G07G08G10G13G16G20G23G30      
  22792875.766 6  -9092283.248 6  -6850113.56347  22792867.89147
  23441398.875 5 -10550540.924 5  -8060917.11547  23441391.46947
  22569389.367 7 -18217386.507 7 -14138351.30648  22569380.43848
  25210423.695 4  -3835680.201 4  -3387485.10246  25210419.16046
  23193504.328 6 -12485617.965 6  -9692278.53246  23193496.10246
  20609433.172 7 -25283871.509 7 -22502651.14348  20609423.07048
  21568659.492 7 -18698833.211 7 -18195032.87948  21568649.44948
  22743035.305 6 -14428669.111 6 -14451157.30347  22743027.25447
  20139959.070 7 -29546731.260 7 -24242805.60749  20139946.91849
  22646004.266 6 -17111091.578 6 -16315209.70347  22645996.21547
 11  4  1  0 30 30.0000000  0 10G03G06G07G08G10G13G16G20G23G30      
  22785918.914 6  -9128839.992 6  -6878599.30647  22785911.62547
  23436912.688 5 -10574115.726 5  -8079287.04346  23436905.34046
  22563073.891 7 -18250573.891 7 -14164211.56748  22563065.07848
  25202681.828 5  -3876363.310 5  -3419186.09646  25202677.64546
  23187566.016 6 -12516825.995 6  -9716596.46546  23187557.32046
  20604752.703 7 -25308466.925 7 -22521816.38548  20604743.12948
  21574644.898 7 -18667380.083 7 -18170523.95448  21574634.79748
  22752469.727 6 -14379091.568 6 -14412525.48547  22752461.55947
  20141208.492 7 -29540164.234 7 -24237688.44149  20141196.51649
  22654931.367 6 -17064180.479 6 -16278655.61847  22654923.08247
 11  4  1  0 30 45.0000000  0 10G03G06G07G08G10G13G16G20G23G30      
  22778978.672 6  -9165312.616 6  -6907019.50047  22778971.20747
  23432445.164 5 -10597592.774 5  -8097580.81447  23432437.28947
  22556766.750 7 -18283716.913 7 -14190037.26648  22556758.28948
  25194944.328 5  -3917028.548 5  -3450873.16446  25194939.09046
  23181649.602 6 -12547915.382 6  -9740821.93446  23181641.37546
  20600087.250 7 -25332985.054 7 -22540921.41248  20600076.91448
  21580652.289 7 -18635809.402 7 -18145923.44048  21580642.24648
  22761914.219 6 -14329462.320 6 -14373853.38247  22761905.93447
  20142478.961 7 -29533488.526 7 -24232486.59249  20142467.21949
  22663873.852 6 -17017189.490 6 -16242039.28947  22663865.03947
 11  4  1  0 31  0.0000000  0 10G03G06G07G08G10G13G16G20G23G30      
  22772054.078 6  -9201700.712 6  -6935373.81447  22772046.43847
  23427996.359 5 -10620971.581 5  -8115798.02447  23427988.95347
  22550468.359 6 -18316815.653 6 -14215828.46148  22550459.66448
  25187209.172 5  -3957675.747 5  -3482546.18146  25187203.81646
  23175756.188 6 -12578885.764 6  -9764954.67347  23175747.60947
  20595436.273 7 -25357425.756 7 -22559966.10448  20595425.93848
  21586682.617 7 -18604121.346 7 -18121231.45848  21586672.98448
  22771367.484 6 -14279781.656 6 -14335141.21347  22771359.49247
  20143769.961 7 -29526703.934 7 -24227199.90449  20143757.69149
  22672830.602 6 -16970118.723 6 -16205360.80747  22672822.66847
 11  4  1  0 31 15.0000000  0 10G03G06G07G08G10G13G16G20G23G30      
  22765145.922 6  -9238003.500 6  -6963661.67447  22765138.57447
  23423566.555 5 -10644251.852 5  -8133938.46347  23423558.73847
  22544178.320 6 -18349869.749 6 -14241584.85948  22544169.62548
  25179477.633 5  -3998304.543 5  -3514204.82946  25179472.57046
  23169885.672 6 -12609736.659 6  -9788994.29747  23169877.27047
  20590800.070 7 -25381788.478 7 -22578950.03748  20590789.96948
  21592735.188 7 -18572315.939 7 -18096448.02948  21592724.91048
  22780831.625 6 -14230049.716 6 -14296389.09047  22780823.10547
  20145082.008 7 -29519810.062 7 -24221828.06249  20145069.91449
  22681803.227 6 -16922968.312 6 -16168620.24947  22681795.35247
 11  4  1  0 31 30.0000000  0 10G03G06G07G08G10G13G16G20G23G30      
  22758253.570 6  -9274220.619 6  -6991882.76647  22758246.34047
  23419155.023 5 -10667433.319 5  -8152001.90747  23419147.44147
  22537896.406 6 -18382879.391 6 -14267306.64748  22537888.29748
  25171749.164 5  -4038915.179 5  -3545849.35446  25171744.10246
  23164037.625 6 -12640467.948 6  -9812940.74747  23164028.87147
  20586179.109 7 -25406073.234 7 -22597873.20548  20586169.12548
  21598809.766 7 -18540393.660 7 -18071573.53848  21598799.54748
  22790304.820 6 -14180266.974 6 -14257597.37747  22790296.77047
  20146414.703 7 -29512806.873 7 -24216371.03049  20146402.25849
  22690790.992 6 -16875738.842 6 -16131818.09147  22690782.64847
 11  4  1  0 31 45.0000000  0 10G03G06G07G08G10G13G16G20G23G30      
  22751377.875 6  -9310351.614 6  -7020036.74447  22751371.11347
  23414762.242 5 -10690515.474 5  -8169987.96747  23414755.24647
  22531623.422 6 -18415844.279 6 -14292993.52448  22531615.02048
  25164024.617 5  -4079507.596 5  -3577479.65446  25164020.14146
  23158212.305 5 -12671079.102 5  -9836793.54847  23158203.90247
  20581572.305 7 -25430279.437 7 -22616735.17348  20581562.20348
  21604906.492 7 -18508354.608 7 -18046608.04748  21604896.39148
  22799787.984 6 -14130433.529 6 -14218766.17247  22799780.05147
  20147768.141 7 -29505694.079 7 -24210828.59549  20147755.98849
  22699793.313 6 -16828430.419 6 -16094954.41647  22699784.79347
 11  4  1  0 32  0.0000000  0 10G03G06G07G08G10G13G16G20G23G30      
  22744519.555 6  -9346396.363 6  -7048123.53447  22744511.79747
  23410389.055 5 -10713498.305 5  -8187896.63746  23410382.00046
  22525359.086 7 -18448764.742 7 -14318645.80448  22525350.33248
  25156303.953 5  -4120081.997 5  -3609095.94746  25156298.71546
  23152410.172 6 -12701570.220 6  -9860552.84147  23152401.88747
  20576981.086 7 -25454407.171 7 -22635535.98948  20576970.86748
  21611025.586 7 -18476199.439 7 -18021552.08748  21611015.25048
  22809280.453 6 -14080550.135 6 -14179896.02847  22809272.22747
  20149142.539 7 -29498471.938 7 -24205200.95649  20149130.32849
  22708810.859 6 -16781043.625 6 -16058029.66347  22708802.80947
 11  4  1  0 32 15.0000000  0 10G03G06G07G08G10G13G16G20G23G30      
  22737677.227 6  -9382354.034 6  -7076142.45347  22737668.94147
  23406034.227 5 -10736381.166 5  -8205727.40046  23406027.23046
  22519102.898 7 -18481640.492 7 -14344263.23948  22519094.08648
  25148585.555 5  -4160638.049 5  -3640697.93446  25148581.13746
  23146630.813 6 -12731940.740 6  -9884218.15746  23146621.94146
  20572404.898 7 -25478455.955 7 -22654275.29648  20572394.56348
  21617166.367 7 -18443928.212 7 -17996405.68648  21617156.20748
  22818782.500 6 -14030616.721 6 -14140986.90847  22818774.50847
  20150537.617 7 -29491140.018 7 -24199487.77949  20150525.52349
  22717843.156 6 -16733578.608 6 -16021043.95747  22717834.69547
 11  4  1  0 32 30.0000000  0 10G03G06G07G08G10G13G16G20G23G30      
  22730851.281 6  -9418224.888 6  -7104093.72546  22730843.34846
  23401698.953 5 -10759164.274 5  -8223480.43546  23401691.48846
  22512855.570 7 -18514471.911 7 -14369846.12648  22512846.93448
  25140871.852 5  -4201175.993 5  -3672285.79846  25140866.78946
  23140874.289 6 -12762190.831 6  -9907789.64846  23140865.53546
  20567843.367 7 -25502425.946 7 -22672953.20048  20567833.32448
  21623329.578 7 -18411541.707 7 -17971169.45148  21623319.53548
  22828293.727 6 -13980634.154 6 -14102039.48947  22828285.73447
  20151953.781 7 -29483698.670 7 -24193689.33049  20151942.15649
  22726889.961 6 -16686036.154 6 -15983997.91347  22726881.85247
 11  4  1  0 32 45.0000000  0 10G03G06G07G08G10G13G16G20G23G30      
  22724041.641 6  -9454008.307 6  -7131976.86947  22724033.94147
  23397382.398 5 -10781847.185 5  -8241155.40746  23397375.05146
  22506616.484 7 -18547258.777 7 -14395394.29748  22506607.73048
  25133161.781 5  -4241695.797 5  -3703859.56146  25133155.84046
  23135140.781 6 -12792320.123 6  -9931266.98646  23135132.14546
  20563297.180 7 -25526316.818 7 -22691569.45148  20563287.19548
  21629514.422 7 -18379039.892 7 -17945843.36848  21629504.26248
  22837814.102 6 -13930602.523 6 -14063053.84347  22837806.05147
  20153390.445 7 -29476147.660 7 -24187805.42849  20153378.52749
  22735951.758 6 -16638416.412 6 -15946891.64947  22735943.18047
 11  4  1  0 33  0.0000000  0 10G03G06G07G08G10G13G16G20G23G30      
  22717248.492 6  -9489703.559 6  -7159791.31647  22717240.79347
  23393084.922 5 -10804429.140 5  -8258751.69947  23393078.04347
  22500386.000 7 -18580000.863 7 -14420907.56948  22500376.95348
  25125452.867 5  -4282197.223 5  -3735418.98546  25125448.50846
  23129430.398 6 -12822328.026 6  -9954649.74847  23129422.11347
  20558766.117 7 -25550127.821 7 -22710123.46248  20558756.07448
  21635721.008 7 -18346422.879 7 -17920427.51848  21635710.96548
  22847344.625 6 -13880521.994 6 -14024030.09047  22847336.51647
  20154848.375 7 -29468486.643 7 -24181835.81449  20154836.75049
  22745028.672 6 -16590719.472 6 -15909725.22447  22745019.91847
 11  4  1  0 33 15.0000000  0 11G03G06G07G08G10G13G16G19G20G23G30   
  22710472.055 6  -9525314.764 6  -7187540.27247  22710464.47347
  23388806.242 5 -10826914.595 5  -8276272.82046  23388799.18846
  22494162.664 7 -18612702.847 7 -14446389.60748  22494154.08648
  25117749.148 5  -4322684.700 5  -3766967.54446  25117744.08646
  23123742.164 6 -12852218.945 6  -9977941.34947  23123734.11347
  20554249.320 7 -25573863.499 7 -22728618.78748  20554239.33648
  21641949.117 7 -18313695.526 7 -17894925.69348  21641938.95748
  24728469.90611    632930.96311                
  22856882.641 6 -13830397.523 6 -13984972.10747  22856874.70747
  20156326.391 7 -29460720.032 7 -24175783.91249  20156314.29749
  22754118.336 6 -16542950.313 6 -15872502.53147  22754109.87547
 11  4  1  0 33 30.0000000  0 11G03G06G07G08G10G13G16G19G20G23G30   
  22703713.336 6  -9560833.118 6  -7215216.86147  22703705.81347
  23384547.297 5 -10849294.729 5  -8293711.83247  23384540.12547
  22487948.633 7 -18645356.115 7 -14471833.68648  22487940.17248
  25110048.484 5  -4363149.662 5  -3798498.58046  25110043.65646
  23118078.359 6 -12881984.180 6 -10001135.01247  23118069.84047
  20549748.383 7 -25597515.172 7 -22747048.64848  20549738.16448
  21648199.617 7 -18280849.736 7 -17869331.57848  21648189.39848
  24719823.281 1    587498.697 1                
  22866431.391 6 -13780221.002 6 -13945873.54947  22866423.34047
  20157825.898 7 -29452839.384 7 -24169643.15449  20157814.21549
  22763223.977 6 -16495100.883 6 -15835217.28147  22763215.28147
 11  4  1  0 33 45.0000000  0 11G03G06G07G08G10G13G16G19G20G23G30   
  22696971.500 6  -9596262.038 6  -7242823.76547  22696963.97747
  23380308.055 5 -10871573.077 5  -8311071.55246  23380301.17646
  22481743.906 7 -18677964.476 7 -14497242.76448  22481734.97748
  25102351.820 5  -4403595.931 5  -3830015.05946  25102347.22746
  23112437.422 5 -12911627.143 5 -10024233.40347  23112429.07847
  20545263.063 7 -25621086.431 7 -22765415.84448  20545253.07848
  21654471.430 7 -18247889.612 7 -17843648.37548  21654461.32848
  24711177.375 1    542061.568 1                
  22875988.492 6 -13729996.564 6 -13906737.66047  22875980.67647
  20159346.961 7 -29444848.369 7 -24163416.39049  20159334.45749
  22772343.813 6 -16447175.294 6 -15797872.68147  22772335.52747
 11  4  1  0 34  0.0000000  0 11G03G06G07G08G10G13G16G19G20G23G30   
  22690245.875 6  -9631601.210 6  -7270360.75047  22690238.70347
  23376087.969 5 -10893749.526 5  -8328351.87147  23376080.73847
  22475547.141 7 -18710528.098 7 -14522616.98648  22475538.32848
  25094658.633 5  -4444023.785 5  -3861517.18146  25094653.33646
  23106819.961 6 -12941147.769 6 -10047236.45747  23106811.38347
  20540792.844 7 -25644577.050 7 -22783720.21548  20540782.85948
  21660765.313 7 -18214815.576 7 -17817876.40748  21660755.27048
  24702527.055 1    496619.765 1                
  22885555.383 6 -13679724.761 6 -13867564.87347  22885547.21547
  20160888.578 7 -29436747.013 7 -24157103.65049  20160876.07449
  22781478.258 6 -16399173.935 6 -15760469.04947  22781469.79747
 11  4  1  0 34 15.0000000  0 11G03G06G07G08G10G13G16G19G20G23G30   
  22683538.680 6  -9666850.552 6  -7297827.71447  22683531.03947
  23371887.109 5 -10915823.844 5  -8345552.61247  23371879.87947
  22469358.977 7 -18743047.056 7 -14547956.40148  22469349.93048
  25086969.094 5  -4484433.210 5  -3893004.93446  25086963.62146
  23101226.039 6 -12970546.174 6 -10070144.27847  23101217.16847
  20536337.961 7 -25667987.068 7 -22801961.77448  20536328.09448
  21667080.305 7 -18181628.171 7 -17792016.09648  21667070.37948
  24693877.445 1    451173.452 1                
  22895130.219 6 -13629406.054 6 -13828355.52947  22895122.34447
  20162451.195 7 -29428535.405 7 -24150705.00149  20162438.86749
  22790627.063 6 -16351097.464 6 -15723006.88447  22790618.48447
 11  4  1  0 34 30.0000000  0 11G03G06G07G08G10G13G16G19G20G23G30   
  22676849.203 6  -9702005.685 6  -7325221.29547  22676841.68047
  23367706.977 5 -10937791.917 5  -8362670.54547  23367699.74647
  22463179.938 7 -18775517.560 7 -14573258.05848  22463170.94948
  25079283.898 5  -4524820.414 5  -3924475.40146  25079277.89846
  23095655.641 6 -12999818.129 6 -10092953.56547  23095647.18047
  20531899.406 7 -25691312.299 7 -22820137.27248  20531889.53948
  21673417.953 7 -18148323.865 7 -17766064.69248  21673408.26248
  24685226.37511                                
  22904715.922 6 -13579036.934 6 -13789106.90747  22904707.34447
  20164035.211 7 -29420209.635 7 -24144217.39149  20164023.11749
  22799790.297 6 -16302942.245 6 -15685483.34347  22799782.12947
 11  4  1  0 34 45.0000000  0 10G03G06G07G08G10G13G16G20G23G30      
  22670175.195 6  -9737074.194 6  -7352547.36647  22670167.55547
  23363545.719 5 -10959661.602 5  -8379711.83547  23363538.02047
  22457008.781 7 -18807947.725 7 -14598528.27948  22456999.73448
  25071600.031 5  -4565193.436 5  -3955934.79246  25071595.43846
  23090107.344 6 -13028971.452 6 -10115670.41247  23090099.29347
  20527475.445 7 -25714560.719 7 -22838252.91148  20527465.75448
  21679776.328 7 -18114910.878 7 -17740028.60248  21679766.28548
  22914308.398 6 -13528625.847 6 -13749825.58747  22914300.46547
  20165639.633 7 -29411777.566 7 -24137646.95149  20165627.71549
  22808967.516 6 -16254716.691 6 -15647905.02347  22808958.70347
 11  4  1  0 35  0.0000000  0 10G03G06G07G08G10G13G16G20G23G30      
  22663519.133 6  -9772051.380 6  -7379802.26747  22663511.72747
  23359403.438 5 -10981427.970 5  -8396672.61147  23359395.73847
  22450845.836 7 -18840332.968 7 -14623763.50148  22450837.08248
  25063921.383 5  -4605547.654 5  -3987379.57846  25063916.49646
  23084583.164 6 -13058001.499 6 -10138291.20547  23084574.58647
  20523067.008 7 -25737727.593 7 -22856305.01348  20523057.02348
  21686156.023 7 -18081385.215 7 -17713904.71648  21686146.27348
  22923910.453 6 -13478168.651 6 -13710508.33547  22923901.99247
  20167265.828 7 -29403234.724 7 -24130990.19649  20167253.67649
  22818159.250 6 -16206416.790 6 -15610268.75547  22818150.73047
 11  4  1  0 35 15.0000000  0 10G03G06G07G08G10G13G16G20G23G30      
  22656881.070 6  -9806937.485 6  -7406986.19347  22656873.13747
  23355281.445 5 -11003091.688 5  -8413553.40547  23355273.62947
  22444691.906 7 -18872673.779 7 -14648964.09048  22444682.91848
  25056245.453 5  -4645884.001 5  -4018810.40246  25056240.27346
  23079082.273 6 -13086908.727 6 -10160816.28747  23079074.16447
  20518673.883 7 -25760813.350 7 -22874293.89948  20518663.54748
  21692557.070 7 -18047747.761 7 -17687693.71348  21692547.08648
  22933520.313 6 -13427666.401 6 -13671155.97247  22933512.73047
  20168912.047 7 -29394581.712 7 -24124247.59249  20168900.36349
  22827364.336 6 -16158043.590 6 -15572575.37647  22827355.93447
 11  4  1  0 35 30.0000000  0 11G03G06G07G08G10G13G16G19G20G23G30   
  22650259.352 6  -9841735.387 6  -7434101.40447  22650251.77047
  23351177.656 5 -11024655.472 5  -8430356.30447  23351169.84047
  22438544.852 7 -18904973.590 7 -14674132.74348  22438536.56648
  25048572.227 5  -4686205.634 5  -4050229.76846  25048567.34046
  23073604.398 6 -13115695.896 6 -10183247.81747  23073596.17247
  20514295.727 7 -25783821.041 7 -22892221.96748  20514285.80148
  21698979.047 7 -18014002.185 7 -17661398.46548  21698968.77048
  24650628.99211   -392303.35211                
  22943138.906 6 -13377122.733 6 -13631771.33847  22943130.68047
  20170579.266 7 -29385821.707 7 -24117421.61648  20170567.23048
  22836582.398 6 -16109600.650 6 -15534827.64847  22836573.99647
 11  4  1  0 35 45.0000000  0 11G03G06G07G08G10G13G16G19G20G23G30   
  22643655.672 6  -9876437.292 6  -7461141.80547  22643648.26647
  23347094.773 5 -11046111.810 5  -8447075.50347  23347087.13347
  22432407.648 7 -18937225.142 7 -14699263.78648  22432399.12948
  25040903.797 5  -4726505.261 5  -4081631.99646  25040898.50046
  23068150.758 6 -13144355.678 6 -10205580.09247  23068142.06347
  20509933.781 7 -25806743.064 7 -22910083.27648  20509923.85548
  21705422.375 7 -17980141.426 7 -17635013.47248  21705412.15648
  24641979.336 2   -437768.354 2                
  22952766.344 6 -13326530.716 6 -13592349.03147  22952758.05947
  20172267.547 7 -29376947.229 7 -24110506.44449  20172255.68849
  22845815.555 6 -16061081.109 6 -15497020.23947  22845806.74247
 11  4  1  0 36  0.0000000  0 11G03G06G07G08G10G13G16G19G20G23G30   
  22637069.242 6  -9911047.224 6  -7488110.54647  22637061.71947
  23343030.898 5 -11067464.457 5  -8463713.88847  23343023.55147
  22426279.117 7 -18969432.623 7 -14724360.49248  22426270.18848
  25033238.719 5  -4766787.040 5  -4113020.30146  25033232.89546
  23062720.445 6 -13172891.999 6 -10227816.15247  23062711.92647
  20505587.336 7 -25829583.364 7 -22927880.89448  20505577.35248
  21711886.430 7 -17946170.088 7 -17608542.29848  21711876.79748
  24633328.156 3   -483235.781 3                
  22962401.750 6 -13275895.004 6 -13552892.67747  22962393.46547
  20173977.508 7 -29367962.508 7 -24103505.35749  20173965.82449
  22855062.328 6 -16012489.442 6 -15459156.62347  22855054.21947
 11  4  1  0 36 15.0000000  0 11G03G06G07G08G10G13G16G19G20G23G30   
  22630500.719 6  -9945563.596 6  -7515006.36547  22630492.90247
  23338987.281 5 -11088712.515 5  -8480270.77847  23338979.87547
  22420158.922 7 -19001594.922 7 -14749421.99548  22420149.99248
  25025576.688 5  -4807049.797 5  -4144393.79046  25025570.80546
  23057313.539 6 -13201303.580 6 -10249955.02547  23057305.25447
  20501256.852 7 -25852340.790 7 -22945613.94948  20501246.34048
  21718372.383 7 -17912087.345 7 -17581984.31548  21718362.45748
  24624675.609 3   -528704.151 3                
  22972046.016 6 -13225214.718 6 -13513401.59647  22972038.19947
  20175708.367 7 -29358866.477 7 -24096417.54849  20175696.74249
  22864322.414 6 -15963824.874 6 -15421236.21147  22864314.01247
 11  4  1  0 36 30.0000000  0 11G03G06G07G08G10G13G16G19G20G23G30   
  22623950.281 6  -9979986.051 6  -7541829.01647  22623943.34447
  23334964.320 5 -11109855.494 5  -8496745.78946  23334956.62146
  22414046.969 7 -19033712.192 7 -14774448.41648  22414037.86348
  25017918.148 5  -4847293.794 5  -4175752.67246  25017912.50046
  23051931.195 6 -13229590.452 6 -10271996.71447  23051922.26647
  20496941.984 7 -25875015.147 7 -22963282.27348  20496931.82448
  21724879.445 7 -17877893.698 7 -17555339.91848  21724869.16848
  24616022.406 3   -574173.230 3                
  22981698.867 6 -13174490.368 6 -13473876.16747  22981690.34847
  20177460.258 7 -29349659.128 7 -24089242.99349  20177448.63349
  22873596.633 6 -15915088.078 6 -15383259.50847  22873588.58247
 11  4  1  0 36 45.0000000  0 11G03G06G07G08G10G13G16G19G20G23G30   
  22617418.070 6 -10014314.705 6  -7568578.56847  22617410.25447
  23330960.805 5 -11130893.362 5  -8513138.89647  23330953.10547
  22407943.602 7 -19065784.624 7 -14799439.89448  22407934.73048
  25010263.539 5  -4887519.137 5  -4207097.01946  25010258.24246
  23046571.828 6 -13257752.550 6 -10293941.18047  23046563.07447
  20492643.109 7 -25897606.540 7 -22980885.94548  20492632.89148
  21731407.109 7 -17843589.836 7 -17528609.63848  21731396.94948
  24607367.273 2   -619642.823 2                
  22991359.328 6 -13123722.650 6 -13434316.94847  22991351.21947
  20179234.078 7 -29340340.489 7 -24081981.72249  20179221.63349
  22882884.547 6 -15866279.593 6 -15345226.95047  22882876.32047
 11  4  1  0 37  0.0000000  0 11G03G06G07G08G10G13G16G19G20G23G30   
  22610903.750 6 -10048548.580 6  -7595254.27747  22610896.05147
  23326977.617 6 -11151825.647 6  -8529449.73547  23326970.15247
  22401849.188 6 -19097811.813 6 -14824396.11948  22401840.19948
  25002612.688 5  -4927725.455 5  -4238426.51846  25002607.15646
  23041236.680 6 -13285789.185 6 -10315787.87747  23041228.21947
  20488359.680 7 -25920114.215 7 -22998424.39048  20488349.57848
  21737956.078 7 -17809175.515 7 -17501793.28848  21737946.09448
  24598710.680 1   -665112.168 1                
  23001028.758 6 -13072911.488 6 -13394723.88947  23001020.23847
  20181028.477 7 -29330910.160 7 -24074633.41649  20181016.09049
  22892185.914 5 -15817399.380 5 -15307138.48546  22892178.33246
 11  4  1  0 37 15.0000000  0 11G03G06G07G08G10G13G16G19G20G23G30   
  22604407.719 6 -10082683.758 6  -7621853.07347  22604400.13747
  23323014.352 5 -11172648.305 5  -8545675.14147  23323007.53147
  22395763.703 6 -19129790.360 6 -14849314.43948  22395754.89148
  24994965.852 4  -4967909.319 4  -4269738.54146  24994960.61346
  23035925.445 6 -13313696.472 6 -10337533.79447  23035917.27747
  20484093.414 7 -25942534.558 7 -23015894.77048  20484083.66448
  21744526.461 7 -17774647.623 7 -17474888.44748  21744516.59448
  24590056.51611                                
  23010706.500 6 -13022053.782 6 -13355094.55447  23010698.27347
  20182844.273 7 -29321364.585 7 -24067195.31149  20182832.59049
  22901502.383 6 -15768444.100 6 -15268991.54547  22901494.15647
 11  4  1  0 37 30.0000000  0 11G03G06G07G08G10G13G16G19G20G23G30   
  22597929.242 6 -10116728.413 6  -7648381.32447  22597921.36747
  23319072.055 5 -11193369.687 5  -8561821.62347  23319064.41447
  22389685.836 6 -19161728.597 6 -14874201.32548  22389677.14148
  24987321.391 4  -5008079.080 4  -4301039.54246  24987316.09446
  23030638.266 6 -13341482.833 6 -10359185.46647  23030629.86347
  20479842.281 7 -25964875.568 7 -23033303.33849  20479832.06349
  21751116.734 7 -17740014.925 7 -17447901.93148  21751106.92648
  24581403.62511                                
  23020391.703 6 -12971158.396 6 -13315435.86447  23020383.30147
  20184681.555 7 -29311712.138 7 -24059673.92249  20184669.10949
  22910830.711 5 -15719422.807 5 -15230793.17646  22910822.42646
 11  4  1  0 37 45.0000000  0 11G03G06G07G08G10G13G16G19G20G23G30   
  22591467.867 6 -10150680.627 6  -7674837.53747  22591461.22347
  23315148.445 5 -11213988.069 5  -8577887.87247  23315140.92247
  22383616.461 7 -19193625.109 7 -14899055.71848  22383607.35548
  24979680.055 4  -5048233.365 4  -4332328.50546  24979675.10946
  23025373.773 6 -13369146.546 6 -10380741.58147  23025364.96147
  20475606.195 7 -25987135.754 7 -23050648.92848  20475596.09448
  21757727.234 7 -17705276.323 7 -17420832.89348  21757717.42648
  24572753.742 1   -801518.036 1                
  23030084.219 6 -12920224.096 6 -13275746.84847  23030075.87547
  20186539.617 7 -29301951.349 7 -24052068.12049  20186526.82049
  22920172.102 6 -15670334.291 6 -15192542.40647  22920164.34447
 11  4  1  0 38  0.0000000  0 11G03G06G07G08G10G13G16G19G20G23G30   
  22585026.195 6 -10184534.082 6  -7701216.79447  22585018.96547
  23311245.781 5 -11234497.140 5  -8593868.92747  23311237.55547
  22377555.398 6 -19225473.806 6 -14923872.85748  22377546.82048
  24972042.977 4  -5088366.168 4  -4363600.69946  24972038.14846
  23020134.359 6 -13396681.410 6 -10402197.29547  23020125.54747
  20471387.086 7 -26009308.947 7 -23067926.73348  20471376.69148
  21764359.141 7 -17670426.077 7 -17393676.86148  21764348.92248
  24564103.289 2   -846985.041 2                
  23039784.781 6 -12869245.411 6 -13236023.24647  23039776.96547
  20188418.516 7 -29292076.006 7 -24044373.04749  20188406.42249
  22929527.195 6 -15621173.005 6 -15154234.94646  22929519.37946
 11  4  1  0 38 15.0000000  0 11G03G06G07G08G10G13G16G19G20G23G30   
  22578602.281 6 -10218291.468 6  -7727521.21647  22578594.52347
  23307363.438 5 -11254899.623 5  -8609766.90547  23307355.38747
  22371503.555 7 -19257277.852 7 -14948655.20848  22371494.56648
  24964410.414 4  -5128480.257 4  -4394858.30946  24964404.41446
  23014918.859 6 -13424090.334 6 -10423554.87847  23014910.45747
  20467183.047 7 -26031397.930 7 -23085138.92348  20467172.77048
  21771011.438 7 -17635467.322 7 -17366436.29048  21771001.27748
  24555452.867 3   -892450.446 3                
  23049493.891 6 -12818225.668 6 -13196267.65047  23049485.66447
  20190318.930 7 -29282089.088 7 -24036591.03749  20190306.77749
  22938895.367 5 -15571942.278 5 -15115873.36347  22938886.84847
 11  4  1  0 38 30.0000000  0 11G03G06G07G08G10G13G16G19G20G23G30   
  22572196.844 6 -10251952.595 6  -7753750.61447  22572189.14547
  23303500.797 5 -11275195.692 5  -8625581.99447  23303493.03947
  22365459.672 7 -19289037.635 7 -14973403.06248  22365450.74248
  24956778.594 4  -5168576.145 4  -4426101.76046  24956773.64846
  23009727.047 6 -13451373.375 6 -10444814.36947  23009718.35247
  20462996.094 7 -26053402.724 7 -23102285.50148  20462985.81648
  21777684.258 7 -17600401.120 7 -17339111.98048  21777674.27348
  24546801.922 4   -937914.227 4                
  23059209.977 6 -12767165.456 6 -13156480.52447  23059202.39547
  20192240.336 7 -29271991.137 7 -24028722.50549  20192229.06349
  22948276.922 5 -15522642.785 5 -15077458.20247  22948268.98847
 11  4  1  0 38 45.0000000  0 11G03G06G07G08G10G13G16G19G20G23G30   
  22565809.594 6 -10285516.730 6  -7779904.44347  22565801.95347
  23299658.484 5 -11295384.561 5  -8641313.54347  23299650.66847
  22359425.250 7 -19320752.586 7 -14998115.99248  22359415.67648
  24949153.172 4  -5208653.311 4  -4457330.60846  24949147.23046
  23004559.320 6 -13478529.916 6 -10465975.28147  23004550.56647
  20458824.703 7 -26075322.726 7 -23119366.01248  20458814.89548
  21784377.648 6 -17565227.275 6 -17311703.79748  21784367.48848
  24538151.820 4   -983375.549 4                
  23068934.305 6 -12716064.697 6 -13116661.79947  23068926.43047
  20194183.070 7 -29261781.499 7 -24020766.95049  20194171.38749
  22957671.445 6 -15473274.604 6 -15038989.52547  22957663.62947
 11  4  1  0 39  0.0000000  0 11G03G06G07G08G10G13G16G19G20G23G30   
  22559441.242 6 -10318983.426 6  -7805982.32347  22559434.07047
  23295838.523 5 -11315465.930 5  -8656961.33847  23295830.06347
  22353398.078 7 -19352422.551 7 -15022793.86248  22353389.14848
  24941530.008 4  -5248711.670 4  -4488544.80346  24941524.12546
  22999415.148 6 -13505559.515 6 -10487037.27447  22999407.15647
  20454669.383 7 -26097157.633 7 -23136380.21748  20454659.39848
  21791091.516 7 -17529946.150 7 -17284212.02048  21791081.47348
  24529500.789 4  -1028833.817 4                
  23078666.141 6 -12664923.854 6 -13076811.83847  23078658.03147
  20196147.352 7 -29251460.063 7 -24012724.28049  20196135.31649
  22967078.250 6 -15423837.903 6 -15000467.44146  22967070.84446
 11  4  1  0 39 15.0000000  0 11G03G06G07G08G10G13G16G19G20G23G30   
  22553091.375 6 -10352352.720 6  -7831984.32247  22553083.67647
  23292036.758 5 -11335439.949 5  -8672525.45947  23292028.88347
  22347379.930 7 -19384048.023 7 -15047437.05948  22347371.11748
  24933911.133 4  -5288751.638 4  -4519744.64046  24933904.31346
  22994295.781 6 -13532462.453 6 -10508000.58247  22994287.32047
  20450530.641 7 -26118907.687 7 -23153328.30348  20450520.59848
  21797825.742 7 -17494558.349 7 -17256637.11248  21797815.81648
  24520850.914 4  -1074289.283 4                
  23088405.602 6 -12613743.666 6 -13036931.21947  23088397.37547
  20198132.820 7 -29241027.157 7 -24004594.74549  20198120.60949
  22976499.023 6 -15374333.544 6 -14961892.65247  22976491.50047
 11  4  1  0 39 30.0000000  0 11G03G06G07G08G10G13G16G19G20G23G30   
  22546759.570 6 -10385623.921 6  -7857909.88947  22546751.69547
  23288256.297 5 -11355305.893 5  -8688005.39147  23288248.71547
  22341370.445 7 -19415628.614 7 -15072045.28048  22341361.10548
  24926295.086 3  -5328772.958 3  -4550929.99146  24926289.08646
  22989200.359 6 -13559238.299 6 -10528864.86147  22989191.89847
  20446408.094 7 -26140572.173 7 -23170209.71648  20446398.05148
  21804580.367 7 -17459063.811 7 -17228979.04248  21804569.62148
  24512200.836 3  -1119741.110 3  -2037167.81355  24512188.27355
  23098152.578 6 -12562524.066 6 -12997019.88747  23098144.11747
  20200138.891 7 -29230482.249 7 -23996377.93449  20200127.20749
  22985931.945 6 -15324761.467 6 -14923265.09847  22985924.77347
 11  4  1  0 39 45.0000000  0 11G03G06G07G08G10G13G16G19G20G23G30   
  22540447.023 6 -10418795.801 6  -7883758.06247  22540439.32447
  23284495.781 6 -11375062.851 6  -8703400.38547  23284488.60947
  22335369.320 7 -19447163.649 7 -15096618.01848  22335360.39148
  24918682.188 4  -5368774.844 4  -4582100.18546  24918676.89146
  22984130.180 6 -13585885.937 6 -10549629.22247  22984121.30947
  20442301.930 7 -26162150.224 7 -23187023.76949  20442291.94549
  21811354.859 7 -17423462.187 7 -17201237.53048  21811344.87548
  24503551.117 2  -1165188.167 2  -2072581.03646  24503542.30546
  23107906.563 6 -12511264.683 6 -12957077.55947  23107898.74647
  20202167.281 7 -29219824.555 7 -23988073.24548  20202155.94948
  22995378.758 6 -15275121.285 6 -14884584.45946  22995370.59046
 11  4  1  0 40  0.0000000  0 11G03G06G07G08G10G13G16G19G20G23G30   
  22534153.758 6 -10451869.173 6  -7909529.46547  22534146.29347
  23280757.516 5 -11394711.649 5  -8718711.09846  23280749.69946
  22329377.016 7 -19478654.047 7 -15121155.95848  22329368.26248
  24911075.133 4  -5408758.381 4  -4613256.05445  24911068.72345
  22979082.859 6 -13612406.266 6 -10570294.39147  22979074.69147
  20438212.047 7 -26183642.603 7 -23203771.07148  20438201.82848
  21818149.813 7 -17387754.805 7 -17173413.60148  21818139.65248
  24494900.680 2  -1210631.164 2  -2107991.10646  24494896.26246
  23117668.570 6 -12459967.038 6 -12917105.43047  23117660.22747
  20204216.734 7 -29209055.092 7 -23979681.45049  20204204.75849
  23004837.898 6 -15225414.445 6 -14845851.89047  23004829.96547
 11  4  1  0 40 15.0000000  0 11G03G06G07G08G10G13G16G19G20G23G30   
  22527879.023 6 -10484843.136 6  -7935223.42747  22527871.09047
  23277039.258 5 -11414251.394 5  -8733936.84147  23277031.73447
  22323393.203 7 -19510099.355 7 -15145658.75348  22323384.21548
  24903468.688 3  -5448723.033 3  -4644397.26746  24903463.09846
  22974060.828 6 -13638798.574 6 -10590859.79547  22974051.95747
  20434138.570 7 -26205048.632 7 -23220451.08548  20434128.35248
  21824964.773 7 -17351941.466 7 -17145507.12048  21824954.55548
  24486252.961 1  -1256069.435 1  -2143397.47746  24486250.94546
  23127437.641 6 -12408630.952 6 -12877103.31947  23127429.64847
  20206287.234 7 -29198173.356 7 -23971202.18349  20206275.49249
  23014309.422 6 -15175640.837 6 -14807067.29347  23014301.48847
 11  4  1  0 40 30.0000000  0 11G03G06G07G08G10G13G16G19G20G23G30   
  22521622.945 6 -10517717.357 6  -7960839.65247  22521615.42247
  23273342.133 5 -11433682.093 5  -8749077.61547  23273334.02347
  22317417.938 7 -19541499.821 7 -15170126.61448  22317408.77348
  24895866.805 4  -5488668.911 4  -4675523.81146  24895860.74646
  22969062.586 6 -13665062.654 6 -10611325.30247  22969054.71147
  20430081.391 7 -26226368.210 7 -23237063.73848  20430071.81648
  21831799.875 7 -17316022.693 7 -17117518.47748  21831789.24648
  24477607.070 1  -1301502.382 1  -2178799.65146  24477606.40246
  23137213.875 6 -12357256.864 6 -12837071.61647  23137205.76647
  20208379.570 7 -29187179.339 7 -23962635.41449  20208367.53549
  23023793.750 6 -15125800.883 6 -14768230.99947  23023785.52347
 11  4  1  0 40 45.0000000  0 11G03G06G07G08G10G13G16G19G20G23G30   
  22515386.445 6 -10550491.782 6  -7986378.12047  22515378.74647
  23269664.242 5 -11453003.670 5  -8764133.34547  23269657.07047
  22311451.281 7 -19572855.735 7 -15194559.76348  22311441.82448
  24888269.750 4  -5528596.385 4  -4706636.01146  24888263.10546
  22964089.625 6 -13691198.777 6 -10631691.09447  22964080.81347
  20426041.422 7 -26247601.295 7 -23253608.98948  20426031.02748
  21838655.242 7 -17279999.109 7 -17089448.15948  21838645.02348
  24468964.117 2  -1346930.058 2  -2214197.72846  24468961.39846
  23146996.953 6 -12305845.408 6 -12797010.77747  23146988.19947
  20210492.906 7 -29176073.307 7 -23953981.36449  20210481.04749
  23033290.203 6 -15075895.211 6 -14729343.49247  23033282.27047
 11  4  1  0 41  0.0000000  0 11G03G06G07G08G10G13G16G19G20G23G30   
  22509168.422 6 -10583165.883 6  -8011838.41447  22509160.78147
  23266008.867 5 -11472215.904 5  -8779103.88647  23266001.16847
  22305492.469 7 -19604166.931 7 -15218958.07648  22305483.77348
  24880674.906 4  -5568505.336 4  -4737733.80546  24880667.96946
  22959139.891 6 -13717206.518 6 -10651956.84847  22959131.78147
  20422016.891 7 -26268747.748 7 -23270086.73849  20422006.78949
  21845529.883 7 -17243871.049 7 -17061296.44048  21845519.95748
  24460323.203 4  -1392351.785 4  -2249591.21646  24460317.61346
  23156787.375 6 -12254396.881 6 -12756921.06747  23156779.03147
  20212627.422 7 -29164855.119 7 -23945239.92149  20212615.44549
  23042799.703 6 -15025924.036 6 -14690404.94047  23042791.59447
 11  4  1  0 41 15.0000000  0 11G03G06G07G08G10G13G16G19G20G23G30   
  22502970.000 6 -10615739.440 6  -8037220.36147  22502962.41847
  23262373.672 5 -11491318.386 5  -8793988.89247  23262365.91447
  22299542.617 7 -19635433.395 7 -15243321.51948  22299533.57048
  24873083.625 4  -5608395.702 4  -4768817.13946  24873077.80146
  22954215.711 6 -13743085.602 6 -10672122.35447  22954207.25047
  20418009.695 7 -26289807.266 7 -23286496.74148  20417999.30148
  21852424.484 7 -17207638.707 7 -17033063.44948  21852414.67648
  24451681.859 5  -1437767.393 5  -2284979.91646  24451674.27746
  23166584.367 6 -12202911.662 6 -12716802.76147  23166576.60947
  20214783.336 7 -29153524.703 7 -23936411.02548  20214772.12148
  23052321.188 6 -14975887.836 6 -14651415.70847  23052313.25447
 11  4  1  0 41 30.0000000  0 11G03G06G07G08G10G13G16G19G20G23G30   
  22496790.188 6 -10648212.140 6  -8062523.71647  22496783.19147
  23258759.727 5 -11510311.035 5  -8808788.33047  23258751.55947
  22293601.469 7 -19666655.165 7 -15267650.13848  22293592.36348
  24865496.305 4  -5648267.570 4  -4799885.99846  24865490.12946
  22949315.055 6 -13768835.921 6 -10692187.52547  22949307.06347
  20414018.883 7 -26310779.781 7 -23302838.95248  20414008.54748
  21859339.320 7 -17171302.420 7 -17004749.47048  21859329.27748
  24443041.359 5  -1483176.612 5  -2320363.66346  24443031.14146
  23176388.773 6 -12151390.295 6 -12676656.28847  23176381.07447
  20216961.023 7 -29142082.101 7 -23927494.71649  20216949.22349
  23061855.313 6 -14925787.043 6 -14612376.16547  23061846.96947
 11  4  1  0 41 45.0000000  0 11G03G06G07G08G10G13G16G19G20G23G30   
  22490630.703 6 -10680583.287 6  -8087747.95347  22490622.77047
  23255166.641 5 -11529193.263 5  -8823501.71647  23255158.64847
  22287668.594 7 -19697831.910 7 -15291943.67648  22287659.37148
  24857913.617 4  -5688120.686 4  -4830940.32845  24857906.38745
  22944439.883 6 -13794457.068 6 -10712152.02747  22944431.42247
  20410044.594 7 -26331664.709 7 -23319112.91348  20410034.31648
  21866273.484 7 -17134862.293 7 -16976354.58148  21866263.73448
  24434401.414 5  -1528578.825 5  -2355741.94946  24434390.25846
  23186200.383 6 -12099832.829 6 -12636481.67347  23186191.92247
  20219159.977 7 -29130526.900 7 -23918490.66549  20219148.05949
  23071401.391 6 -14875621.710 6 -14573286.32547  23071393.45747
 11  4  1  0 42  0.0000000  0 11G03G06G07G08G10G13G16G19G20G23G30   
  22484489.828 6 -10712852.830 6  -8112893.01247  22484482.36347
  23251594.047 5 -11547965.111 5  -8838129.09246  23251586.40646
  22281744.609 7 -19728964.012 7 -15316202.42948  22281735.62148
  24850331.961 4  -5727955.139 4  -4861980.09046  24850326.31346
  22939589.031 6 -13819949.165 6 -10732015.98547  22939580.33647
  20406086.688 7 -26352462.021 7 -23335318.61148  20406076.64548
  21873227.531 7 -17098319.049 7 -16947879.33848  21873218.07448
  24425762.891 5  -1573973.808 5  -2391114.60346  24425750.38746
  23196017.234 6 -12048239.727 6 -12596279.31447  23196010.00447
  20221380.492 7 -29118859.396 7 -23909399.10349  20221368.22349
  23080959.625 6 -14825392.385 6 -14534146.61547  23080951.63347
 11  4  1  0 42 15.0000000  0 11G03G06G07G08G10G13G16G19G20G23G30   
  22478368.539 6 -10745019.863 6  -8137958.19047  22478361.07447
  23248043.172 5 -11566625.694 5  -8852669.77547  23248035.70747
  22275829.266 6 -19760050.880 6 -15340425.93848  22275819.86748
  24842755.398 5  -5767770.578 5  -4893005.01446  24842749.45746
  22934762.422 6 -13845311.424 6 -10751778.77747  22934754.13747
  20402146.164 7 -26373171.084 7 -23351455.53648  20402135.47748
  21880201.453 7 -17061672.436 7 -16919323.55048  21880191.70348
  24417125.305 5  -1619360.551 5  -2426480.82146  24417112.85946
  23205842.086 6 -11996610.915 6 -12556049.10547  23205834.68047
  20223622.445 7 -29107079.011 7 -23900219.58349  20223610.17649
  23090530.523 6 -14775098.848 6 -14494956.88847  23090522.35547
 11  4  1  0 42 30.0000000  0 11G03G06G07G08G10G13G16G19G20G23G30   
  22472267.195 6 -10777084.403 6  -8162943.50847  22472259.26247
  23244512.977 6 -11585175.265 6  -8867123.94947  23244505.45347
  22269921.820 6 -19791092.927 6 -15364614.52048  22269912.59848
  24835183.016 5  -5807567.277 5  -4924015.38546  24835176.95746
  22929961.219 6 -13870544.057 6 -10771440.54047  22929952.40647
  20398222.094 7 -26393792.006 7 -23367523.77748  20398212.16848
  21887194.211 7 -17024923.240 7 -16890687.82448  21887184.05148
  24408488.414 5  -1664739.214 5  -2461840.73746  24408477.31646
  23215673.516 6 -11944947.173 6 -12515791.69146  23215665.81646
  20225885.203 7 -29095186.101 7 -23890952.38248  20225873.75448
  23100113.469 6 -14724742.035 6 -14455717.83447  23100104.89147
 11  4  1  0 42 45.0000000  0 11G03G06G07G08G10G13G16G19G20G23G30   
  22466184.805 6 -10809045.710 6  -8187848.38647  22466176.98847
  23241004.172 5 -11603613.158 5  -8881491.10947  23240996.70747
  22264022.969 6 -19822089.804 6 -15388767.89748  22264014.44948
  24827613.484 4  -5847344.896 4  -4955010.84446  24827606.72346
  22925184.148 6 -13895646.576 6 -10791000.94247  22925175.51247
  20394314.797 7 -26414324.196 7 -23383522.87548  20394304.69548
  21894207.055 7 -16988071.179 7 -16861971.94348  21894197.12948
  24399854.039 4  -1710108.968 4  -2497193.67446  24399843.99646
  23225511.750 6 -11893248.600 6 -12475507.12647  23225503.52347
  20228170.141 7 -29083180.127 7 -23881597.08949  20228157.93049
  23109707.898 6 -14674321.854 6 -14416429.41647  23109699.49647
 11  4  1  0 43  0.0000000  0 11G03G06G07G08G10G13G16G19G20G23G30   
  22460123.281 6 -10840903.579 6  -8212672.66447  22460114.35247
  23237517.016 6 -11621939.387 6  -8895771.26347  23237509.02347
  22258132.992 6 -19853041.739 6 -15412886.26348  22258124.23848
  24820047.813 5  -5887103.701 5  -4985991.67046  24820040.81646
  22920432.242 6 -13920618.898 6 -10810459.86847  22920423.07847
  20390424.203 7 -26434767.685 7 -23399452.86548  20390414.16048
  21901238.930 7 -16951117.109 7 -16833176.58248  21901228.94548
  24391220.938 3  -1755469.655 3  -2532539.54646  24391212.53546
  23235355.852 6 -11841515.561 6 -12435195.72347  23235348.21147
  20230476.227 7 -29071061.328 7 -23872153.86448  20230464.36748
  23119314.188 6 -14623838.933 6 -14377092.10747  23119306.13747
 11  4  1  0 43 15.0000000  0 11G03G06G07G08G10G13G16G19G20G23G30   
  22454079.898 6 -10872657.687 6  -8237416.09347  22454072.14147
  23234051.313 6 -11640153.643 6  -8909964.14646  23234042.91046
  22252251.922 6 -19883948.619 6 -15436969.51448  22252242.64148
  24812485.281 5  -5926843.588 5  -5016957.77446  24812478.34446
  22915705.125 6 -13945460.826 6 -10829817.20547  22915696.37147
  20386551.156 7 -26455122.179 7 -23415313.50648  20386540.99648
  21908290.688 7 -16914061.247 7 -16804301.89348  21908280.82048
  24382590.859 3  -1800820.900 3  -2567878.07646  24382583.74646
  23245207.094 6 -11789748.397 6 -12394857.71347  23245199.33647
  20232803.875 7 -29058829.494 7 -23862622.57148  20232791.95748
  23128932.547 6 -14573293.516 6 -14337706.08347  23128924.43847
 11  4  1  0 43 30.0000000  0 11G03G06G07G08G10G13G16G19G20G23G30   
  22448057.219 5 -10904307.732 5  -8262078.41647  22448049.28547
  23230606.164 5 -11658255.937 5  -8924069.81347  23230598.52347
  22246378.945 6 -19914810.743 6 -15461017.89348  22246369.78148
  24804925.500 5  -5966564.771 5  -5047909.30146  24804920.20346
  22911002.531 6 -13970172.347 6 -10849072.91447  22910993.60247
  20382694.648 7 -26475387.754 7 -23431104.84948  20382684.66448
  21915361.727 7 -16876904.196 7 -16775348.35548  21915351.62548
  24373962.094 3  -1846162.512 3  -2603209.07046  24373956.21146
  23255065.039 6 -11737947.740 6 -12354493.62346  23255057.04746
  20235152.742 7 -29046484.941 7 -23853003.44548  20235140.70748
  23138562.563 6 -14522686.191 6 -14298271.83146  23138555.15646
 11  4  1  0 43 45.0000000  0 11G03G06G07G08G10G13G16G19G20G23G30   
  22442054.461 5 -10935853.331 5  -8286659.36747  22442046.64547
  23227182.867 6 -11676245.744 6  -8938087.80847  23227175.40247
  22240514.570 6 -19945627.770 6 -15485031.12448  22240505.46548
  24797371.727 5  -6006267.164 5  -5078846.14445  24797364.55545
  22906324.695 6 -13994752.970 6 -10868226.64447  22906316.46947
  20378855.367 7 -26495563.871 7 -23446826.49348  20378845.32448
  21922451.430 7 -16839646.004 7 -16746316.00448  21922441.38748
  24365337.109 4  -1891493.860 4  -2638532.09146  24365330.58246
  23264927.930 6 -11686113.742 6 -12314103.52946  23264919.99646
  20237523.281 7 -29034027.321 7 -23843296.21448  20237511.48048
  23148204.594 6 -14472017.078 6 -14258789.43046  23148196.95346
 11  4  1  0 44  0.0000000  0 11G03G06G07G08G10G13G16G19G20G23G30   
  22436071.031 6 -10967294.174 6  -8311158.69047  22436063.03947
  23223781.523 5 -11694122.977 5  -8952018.10146  23223773.29746
  22234658.547 6 -19976399.997 6 -15509009.45248  22234650.02748
  24789818.820 5  -6045951.000 5  -5109768.58545  24789812.76245
  22901672.164 6 -14019202.911 6 -10887278.53047  22901663.46947
  20375032.977 7 -26515650.584 7 -23462478.46948  20375022.46548
  21929560.672 6 -16802287.337 6 -16717205.37248  21929550.45348
  24356713.555 4  -1936814.757 4  -2673846.97546  24356706.91046
  23274798.367 6 -11634247.148 6 -12273688.04046  23274790.37546
  20239915.570 7 -29021456.862 7 -23833501.05349  20239903.47749
  23157858.344 6 -14421286.762 6 -14219259.32647  23157850.70347
 11  4  1  0 44 15.0000000  0 11G03G06G07G08G10G13G16G19G20G23G30   
  22430108.125 6 -10998629.687 6  -8335575.94447  22430100.77747
  23220400.648 6 -11711887.392 6  -8965860.46847  23220392.83247
  22228811.398 6 -20007127.348 6 -15532952.80048  22228802.11748
  24782271.758 5  -6085615.955 5  -5140676.28846  24782265.23046
  22897044.305 6 -14043521.636 6 -10906228.17947  22897036.13747
  20371227.625 7 -26535647.541 7 -23478060.50948  20371217.28948
  21936689.094 6 -16764828.267 6 -16688016.48348  21936678.69948
  24348091.438 5  -1982124.988 5  -2709153.53947  24348085.43847
  23284674.164 5 -11582348.146 5 -12233247.30246  23284666.34846
  20242329.070 7 -29008773.410 7 -23823617.85149  20242316.91849
  23167523.930 6 -14370495.468 6 -14179681.72747  23167515.82047
 11  4  1  0 44 30.0000000  0 11G03G06G07G08G10G13G16G19G20G23G30   
  22424164.906 6 -11029859.947 6  -8359911.17347  22424157.61747
  23217041.477 5 -11729539.059 5  -8979614.99247  23217033.77747
  22222972.695 6 -20037810.172 6 -15556861.47948  22222963.53148
  24774726.688 5  -6125262.473 5  -5171569.61246  24774720.57046
  22892441.797 6 -14067709.530 6 -10925075.87447  22892433.27747
  20367439.648 7 -26555554.808 7 -23493572.65348  20367429.02048
  21943835.781 7 -16727269.479 7 -16658749.91047  21943825.85547
  24339472.391 4  -2027424.244 4  -2744451.55246  24339465.39546
  23294556.406 6 -11530417.410 6 -12192781.83747  23294548.59047
  20244764.063 7 -28995977.350 7 -23813646.89749  20244752.14549
  23177201.266 6 -14319643.882 6 -14140057.13947  23177192.74647
 11  4  1  0 44 45.0000000  0 11G03G06G07G08G10G13G16G19G20G23G30   
  22418242.469 6 -11060984.238 6  -8384163.82447  22418234.47747
  23213704.086 5 -11747077.104 5  -8993280.97247  23213696.32847
  22217142.508 7 -20068447.827 7 -15580734.94348  22217133.57848
  24767185.500 5  -6164889.990 5  -5202448.15046  24767179.85246
  22887863.758 6 -14091765.724 6 -10943820.95247  22887855.41447
  20363668.461 7 -26575371.637 7 -23509014.33249  20363658.06649
  21951001.789 7 -16689610.756 7 -16629405.45847  21950991.92247
  24330854.453 5  -2072711.560 5  -2779740.27147  24330847.10547
  23304444.695 6 -11478454.716 6 -12152291.47646  23304436.99646
  20247220.734 7 -28983067.840 7 -23803587.54948  20247208.87548
  23186888.766 6 -14268731.869 6 -14100385.46747  23186880.65647
 11  4  1  0 45  0.0000000  0 11G03G06G07G08G10G13G16G19G20G23G30   
  22412339.781 6 -11092002.130 6  -8408333.57447  22412331.90647
  23210388.500 5 -11764501.457 5  -9006858.35247  23210380.50847
  22211320.883 6 -20099040.465 6 -15604573.33048  22211311.54348
  24759648.563 5  -6204498.580 5  -5233311.90746  24759642.62146
  22883311.305 6 -14115690.093 6 -10962463.31247  22883302.72747
  20359914.602 7 -26595097.949 7 -23524385.47349  20359904.55949
  21958186.898 7 -16651852.559 7 -16599983.49148  21958177.03148
  24322237.625 5  -2117986.688 5  -2815019.49546  24322231.15646
  23314338.523 5 -11426460.462 5 -12111776.51547  23314331.05947
  20249699.195 7 -28970045.134 7 -23793439.98349  20249686.98449
  23196588.703 6 -14217759.930 6 -14060667.09846  23196580.53546
 11  4  1  0 45 15.0000000  0 11G03G06G07G08G10G13G16G19G20G23G30   
  22406457.938 6 -11122913.324 6  -8432420.18847  22406449.24247
  23207094.930 5 -11781812.135 5  -9020347.16247  23207086.58647
  22205507.813 6 -20129588.202 6 -15628376.73748  22205498.59048
  24752114.930 5  -6244088.362 5  -5264161.06046  24752108.69546
  22878783.695 6 -14139482.643 6 -10981002.95147  22878774.88347
  20356177.969 7 -26614733.668 7 -23539686.02949  20356167.80949
  21965391.148 7 -16613995.454 7 -16570484.45948  21965381.28148
  24313624.000 4  -2163249.328 4  -2850288.99246  24313616.71146
  23324238.742 5 -11374435.271 5 -12071237.46047  23324231.21947
  20252198.492 7 -28956909.280 7 -23783204.26248  20252186.69148
  23206299.703 6 -14166728.456 6 -14020902.33146  23206291.65246
 11  4  1  0 45 30.0000000  0 11G03G06G07G08G10G13G16G19G20G23G30   
  22400595.633 6 -11153717.470 6  -8456423.38247  22400587.99247
  23203821.992 5 -11799008.613 5  -9033746.99047  23203814.05947
  22199703.570 6 -20160090.911 6 -15652145.05748  22199693.93848
  24744584.477 5  -6283659.366 5  -5294995.55446  24744578.59446
  22874280.859 6 -14163143.079 6 -10999439.63947  22874272.75047
  20352458.703 7 -26634278.535 7 -23554915.78248  20352448.54348
  21972614.125 6 -16576039.711 6 -16540908.55348  21972604.08248
  24305012.953 4  -2208499.046 4  -2885548.39846  24305005.19546
  23334144.563 5 -11322379.329 5 -12030674.43547  23334136.62947
  20254719.781 7 -28943660.239 7 -23772880.33649  20254707.68849
  23216021.547 6 -14115637.789 6 -13981091.45346  23216013.73046
 11  4  1  0 45 45.0000000  0 11G03G06G07G08G10G13G16G19G20G23G30   
  22394754.664 6 -11184413.801 6  -8480342.57847  22394746.84847
  23200571.313 5 -11816090.327 5  -9047057.37547  23200563.67247
  22193907.492 6 -20190548.202 6 -15675877.98748  22193897.97748
  24737057.789 5  -6323210.941 5  -5325814.91346  24737051.90646
  22869803.969 6 -14186670.833 6 -11017772.95747  22869795.33247
  20348757.078 7 -26653731.872 7 -23570074.22148  20348746.27348
  21979855.445 7 -16537985.114 7 -16511255.62648  21979845.69548
  24296405.211 5  -2253735.185 5  -2920797.25146  24296396.92646
  23344056.094 5 -11270292.521 5 -11990087.35346  23344049.09846
  20257262.492 7 -28930297.358 7 -23762467.70149  20257250.86749
  23225755.133 5 -14064487.862 5 -13941234.38946  23225747.14146
 11  4  1  0 46  0.0000000  0 11G03G06G07G08G10G13G16G19G20G23G30   
  22388933.625 6 -11215002.465 6  -8504177.86247  22388925.69147
  23197342.539 6 -11833057.574 6  -9060278.59347  23197335.13347
  22188120.172 6 -20220960.765 6 -15699576.05548  22188110.89148
  24729535.469 5  -6362743.876 5  -5356619.74246  24729528.70746
  22865352.273 6 -14210066.331 6 -11036003.19547  22865343.10947
  20345072.375 7 -26673094.066 7 -23585161.63448  20345062.21548
  21987115.547 6 -16499832.709 6 -16481526.48648  21987105.56348
  24287799.398 4  -2298957.850 4  -2956035.61246  24287790.35246
  23353973.742 5 -11218175.925 5 -11949477.07647  23353966.27747
  20259827.000 7 -28916821.222 7 -23751966.82149  20259814.90649
  23235499.766 5 -14013279.651 5 -13901331.90846  23235492.30146
 11  4  1  0 46 15.0000000  0 11G03G06G07G08G10G13G16G19G20G23G30   
  22383133.195 6 -11245483.092 6  -8527928.96747  22383125.20347
  23194135.336 6 -11849909.892 6  -9073410.21947  23194127.69547
  22182341.219 6 -20251328.278 6 -15723239.01948  22182332.40648
  24722016.352 5  -6402257.798 5  -5387409.74446  24722009.59046
  22860924.727 6 -14233328.987 6 -11054129.93147  22860916.55947
  20341405.477 7 -26692364.609 7 -23600177.64248  20341394.96548
  21994394.539 6 -16461582.432 6 -16451721.08148  21994384.73048
  24279196.211 4  -2344166.410 4  -2991262.95946  24279186.81346
  23363897.609 5 -11166029.584 5 -11908843.60646  23363889.55946
  20262413.063 7 -28903231.646 7 -23741377.54449  20262400.96949
  23245254.695 5 -13962013.309 5 -13861384.13546  23245247.69946
 11  4  1  0 46 30.0000000  0 11G03G06G07G08G10G13G16G19G20G23G30   
  22377353.406 6 -11275855.191 6  -8551595.49747  22377345.76647
  23190950.797 6 -11866647.116 6  -9086452.19547  23190942.39547
  22176571.484 6 -20281650.719 6 -15746866.86848  22176562.14548
  24714500.625 5  -6441752.897 5  -5418185.10346  24714494.21546
  22856523.891 6 -14256458.806 6 -11072153.16247  22856515.31347
  20337755.914 7 -26711543.245 7 -23615122.02348  20337745.40248
  22001691.852 7 -16423234.758 7 -16421839.79247  22001681.57447
  24270595.273 4  -2389360.520 4  -3026479.06746  24270587.04746
  23373826.047 6 -11113853.999 6 -11868187.35246  23373818.46546
  20265020.539 7 -28889528.513 7 -23730699.78249  20265008.68049
  23255022.063 5 -13910689.082 5 -13821391.26046  23255014.12946
 11  4  1  0 46 45.0000000  0 11G03G06G07G08G10G13G16G19G20G23G30   
  22371594.406 6 -11306118.469 6  -8575177.24147  22371586.64847
  23187787.383 5 -11883268.992 5  -9099404.28746  23187779.62546
  22170809.680 6 -20311928.062 6 -15770459.57648  22170800.92648
  24706987.867 5  -6481229.097 5  -5448945.71246  24706982.21946
  22852147.703 6 -14279455.562 6 -11090072.70147  22852139.00847
  20334123.938 7 -26730629.748 7 -23629994.60749  20334113.25049
  22009007.219 6 -16384790.026 6 -16391882.85848  22008997.58648
  24261998.445 4  -2434539.781 4  -3061683.63146  24261989.86746
  23383760.242 6 -11061649.445 6 -11827508.51546  23383752.42646
  20267649.898 7 -28875711.768 7 -23719933.48849  20267637.98049
  23264799.109 5 -13859307.359 5 -13781353.57846  23264791.99646
 11  4  1  0 47  0.0000000  0 11G03G06G07G08G10G13G16G19G20G23G30   
  22365856.266 6 -11336272.455 6  -8598673.80847  22365848.62547
  23184646.813 5 -11899775.127 5  -9112266.17647  23184638.17647
  22165056.617 6 -20342160.393 6 -15794017.21248  22165047.39548
  24699480.031 6  -6520686.204 6  -5479691.44846  24699473.50446
  22847796.703 6 -14302318.882 6 -11107888.27047  22847788.18447
  20330509.039 7 -26749623.907 7 -23644795.24548  20330499.40648
  22016341.664 7 -16346248.563 7 -16361850.54847  22016331.85547
  24253403.953 4  -2479703.722 4  -3096876.18046  24253395.25846
  23393700.430 6 -11009416.114 6 -11786807.27546  23393692.37946
  20270300.813 7 -28861781.351 7 -23709078.62649  20270288.89549
  23274588.391 6 -13807868.464 6 -13741271.34546  23274580.51646
 11  4  1  0 47 15.0000000  0 11G03G06G07G08G10G13G16G19G20G23G30   
  22360139.219 6 -11366316.877 6  -8622085.00947  22360131.34447
  23181527.375 6 -11916165.529 6  -9125037.88247  23181519.79347
  22159311.984 6 -20372347.684 6 -15817539.75148  22159302.82048
  24691974.398 5  -6560124.480 5  -5510422.51346  24691968.51646
  22843471.305 6 -14325048.954 6 -11125599.99247  22843462.90247
  20326912.250 7 -26768525.561 7 -23659523.79749  20326902.38349
  22023694.906 6 -16307610.755 6 -16331743.18347  22023684.04347
  24244812.703 4  -2524852.095 4  -3132056.65346  24244804.41846
  23403644.891 6 -10957154.694 6 -11746084.14446  23403637.42646
  20272972.969 7 -28847737.370 7 -23698135.26948  20272961.52048
  23284387.242 6 -13756372.903 6 -13701144.95946  23284379.71946
 11  4  1  0 47 30.0000000  0 11G03G06G07G08G10G13G16G19G20G23G30   
  22354443.125 6 -11396251.430 6  -8645410.60547  22354434.89847
  23178430.195 5 -11932440.001 5  -9137719.27247  23178422.32047
  22153576.023 6 -20402490.055 6 -15841027.28248  22153567.21148
  24684473.430 6  -6599543.783 6  -5541138.79746  24684467.13746
  22839171.461 6 -14347645.591 6 -11143207.76547  22839162.88347
  20323333.125 7 -26787334.589 7 -23674180.17848  20323323.14148
  22031065.141 7 -16268877.044 7 -16301561.07347  22031055.21547
  24236224.266 3  -2569984.544 3  -3167224.73146  24236215.51246
  23413594.992 6 -10904865.594 6 -11705339.44046  23413587.76246
  20275667.336 7 -28833579.946 7 -23687103.51048  20275655.41848
  23294197.703 6 -13704821.056 6 -13660974.73846  23294190.00446
 11  4  1  0 47 45.0000000  0 11G03G06G07G08G10G13G16G19G20G23G30   
  22348767.609 6 -11426075.436 6  -8668650.04447  22348759.55947
  23175355.672 5 -11948598.057 5  -9150309.93247  23175347.73847
  22147848.594 6 -20432587.314 6 -15864479.66148  22147839.66448
  24676976.469 6  -6638944.101 6  -5571840.28346  24676969.64846
  22834896.859 6 -14370108.221 6 -11160711.09747  22834888.16447
  20319771.727 7 -26806050.430 7 -23688763.94348  20319761.33248
  22038453.836 6 -16230047.587 6 -16271304.35447  22038444.32047
  24227637.828 4  -2615100.484 4  -3202379.91846  24227630.07046
  23423551.352 6 -10852548.973 6 -11664573.29046  23423543.18446
  20278382.883 7 -28819308.626 7 -23675983.00348  20278370.73048
  23304018.336 5 -13653212.976 5 -13620760.67146  23304010.87146
 11  4  1  0 48  0.0000000  0 11G03G06G07G08G10G13G16G19G20G23G30   
  22343113.336 6 -11455788.968 6  -8691803.41847  22343105.10947
  23172303.445 5 -11964639.858 5  -9162810.01447  23172294.75047
  22142130.078 6 -20462639.686 6 -15887897.07248  22142121.20748
  24669481.680 6  -6678325.605 6  -5602527.09946  24669475.91446
  22830647.953 6 -14392437.070 6 -11178110.20747  22830639.55147
  20316227.742 7 -26824673.367 7 -23703275.31449  20316217.64149
  22045861.391 7 -16191122.980 7 -16240973.49947  22045850.99647
  24219056.813 4  -2660199.878 4  -3237522.22446  24219048.82046
  23433511.594 6 -10800205.351 6 -11623786.10647  23433503.95347
  20281120.461 7 -28804923.676 7 -23664773.96048  20281108.48448
  23313849.781 5 -13601549.348 5 -13580503.32946  23313841.90646
 11  4  1  0 48 15.0000000  0 11G03G06G07G08G10G13G16G19G20G23G30   
  22337480.031 6 -11485391.007 6  -8714869.91247  22337472.15647
  23169273.023 5 -11980564.487 5  -9175218.79447  23169264.79747
  22136420.156 6 -20492646.559 6 -15911279.02048  22136410.69948
  24661991.625 6  -6717687.625 6  -5633198.74646  24661985.91846
  22826424.539 6 -14414631.348 6 -11195404.43647  22826415.96147
  20312701.891 7 -26843202.385 7 -23717713.49649  20312691.78949
  22053287.164 7 -16152102.864 7 -16210568.22247  22053276.35947
  24210478.773 4  -2705281.545 4  -3272650.73646  24210470.13746
  23443477.867 6 -10747834.479 6 -11582977.66646  23443470.10946
  20283879.664 7 -28790424.477 7 -23653475.88049  20283867.74649
  23323691.430 6 -13549829.829 6 -13540202.43046  23323683.55546
 11  4  1  0 48 30.0000000  0 11G03G06G07G08G10G13G16G19G20G23G30   
  22331867.781 6 -11514882.098 6  -8737849.93947  22331859.84847
  23166264.766 5 -11996372.542 5  -9187536.73647  23166255.89547
  22130718.172 6 -20522608.720 6 -15934626.11048  22130709.53548
  24654504.422 6  -6757031.113 6  -5663855.94946  24654499.18446
  22822226.297 6 -14436691.697 6 -11212594.31547  22822217.95347
  20309193.633 7 -26861638.130 7 -23732079.00448  20309183.06348
  22060729.656 6 -16112988.405 6 -16180089.43448  22060719.67248
  24201902.945 4  -2750345.918 4  -3307765.76446  24201894.54346
  23453448.133 6 -10695437.435 6 -11542148.85646  23453440.90246
  20286660.414 7 -28775811.800 7 -23642089.38448  20286648.14548
  23333544.133 5 -13498055.623 5 -13499858.91946  23333536.02346
 11  4  1  0 48 45.0000000  0 11G03G06G07G08G10G13G16G19G20G23G30   
  22326277.031 6 -11544261.499 6  -8760742.95147  22326269.33247
  23163278.906 5 -12012063.506 5  -9199763.42447  23163270.62147
  22125025.164 6 -20552525.966 6 -15957938.22448  22125016.58648
  24647021.773 6  -6796355.838 6  -5694498.52746  24647015.18846
  22818053.883 6 -14458617.756 6 -11229679.54347  22818045.24647
  20305703.445 7 -26879980.319 7 -23746371.61048  20305692.87548
  22068190.719 6 -16073779.780 6 -16149537.26847  22068181.49647
  24193330.945 4  -2795392.513 4  -3342866.94546  24193322.71946
  23463424.008 6 -10643014.518 6 -11501299.87946  23463416.25046
  20289462.867 7 -28761085.389 7 -23630614.26048  20289450.77348
  23343406.320 6 -13446226.903 6 -13459472.93346  23343398.32846
 11  4  1  0 49  0.0000000  0 11G03G06G07G08G10G13G16G19G20G23G30   
  22320708.148 6 -11573528.430 6  -8783548.31447  22320699.98047
  23160315.352 5 -12027636.636 5  -9211898.30747  23160306.83247
  22119340.711 6 -20582397.693 6 -15981214.87548  22119331.48848
  24639541.234 5  -6835661.252 5  -5725126.05746  24639535.76246
  22813907.750 6 -14480408.710 6 -11246659.50547  22813898.70347
  20302230.555 7 -26898227.943 7 -23760590.53248  20302220.51248
  22075669.969 7 -16034476.618 7 -16118911.42947  22075659.98447
  24184762.375 4  -2840420.347 4  -3377953.50447  24184753.91447
  23473405.016 6 -10590565.438 6 -11460430.52246  23473397.60946
  20292286.531 7 -28746244.772 7 -23619050.15048  20292274.78948
  23353279.594 6 -13394343.481 6 -13419044.31646  23353271.95346
 11  4  1  0 49 15.0000000  0 11G03G06G07G08G10G13G16G19G20G23G30   
  22315159.898 6 -11602683.013 6  -8806266.13347  22315152.08247
  23157374.258 5 -12043092.332 5  -9223941.67847  23157366.14847
  22113665.039 6 -20612224.433 6 -16004456.46748  22113655.69948
  24632065.852 6  -6874947.794 6  -5755738.86746  24632059.67646
  22809786.547 6 -14502065.076 6 -11263534.58747  22809777.96947
  20298776.320 7 -26916381.513 7 -23774736.16048  20298765.98448
  22083167.313 6 -15995080.136 6 -16088212.87847  22083157.15247
  24176196.484 5  -2885429.443 5  -3413025.46846  24176188.90246
  23483390.289 6 -10538091.339 6 -11419541.65546  23483382.76646
  20295132.367 7 -28731290.526 7 -23607397.49348  20295120.74248
  23363162.773 6 -13342406.275 6 -13378573.80446  23363155.07446
 11  4  1  0 49 30.0000000  0 11G03G06G07G08G10G13G16G19G20G23G30   
  22309633.461 6 -11631725.267 6  -8828896.42247  22309625.46947
  23154455.430 5 -12058430.519 5  -9235893.48747  23154447.26247
  22107997.477 6 -20642006.370 6 -16027663.14748  22107988.19548
  24624593.586 6  -6914215.510 6  -5786337.02946  24624586.94146
  22805690.836 6 -14523586.737 6 -11280304.70547  22805682.49247
  20295339.203 7 -26934440.855 7 -23788808.36748  20295329.68848
  22090681.289 6 -15955590.691 6 -16057441.89448  22090672.06648
  24167635.219 5  -2930419.607 5  -3448082.67146  24167627.52046
  23493381.070 6 -10485592.452 6 -11378633.47846  23493373.02046
  20297999.672 7 -28716222.545 7 -23595656.21248  20297988.04748
  23373057.047 6 -13290415.711 6 -13338061.69146  23373048.93846
 11  4  1  0 49 45.0000000  0 11G03G06G07G08G10G13G16G19G20G23G30   
  22304128.141 6 -11660654.437 6  -8851438.58747  22304120.44147
  23151559.016 5 -12073650.279 5  -9247753.00947  23151550.78947
  22102338.977 6 -20671743.144 6 -16050834.63948  22102329.81348
  24617123.547 6  -6953464.170 6  -5816920.31046  24617118.19146
  22801621.070 6 -14544973.080 6 -11296969.37247  22801612.60947
  20291920.922 7 -26952405.405 7 -23802806.70848  20291910.76248
  22098213.727 6 -15916008.315 6 -16026598.49447  22098204.09447
  24159078.063 5  -2975390.101 5  -3483124.53946  24159069.77746
  23503375.883 6 -10433068.810 6 -11337706.00846  23503368.12546
  20300888.797 7 -28701040.460 7 -23583826.02249  20300876.82049
  23382960.469 6 -13238371.691 6 -13297507.93146  23382952.35946
 11  4  1  0 50  0.0000000  0 11G03G06G07G08G10G13G16G19G20G23G30   
  22298644.680 6 -11689469.878 6  -8873892.13947  22298636.98047
  23148685.156 5 -12088751.736 5  -9259520.35147  23148677.28147
  22096688.695 6 -20701434.620 6 -16073970.82448  22096679.64848
  24609660.172 6  -6992693.722 6  -5847488.71646  24609652.88346
  22797577.578 6 -14566223.855 6 -11313528.41047  22797568.94147
  20288520.852 7 -26970274.790 7 -23816730.89748  20288510.51648
  22105763.727 6 -15876333.136 6 -15995682.77847  22105754.03547
  24150523.641 5  -3020340.320 5  -3518150.62346  24150515.70746
  23513374.875 6 -10380520.618 6 -11296759.42146  23513368.05546
  20303799.453 7 -28685744.123 7 -23571906.80948  20303787.77048
  23392874.000 6 -13186274.549 6 -13256912.78846  23392866.18446
 11  4  1  0 50 15.0000000  0 11G03G06G07G08G10G13G16G19G20G23G30   
  22293183.008 6 -11718171.626 6  -8896257.11147  22293174.95747
  23145833.781 5 -12103734.750 5  -9271195.40247  23145825.90647
  22091047.109 6 -20731081.182 6 -16097072.02148  22091038.00448
  24602197.367 6  -7031904.689 6  -5878042.65446  24602191.19146
  22793558.945 6 -14587339.374 6 -11329982.04347  22793550.42647
  20285138.063 7 -26988049.200 7 -23830581.07249  20285128.02049
  22113331.188 6 -15836565.727 6 -15964695.20447  22113321.32047
  24141974.227 5  -3065270.427 5  -3553161.06646  24141965.76646
  23523379.563 6 -10327948.654 6 -11255794.28846  23523371.68846
  20306731.914 7 -28670334.019 7 -23559898.93748  20306720.17248
  23402797.992 6 -13134125.033 6 -13216276.83046  23402790.29346
 11  4  1  0 50 30.0000000  0 11G03G06G07G08G10G13G16G19G20G23G30   
  22287743.594 6 -11746759.081 6  -8918533.01447  22287735.13347
  23143005.945 5 -12118598.662 5  -9282777.63847  23142997.89547
  22085413.891 6 -20760682.593 6 -16120138.02448  22085405.07848
  24594739.719 6  -7071096.448 6  -5908581.59846  24594733.19146
  22789567.430 6 -14608319.061 6 -11346329.85147  22789558.55947
  20281774.328 7 -27005728.023 7 -23844356.78048  20281764.16848
  22120916.430 6 -15796706.218 6 -15933635.85447  22120906.79747
  24133428.055 5  -3110179.731 5  -3588155.22246  24133419.24246
  23533387.930 6 -10275352.998 6 -11214810.70746  23533380.40646
  20309686.313 7 -28654809.629 7 -23547802.01748  20309674.62948
  23412731.305 6 -13081923.134 6 -13175600.06546  23412723.37146
 11  4  1  0 50 45.0000000  0 11G03G06G07G08G10G13G16G19G20G23G30   
  22282324.844 6 -11775231.671 6  -8940719.40547  22282316.96947
  23140199.336 5 -12133343.284 5  -9294266.93647  23140191.57847
  22079790.344 6 -20790238.459 6 -16143168.55048  22079781.06348
  24587285.086 6  -7110268.707 6  -5939105.35346  24587279.02746
  22785600.227 6 -14629162.551 6 -11362571.51747  22785591.59047
  20278428.156 7 -27023310.764 7 -23858057.60448  20278418.11348
  22128519.180 6 -15756754.711 6 -15902504.82447  22128508.72747
  24124886.352 5  -3155067.492 5  -3623132.64346  24124876.60246
  23543401.523 6 -10222733.763 6 -11173808.74647  23543393.64847
  20312662.266 7 -28639170.770 7 -23535615.89648  20312650.52348
  23422675.234 6 -13029668.925 6 -13134882.50246  23422667.35946
 11  4  1  0 51  0.0000000  0 11G03G06G07G08G10G13G16G19G20G23G30   
  22276928.234 6 -11803589.378 6  -8962816.29047  22276920.53547
  23137416.438 5 -12147968.749 5  -9305663.36547  23137408.32847
  22074174.133 6 -20819749.203 6 -16166163.91048  22074164.91048
  24579834.188 6  -7149421.812 6  -5969614.17346  24579828.24646
  22781660.141 6 -14649870.084 6 -11378707.25647  22781652.26647
  20275100.586 7 -27040797.664 7 -23871683.75549  20275090.25049
  22136138.625 6 -15716712.019 6 -15871302.73347  22136129.05147
  24116348.359 5  -3199933.802 5  -3658093.34346  24116338.43446
  23553418.625 6 -10170091.737 6 -11132789.05046  23553411.39546
  20315659.883 7 -28623417.851 7 -23523340.89948  20315648.08248
  23432628.719 6 -12977363.180 6 -13094124.83246  23432621.02046
 11  4  1  0 51 15.0000000  0 11G03G06G07G08G10G13G16G19G20G23G30   
  22271553.961 6 -11831831.844 6  -8984823.36747  22271545.50047
  23134655.836 5 -12162474.710 5  -9316966.69347  23134648.43047
  22068567.469 6 -20849214.896 6 -16189124.20048  22068557.83648
  24572387.664 6  -7188555.905 6  -6000108.19146  24572381.37146
  22777745.633 6 -14670441.321 6 -11394736.77647  22777736.87947
  20271791.039 7 -27058188.537 7 -23885235.07848  20271780.99648
  22143776.156 6 -15676578.336 6 -15840029.75247  22143766.05547
  24107814.367 5  -3244778.043 5  -3693036.83246  24107805.08646
  23563440.289 6 -10117427.145 6 -11091751.73146  23563433.11746
  20318679.102 7 -28607550.757 7 -23510976.92948  20318667.35948
  23442591.961 6 -12925006.223 6 -13053327.22046  23442584.14546
 11  4  1  0 51 30.0000000  0 11G03G06G07G08G10G13G16G19G20G23G30   
  22266201.938 6 -11859958.778 6  -9006740.42747  22266194.12147
  23131918.555 5 -12176860.999 5  -9328176.75847  23131909.97747
  22062968.344 6 -20878635.416 6 -16212049.24648  22062959.00448
  24564944.430 6  -7227671.091 6  -6030587.47846  24564937.90246
  22773857.164 6 -14690876.194 6 -11410660.03747  22773848.00047
  20268500.313 7 -27075483.074 7 -23898711.33749  20268489.74249
  22151430.453 6 -15636354.070 6 -15808686.17247  22151420.41047
  24099284.969 5  -3289599.950 5  -3727962.92146  24099276.03946
  23573466.477 6 -10064740.357 6 -11050697.15046  23573458.77746
  20321720.367 7 -28591569.451 7 -23498523.97848  20321708.39148
  23452564.688 6 -12872598.438 6 -13012490.01346  23452556.63746
 11  4  1  0 51 45.0000000  0 11G03G06G07G08G10G13G16G19G20G23G30   
  22260871.438 6 -11887969.827 6  -9028567.18647  22260863.50447
  23129203.555 5 -12191127.256 5  -9339293.30347  23129195.62147
  22057378.438 6 -20908010.681 6 -16234939.03848  22057369.15648
  24557504.297 6  -7266767.216 6  -6061051.90546  24557498.18046
  22769993.969 6 -14711174.589 6 -11426476.95847  22769985.15647
  20265227.406 7 -27092681.096 7 -23912112.38548  20265217.30548
  22159102.047 6 -15596039.505 6 -15777272.23647  22159092.12147
  24090760.422 5  -3334399.046 5  -3762871.24446  24090750.96546
  23583496.875 6 -10012031.644 6 -11009625.46646  23583488.82446
  20324783.367 7 -28575473.816 7 -23485981.93348  20324771.15648
  23462547.602 6 -12820140.050 6 -12971613.37246  23462539.78546
 11  4  1  0 52  0.0000000  0 11G03G06G07G08G10G13G16G19G20G23G30   
  22255563.328 6 -11915864.825 6  -9050303.51647  22255554.69147
  23126511.859 5 -12205273.743 5  -9350316.50147  23126503.51647
  22051796.984 6 -20937340.910 6 -16257793.74348  22051787.70348
  24550068.250 6  -7305844.587 6  -6091501.71846  24550061.84046
  22766157.805 6 -14731336.461 6 -11442187.50847  22766148.75847
  20261972.914 7 -27109782.483 7 -23925438.12848  20261963.04748
  22166790.656 6 -15555635.117 6 -15745788.31147  22166781.14147
  24082239.508 5  -3379174.952 5  -3797761.48446  24082230.93046
  23593531.203 6  -9959301.588 6 -10968537.16546  23593523.50446
  20327868.078 7 -28559264.036 7 -23473350.93848  20327855.98448
  23472539.438 6 -12767631.466 6 -12930697.63346  23472531.68046
 11  4  1  0 52 15.0000000  0 11G03G06G07G08G10G13G16G19G20G23G30   
  22250277.008 6 -11943642.698 6  -9071948.57347  22250268.84047
  23123842.797 5 -12219299.225 5  -9361245.43847  23123834.62947
  22046224.438 6 -20966625.439 6 -16280612.83248  22046214.68848
  24542636.063 6  -7344902.417 6  -6121936.29746  24542629.00846
  22762347.031 6 -14751360.988 6 -11457791.00547  22762337.69147
  20258737.391 7 -27126786.356 7 -23938687.89548  20258727.05548
  22174496.648 6 -15515140.715 6 -15714234.23648  22174486.84048
  24073723.695 5  -3423926.796 5  -3832632.98346  24073715.11746
  23603569.703 6  -9906549.944 6 -10927432.03746  23603562.00446
  20330974.422 7 -28542939.384 7 -23460630.43348  20330962.79748
  23482541.180 6 -12715072.493 6 -12889742.62146  23482532.83646
 11  4  1  0 52 30.0000000  0 11G03G06G07G08G10G13G16G19G20G23G30   
  22245013.195 6 -11971304.010 6  -9093502.80347  22245005.26247
  23121196.711 5 -12233204.678 5  -9372080.82247  23121188.71947
  22040660.008 6 -20995865.251 6 -16303397.07548  22040651.07848
  24535205.883 6  -7383941.590 6  -6152356.35946  24535200.11746
  22758562.211 6 -14771248.978 6 -11473288.14847  22758553.75047
  20255520.141 7 -27143693.509 7 -23951862.29049  20255510.27349
  22182219.195 6 -15474557.409 6 -15682610.90048  22182209.09448
  24065212.023 5  -3468655.131 5  -3867486.16846  24065203.68046
  23613611.156 6  -9853777.927 6 -10886311.01546  23613604.21946
  20334102.703 7 -28526500.906 7 -23447821.23848  20334090.72748
  23492552.289 6 -12662464.355 6 -12848749.28746  23492544.53146
 11  4  1  0 52 45.0000000  0 11G03G06G07G08G10G13G16G19G20G23G30   
  22239771.844 6 -11998847.891 6  -9114965.52447  22239763.73447
  23118573.633 5 -12246989.250 5  -9382822.01347  23118565.46547
  22035104.617 6 -21025059.725 6 -16326146.00448  22035095.39548
  24527781.242 6  -7422961.525 6  -6182761.42146  24527774.30546
  22754803.750 6 -14790999.569 6 -11488678.19647  22754795.28947
  20252321.219 7 -27160503.071 7 -23964960.65048  20252310.82448
  22189959.133 6 -15433885.101 6 -15650918.20648  22189948.97348
  24056704.852 4  -3513358.874 4  -3902320.18546  24056696.21546
  23623657.477 6  -9800985.415 6 -10845174.06146  23623650.07046
  20337252.453 7 -28509947.989 7 -23434922.86548  20337240.82848
  23502572.789 6 -12609806.871 6 -12807717.51746  23502564.62146
 11  4  1  0 53  0.0000000  0 11G03G06G07G08G10G13G16G19G20G23G30   
  22234552.914 6 -12026274.395 6  -9136336.80347  22234544.68847
  23115973.539 5 -12260653.087 5  -9393469.14447  23115965.54747
  22029558.086 6 -21054209.185 6 -16348859.84548  22029548.80548
  24520359.781 6  -7461962.568 6  -6213151.77746  24520352.78546
  22751071.328 6 -14810612.989 6 -11503961.36447  22751062.45747
  20249141.023 7 -27177215.158 7 -23977983.04649  20249131.03949
  22197715.875 6 -15393124.495 6 -15619156.69648  22197705.89148
  24048203.289 4  -3558037.967 4  -3937134.99546  24048193.83246
  23633707.484 6  -9748172.984 6 -10804021.55646  23633699.37546
  20340424.000 7 -28493280.937 7 -23421935.55548  20340412.37548
  23512601.797 6 -12557100.736 6 -12766647.82446  23512594.85946
 11  4  1  0 53 15.0000000  0 11G03G06G07G08G10G13G16G19G20G23G30   
  22229356.273 6 -12053582.703 6  -9157615.96947  22229348.16447
  23113396.445 5 -12274195.656 5  -9404021.78047  23113387.63347
  22024019.617 6 -21083313.241 6 -16371538.30748  22024009.92648
  24512941.445 6  -7500944.289 6  -6243527.06146  24512934.91846
  22747365.070 6 -14830088.799 6 -11519137.31347  22747357.13747
  20245979.828 7 -27193829.192 7 -23990929.03948  20245969.66848
  22205489.031 6 -15352275.390 6 -15587326.24047  22205478.98847
  24039705.102 4  -3602691.687 4  -3971930.03146  24039696.52346
  23643761.164 6  -9695340.562 6 -10762853.48346  23643753.40646
  20343617.563 7 -28476499.243 7 -23408858.92348  20343605.87948
  23522640.508 6 -12504345.854 6 -12725540.14646  23522633.51246
 11  4  1  0 53 30.0000000  0 11G03G06G07G08G10G13G16G19G20G23G30   
  22224181.734 6 -12080772.829 6  -9178803.05047  22224173.68447
  23110842.266 5 -12287617.012 5  -9414479.94747  23110834.03947
  22018489.484 6 -21112372.213 6 -16394181.63848  22018480.26248
  24505527.516 6  -7539907.140 6  -6273887.65446  24505519.87546
  22743685.289 6 -14849427.221 6 -11534206.20547  22743676.59447
  20242836.664 7 -27210345.217 7 -24003798.66549  20242826.44549
  22213278.852 7 -15311338.530 7 -15555427.40247  22213269.16047
  24031213.492 5  -3647320.076 5  -4006705.31846  24031203.56646
  23653818.234 6  -9642488.927 6 -10721670.45046  23653811.35546
  20346832.813 7 -28459603.169 7 -23395693.15248  20346820.36748
  23532688.664 6 -12451542.852 6 -12684394.99346  23532681.43446
 11  4  1  0 53 45.0000000  0 11G03G06G07G08G10G13G16G19G20G23G30   
  22219029.992 6 -12107844.237 6  -9199897.62447  22219022.23447
  23108311.438 5 -12300916.530 5  -9424843.18347  23108303.21147
  22012968.523 6 -21141385.814 6 -16416789.62248  22012959.30148
  24498116.547 6  -7578850.816 6  -6304233.31246  24498109.08246
  22740031.422 6 -14868627.788 6 -11549167.66147  22740022.90247
  20239712.578 7 -27226762.860 7 -24016591.63048  20239702.47748
  22221085.328 6 -15270313.920 6 -15523460.18348  22221075.75448
  24022724.531 3  -3691922.313 3  -4041460.22746  24022715.60246
  23663879.289 6  -9589618.272 6 -10680472.58746  23663871.94146
  20350069.766 7 -28442592.622 7 -23382438.18448  20350058.14148
  23542745.922 6 -12398691.889 6 -12643212.44646  23542738.16446
 11  4  1  0 54  0.0000000  0 11G03G06G07G08G10G13G16G19G20G23G30   
  22213901.688 6 -12134796.703 6  -9220899.51147  22213893.57847
  23105803.570 5 -12314094.105 5  -9435111.40747  23105795.28547
  22007456.266 6 -21170354.067 6 -16439362.26148  22007447.04348
  24490708.266 6  -7617775.272 6  -6334563.99246  24490702.38346
  22736404.453 6 -14887690.393 6 -11564021.64047  22736395.40647
  20236606.914 7 -27243082.033 7 -24029307.86748  20236596.93048
  22228909.000 6 -15229202.220 6 -15491425.09947  22228899.01647
  24014243.242 4  -3736498.038 4  -4076194.48346  24014233.43446
  23673943.961 6  -9536728.781 6 -10639260.03946  23673936.84846
  20353328.727 7 -28425467.469 7 -23369093.91048  20353316.75048
  23552812.531 6 -12345793.332 6 -12601992.82046  23552805.06646
 11  4  1  0 54 15.0000000  0 11G03G06G07G08G10G13G16G19G20G23G30   
  22208795.484 6 -12161629.959 6  -9241808.52047  22208787.43447
  23103319.102 5 -12327149.881 5  -9445284.70647  23103311.57847
  22001952.336 6 -21199277.215 6 -16461899.76248  22001942.76248
  24483306.336 6  -7656680.893 6  -6364880.00146  24483298.63746
  22732802.813 6 -14906615.035 6 -11578768.10147  22732794.29347
  20233520.195 7 -27259302.610 7 -24041947.27048  20233510.27048
  22236748.656 7 -15188003.665 7 -15459322.33847  22236738.78947
  24005764.555 4  -3781047.127 4  -4110907.97146  24005756.38746
  23684012.242 6  -9483821.079 6 -10598033.31246  23684004.54346
  20356609.148 7 -28408227.986 7 -23355660.54848  20356597.34848
  23562887.734 6 -12292847.819 6 -12560736.59946  23562879.85946
 11  4  1  0 54 30.0000000  0 11G03G06G07G08G10G13G16G19G20G23G30   
  22203712.180 6 -12188343.149 6  -9262623.94947  22203703.83647
  23100857.992 5 -12340083.208 5  -9455362.59747  23100849.64847
  21996456.891 6 -21228154.933 6 -16484401.85348  21996447.43448
  24475905.469 6  -7695567.169 6  -6395180.93046  24475898.94146
  22729227.922 6 -14925401.302 6 -11593406.73647  22729219.28547
  20230452.594 7 -27275423.952 7 -24054509.35048  20230442.37548
  22244605.719 7 -15146718.446 7 -15427152.05547  22244595.20747
  23997292.328 4  -3825568.758 4  -4145600.06246  23997283.63346
  23694083.555 6  -9430895.474 6 -10556792.65046  23694075.73846
  20359911.383 7 -28390873.791 7 -23342137.80548  20359899.40648
  23572971.484 6 -12239855.160 6 -12519443.65246  23572964.37146
 11  4  1  0 54 45.0000000  0 11G03G06G07G08G10G13G16G19G20G23G30   
  22198651.609 6 -12214936.434 6  -9283345.96647  22198643.38347
  23098419.922 5 -12352894.239 5  -9465345.20147  23098412.22347
  21990970.125 6 -21256987.305 6 -16506868.61448  21990960.84448
  24468509.242 5  -7734434.333 5  -6425466.99346  24468502.12946
  22725679.367 6 -14944049.242 6 -11607937.57647  22725671.02347
  20227403.633 7 -27291446.179 7 -24066994.19748  20227393.35548
  22252477.711 7 -15105347.045 7 -15394914.60947  22252467.84447
  23988825.375 3  -3870062.784 3  -4180270.68946  23988817.09046
  23704157.594 6  -9377952.203 6 -10515538.20046  23704151.30146
  20363235.664 7 -28373405.153 7 -23328525.88848  20363224.15648
  23583064.891 6 -12186816.011 6 -12478114.48046  23583057.30946
 11  4  1  0 55  0.0000000  0 11G03G06G07G08G10G13G16G19G20G23G30   
  22193613.891 6 -12241409.342 6  -9303974.17547  22193605.48847
  23096005.953 5 -12365582.491 5  -9475232.13447  23095997.37547
  21985491.844 7 -21285774.443 7 -16529300.11848  21985482.73848
  24461117.430 6  -7773282.405 6  -6455738.13546  24461109.84846
  22722157.258 6 -14962558.610 6 -11622360.44847  22722148.97347
  20224373.602 7 -27307368.899 7 -24079401.50748  20224363.55948
  22260367.195 7 -15063889.813 7 -15362610.28147  22260356.50847
  23980364.078 4  -3914528.664 4  -4214919.37646  23980355.20746
  23714236.305 6  -9324991.444 6 -10474270.12546  23714228.95746
  20366581.688 7 -28355821.989 7 -23314824.72248  20366570.00448
  23593166.969 6 -12133730.663 6 -12436749.29646  23593159.03546
 11  4  1  0 55 15.0000000  0 11G03G06G07G08G10G13G16G19G20G23G30   
  22188598.930 6 -12267761.959 6  -9324508.65847  22188590.76247
  23093614.641 5 -12378148.260 5  -9485023.60847  23093606.29747
  21980022.805 6 -21314516.343 6 -16551696.37748  21980013.40648
  24453728.008 6  -7812111.561 6  -6485994.57246  24453720.95346
  22718661.125 6 -14980929.425 6 -11636675.35047  22718652.72347
  20221362.563 7 -27323192.092 7 -24091731.25848  20221352.52048
  22268272.203 6 -15022347.230 6 -15330239.45147  22268262.16047
  23971908.094 4  -3958966.341 4  -4249546.05146  23971899.69146
  23724317.734 6  -9272013.910 6 -10432988.96346  23724309.85946
  20369949.430 7 -28338124.438 7 -23301034.42448  20369937.68848
  23603277.617 6 -12080599.651 6 -12395348.53346  23603269.27346
 11  4  1  0 55 30.0000000  0 11G03G06G07G08G10G13G16G19G20G23G30   
  22183607.008 6 -12293993.345 6  -9344948.67247  22183598.84047
  23091246.617 6 -12390590.739 6  -9494719.03347  23091238.56647
  21974561.859 7 -21343212.811 7 -16574057.24048  21974552.75448
  24446341.922 5  -7850921.378 5  -6516235.92546  24446335.10246
  22715191.844 6 -14999161.391 6 -11650882.06647  22715183.26647
  20218370.898 7 -27338915.291 7 -24103983.09249  20218360.44549
  22276193.945 7 -14980719.318 7 -15297802.12847  22276183.49247
  23963457.008 4  -4003375.094 4  -4284150.20746  23963448.72346
  23734402.180 5  -9219019.662 5 -10391694.78346  23734394.30546
  20373338.906 7 -28320312.193 7 -23287154.75848  20373327.22348
  23613396.602 6 -12027423.027 6 -12353912.22846  23613389.25446
 11  4  1  0 55 45.0000000  0 11G03G06G07G08G10G13G16G19G20G23G30   
  22178639.008 6 -12320103.227 6  -9365294.00047  22178630.89847
  23088902.688 6 -12402909.938 6  -9504318.37847  23088893.87547
  21969110.156 7 -21371863.843 7 -16596382.69848  21969100.46548
  24438960.852 5  -7889711.922 5  -6546462.26146  24438953.56346
  22711748.664 6 -15017254.260 6 -11664980.40047  22711740.08647
  20215397.430 7 -27354538.304 7 -24116156.86549  20215387.38749
  22284131.547 7 -14939006.379 7 -15265298.55047  22284121.73847
  23955012.313 5  -4047754.371 5  -4318731.39246  23955003.55946
  23744489.664 6  -9166009.145 6 -10350387.93846  23744482.43446
  20376750.352 7 -28302385.152 7 -23273185.63748  20376738.78548
  23623524.195 6 -11974200.991 6 -12312440.53446  23623516.78946
 11  4  1  0 56  0.0000000  0 11G03G06G07G08G10G13G16G19G20G23G30   
  22173693.328 6 -12346091.902 6  -9385544.89347  22173685.16047
  23086581.484 6 -12415106.109 6  -9513821.87747  23086573.43447
  21963666.180 7 -21400470.045 7 -16618673.22548  21963656.84048
  24431582.539 5  -7928483.660 5  -6576673.91046  24431575.25046
  22708332.117 6 -15035208.647 6 -11678970.81147  22708323.59847
  20212443.531 7 -27370061.522 7 -24128252.87048  20212433.37148
  22292085.539 6 -14897209.411 6 -15232729.49747  22292075.32047
  23946572.820 5  -4092104.503 5  -4353289.89546  23946563.83246
  23754580.148 5  -9112983.107 5 -10309069.00746  23754572.44946
  20380183.469 7 -28284343.962 7 -23259127.57348  20380171.60948
  23633660.656 6 -11920934.464 6 -12270934.18246  23633653.60246
 11  4  1  0 56 15.0000000  0 11G03G06G07G08G10G13G16G19G20G23G30   
  22168771.430 6 -12371958.532 6  -9405700.68147  22168762.55947
  23084284.188 6 -12427178.629 6  -9523228.99947  23084276.25447
  21958231.195 7 -21429030.803 7 -16640928.33848  21958221.73848
  24424207.484 5  -7967236.196 5  -6606870.65046  24424200.89846
  22704942.234 6 -15053023.705 6 -11692852.66047  22704933.65647
  20209508.859 7 -27385484.133 7 -24140270.49048  20209498.81648
  22300055.070 6 -14855328.187 6 -15200094.78947  22300045.08647
  23938139.063 5  -4136424.530 5  -4387824.91446  23938129.66446
  23764673.852 5  -9059941.371 5 -10267737.83946  23764666.62146
  20383638.375 7 -28266188.137 7 -23244980.18148  20383626.63348
  23643805.617 6 -11867623.252 6 -12229393.01446  23643797.97746
 11  4  1  0 56 30.0000000  0 11G03G06G07G08G10G13G16G19G20G23G30   
  22163872.180 6 -12397703.068 6  -9425761.32847  22163864.01247
  23082010.734 5 -12439127.513 5  -9532539.80247  23082002.15647
  21952804.742 6 -21457546.218 6 -16663148.12148  21952795.52048
  24416838.477 5  -8005969.729 5  -6637052.54946  24416830.48446
  22701578.516 6 -15070699.420 6 -11706625.92947  22701569.87947
  20206593.492 7 -27400806.147 7 -24152209.71848  20206583.03948
  22308040.680 6 -14813363.238 6 -15167394.84847  22308030.75447
  23929711.016 5  -4180714.101 5  -4422336.21346  23929701.79346
  23774770.383 5  -9006884.503 5 -10226394.87346  23774763.21146
  20387115.023 7 -28247917.731 7 -23230743.50748  20387103.57448
  23653958.766 6 -11814268.059 6 -12187817.57946  23653951.24246
 11  4  1  0 56 45.0000000  0 11G03G06G07G08G10G13G16G19G20G23G30   
  22158996.211 6 -12423324.984 6  -9445726.43447  22158987.80947
  23079759.922 6 -12450952.414 6  -9541753.97947  23079752.39847
  21947387.367 7 -21486016.410 7 -16685332.66548  21947377.91048
  24409470.836 5  -8044684.074 5  -6667219.52446  24409463.84046
  22698241.391 6 -15088235.643 6 -11720290.50347  22698232.46147
  20203696.789 7 -27416027.329 7 -24164070.36649  20203686.21949
  22316041.750 6 -14771314.983 6 -15134629.98547  22316032.41047
  23921288.516 5  -4224972.933 5  -4456823.54146  23921279.46946
  23784869.992 5  -8953813.013 5 -10185040.50646  23784861.76646
  20390613.500 7 -28229532.844 7 -23216417.62948  20390601.75848
  23664121.039 6 -11760869.238 6 -12146208.12646  23664112.28546
 11  4  1  0 57  0.0000000  0 11G03G06G07G08G10G13G16G19G20G23G30   
  22154143.992 6 -12448823.875 6  -9465595.67647  22154135.76647
  23077533.820 5 -12462652.957 5  -9550871.25347  23077525.71147
  21941977.961 7 -21514441.139 7 -16707481.77348  21941968.85548
  24402105.773 5  -8083379.281 5  -6697371.57246  24402100.12546
  22694931.359 6 -15105632.305 6 -11733846.33747  22694922.72347
  20200819.469 7 -27431147.290 7 -24175852.15348  20200809.19148
  22324059.320 6 -14729183.473 6 -15101800.24847  22324049.33647
  23912872.641 5  -4269200.517 5  -4491286.53246  23912863.53546
  23794971.523 5  -8900727.041 5 -10143674.86846  23794964.11746
  20394133.867 7 -28211033.225 7 -23202002.34248  20394122.41848
  23674289.586 6 -11707426.769 6 -12104564.69246  23674281.94546
 11  4  1  0 57 15.0000000  0 11G03G06G07G08G10G13G16G19G20G23G30   
  22149315.109 6 -12474199.535 6  -9485368.89047  22149307.05947
  23075330.688 6 -12474229.433 6  -9559891.86347  23075322.22747
  21936577.766 7 -21542820.618 7 -16729595.62448  21936568.60248
  24394747.813 5  -8122055.428 5  -6727508.74946  24394739.46946
  22691647.359 6 -15122889.214 6 -11747293.26147  22691638.72347
  20197961.555 7 -27446166.056 7 -24187555.09048  20197951.33648
  22332092.461 6 -14686969.229 6 -15068906.04047  22332082.77047
  23904461.891 4  -4313396.511 4  -4525724.89046  23904453.02046
  23805076.523 5  -8847627.154 5 -10102298.37946  23805068.53146
  20397676.094 7 -28192419.020 7 -23187497.77648  20397664.29348
  23684467.477 6 -11653941.199 6 -12062887.66046  23684460.53946
 11  4  1  0 57 30.0000000  0 11G03G06G07G08G10G13G16G19G20G23G30   
  22144509.555 6 -12499451.736 6  -9505045.91147  22144501.68047
  23073151.578 5 -12485681.432 5  -9568815.46747  23073143.23447
  21931185.469 7 -21571154.821 7 -16751674.18448  21931176.48048
  24387390.648 5  -8160712.522 5  -6757631.11046  24387383.41846
  22688389.883 6 -15140006.438 6 -11760631.34747  22688381.53947
  20195122.750 7 -27461083.391 7 -24199178.97348  20195112.47348
  22340141.367 6 -14644672.689 6 -15035947.71247  22340131.44147
  23896058.094 4  -4357560.546 4  -4560138.35246  23896048.81346
  23815183.617 5  -8794513.510 5 -10060911.18846  23815175.68446
  20401240.023 7 -28173690.357 7 -23172904.01548  20401228.16448
  23694654.633 5 -11600412.928 5 -12021177.35646  23694647.05146
 11  4  1  0 57 45.0000000  0 11G03G06G07G08G10G13G16G19G20G23G30   
  22139727.727 6 -12524579.918 6  -9524626.28347  22139719.73447
  23070995.922 5 -12497008.203 5  -9577641.49247  23070987.57847
  21925802.859 7 -21599443.398 7 -16773717.19948  21925793.46148
  24380037.508 5  -8199350.154 5  -6787738.28346  24380030.68846
  22685159.211 6 -15156983.446 6 -11773860.16747  22685150.39847
  20192303.813 7 -27475898.651 7 -24210723.33249  20192293.18449
  22348205.641 6 -14602293.781 6 -15002925.19947  22348195.83247
  23887659.922 5  -4401691.783 5  -4594526.25346  23887651.22746
  23825293.305 5  -8741385.991 5 -10019513.15546  23825286.13346
  20404826.086 7 -28154846.837 7 -23158220.75348  20404814.40248
  23704848.031 5 -11546841.772 5 -11979433.62546  23704841.21146
 11  4  1  0 58  0.0000000  0 11G03G06G07G08G10G13G16G19G20G23G30   
  22134970.055 6 -12549583.992 6  -9544109.95247  22134961.77047
  23068863.945 6 -12508210.390 6  -9586370.45147  23068856.07047
  21920427.945 7 -21627686.739 7 -16795724.98048  21920418.60548
  24372689.836 5  -8237968.616 5  -6817830.51146  24372682.43046
  22681955.516 6 -15173820.417 6 -11786979.87347  22681946.64547
  20189503.477 7 -27490612.029 7 -24222188.30049  20189493.43449
  22356286.008 6 -14559833.258 6 -14969839.09347  22356275.73047
  23879268.563 4  -4445790.213 4  -4628888.58446  23879259.34046
  23835405.266 5  -8688245.520 5  -9978105.05746  23835398.38746
  20408433.555 7 -28135888.850 7 -23143448.30548  20408421.98848
  23715050.656 5 -11493228.521 5 -11937657.08546  23715043.36746
 11  4  1  0 58 15.0000000  0 11G03G06G07G08G10G13G16G19G20G23G30   
  22130235.016 6 -12574463.443 6  -9563496.50547  22130227.19947
  23066755.953 5 -12519287.447 5  -9595001.89947  23066748.25447
  21915062.391 7 -21655884.625 7 -16817697.33648  21915053.22748
  24365344.094 5  -8276567.947 5  -6847907.84846  24365337.33246
  22678777.945 6 -15190517.133 6 -11799990.28447  22678769.60247
  20186723.156 7 -27505223.184 7 -24233573.61049  20186712.93849
  22364381.156 6 -14517291.363 6 -14936689.57747  22364371.28947
  23870882.641 4  -4489855.418 4  -4663225.02546  23870874.00446
  23845520.734 5  -8635092.317 5  -9936687.02546  23845513.03546
  20412062.820 7 -28116816.288 7 -23128586.57248  20412051.07848
  23725260.555 5 -11439573.451 5 -11895847.97246  23725252.97346
 11  4  1  0 58 30.0000000  0 11G03G06G07G08G10G13G16G19G20G23G30   
  22125524.648 6 -12599218.014 6  -9582785.75147  22125516.71547
  23064672.102 6 -12530239.174 6  -9603535.67447  23064664.05147
  21909704.805 7 -21684037.067 7 -16839634.28348  21909695.58248
  24358001.664 5  -8315148.042 5  -6877970.19246  24357995.48846
  22675627.367 6 -15207073.422 6 -11812891.26847  22675619.25847
  20183962.266 7 -27519731.844 7 -24244879.05448  20183951.69548
  22372492.250 6 -14474668.261 6 -14903476.77847  22372482.20747
  23862503.742 4  -4533886.750 4  -4697535.07446  23862495.10546
  23855637.742 6  -8581926.591 6  -9895259.24846  23855630.16046
  20415713.992 7 -28097629.095 7 -23113635.51348  20415702.25048
  23735478.883 5 -11385876.817 5 -11854006.45546  23735471.59446
 11  4  1  0 58 45.0000000  0 11G03G06G07G08G10G13G16G19G20G23G30   
  22120838.289 6 -12623845.205 6  -9601975.75347  22120830.12147
  23062612.305 6 -12541063.236 6  -9611969.98547  23062604.66447
  21904356.688 7 -21712141.945 7 -16861534.15848  21904347.58248
  24350665.375 5  -8353706.842 5  -6908015.93446  24350657.79346
  22672503.938 6 -15223486.987 6 -11825681.04947  22672496.12147
  20181221.203 7 -27534135.804 7 -24256102.91349  20181211.21949
  22380618.531 6 -14431962.347 6 -14870199.45747  22380608.84047
  23854131.508 5  -4577881.835 5  -4731816.87446  23854122.81346
  23865757.063 6  -8528746.779 6  -9853820.49346  23865750.47746
  20419387.578 7 -28078324.987 7 -23098593.35748  20419375.66048
  23745704.453 5 -11332136.908 5 -11812131.24746  23745697.98446
 11  4  1  0 59  0.0000000  0 11G03G06G07G08G10G13G16G19G20G23G30   
  22116175.781 6 -12648348.981 6  -9621069.57547  22116167.20347
  23060576.297 6 -12551763.805 6  -9620308.07047  23060568.30547
  21899016.781 6 -21740203.561 6 -16883400.32948  21899007.55948
  24343330.805 5  -8392248.779 5  -6938048.50946  24343323.75046
  22669406.867 6 -15239762.055 6 -11838362.91347  22669398.69947
  20178499.492 7 -27548439.065 7 -24267248.30049  20178489.33249
  22388760.180 6 -14389178.139 6 -14836861.12447  22388750.72347
  23845765.594 5  -4621844.642 5  -4766073.51647  23845756.48847
  23875878.867 6  -8475557.414 6  -9812374.27946  23875870.75846
  20423082.820 7 -28058908.335 7 -23083463.50348  20423070.72748
  23755938.633 5 -11278358.201 5 -11770225.76546  23755931.40246
 11  4  1  0 59 15.0000000  0 11G03G06G07G08G10G13G16G19G20G23G30   
  22111536.773 6 -12672727.004 6  -9640065.41147  22111528.78147
  23058563.898 6 -12562338.573 6  -9628548.12247  23058555.90647
  21893685.453 6 -21768219.770 6 -16905231.11948  21893675.87948
  24335999.578 5  -8430771.467 5  -6968066.15646  24335992.81646
  22666336.523 6 -15255896.487 6 -11850935.18247  22666328.53147
  20175797.422 7 -27562639.227 7 -24278313.36149  20175787.02749
  22396917.078 6 -14346313.973 6 -14803460.48547  22396906.97747
  23837406.820 5  -4665772.658 5  -4800303.06047  23837397.42247
  23886002.922 6  -8422356.814 6  -9770919.32246  23885995.75046
  20426798.914 7 -28039377.034 7 -23068244.31148  20426787.23048
  23766179.859 5 -11224539.024 5 -11728288.78246  23766172.62946
 11  4  1  0 59 30.0000000  0 11G03G06G07G08G10G13G16G19G20G23G30   
  22106921.555 6 -12696978.626 6  -9658962.76147  22106913.38747
  23056575.211 6 -12572786.996 6  -9636689.71847  23056567.74647
  21888363.063 6 -21796190.301 6 -16927026.31348  21888353.72348
  24328672.219 5  -8469274.888 5  -6998068.73046  24328666.16046
  22663292.953 6 -15271889.710 6 -11863397.41747  22663285.07847
  20173115.000 7 -27576735.743 7 -24289297.65449  20173104.48849
  22405088.773 6 -14303369.829 6 -14769997.53047  22405079.31647
  23829053.742 5  -4709665.068 5  -4834504.85147  23829045.04747
  23896128.359 6  -8369144.935 6  -9729455.57346  23896121.77346
  20430537.570 7 -28019730.834 7 -23052935.59348  20430525.53548
  23776429.633 5 -11170679.381 5 -11686320.25346  23776421.99246
 11  4  1  0 59 45.0000000  0 11G03G06G07G08G10G13G16G19G20G23G30   
  22102330.516 6 -12721104.027 6  -9677761.74847  22102322.64147
  23054611.211 5 -12583109.531 5  -9644733.23847  23054603.10247
  21883048.727 6 -21824115.494 6 -16948786.18448  21883039.44548
  24321349.797 5  -8507759.264 5  -7028056.50446  24321342.74246
  22660276.477 6 -15287742.177 6 -11875749.98947  22660268.48447
  20170452.117 7 -27590729.179 7 -24300201.62048  20170441.66448
  22413276.102 6 -14260346.534 6 -14736472.89047  22413266.23447
  23820708.203 5  -4753522.014 5  -4868679.02247  23820699.39147
  23906256.695 5  -8315922.744 5  -9687983.80546  23906249.64146
  20434297.828 7 -27999970.256 7 -23037537.74048  20434286.26248
  23786686.586 4 -11116780.161 4 -11644320.90046  23786678.41846
 11  4  1  1  0  0.0000000  0 11G03G06G07G08G10G13G16G19G20G23G30   
  22097763.438 6 -12745102.775 6  -9696462.04347  22097755.56347
  23052670.836 6 -12593305.802 6  -9652678.36647  23052662.90247
  21877743.203 7 -21851995.338 7 -16970510.72248  21877734.09848
  24314029.445 5  -8546224.533 5  -7058029.37846  24314023.09446
  22657286.516 6 -15303453.596 6 -11887992.63947  22657278.17247
  20167808.883 7 -27604619.039 7 -24311024.87848  20167798.43048
  22421478.203 6 -14217244.339 6 -14702886.77547  22421468.21947
  23812368.797 5  -4797342.845 5  -4902825.03647  23812360.39547
  23916386.586 6  -8262690.157 6  -9646503.91946  23916379.18046
  20438080.109 7 -27980095.165 7 -23022050.66248  20438068.13348
  23796951.102 5 -11062841.439 5 -11602290.76546  23796942.87546
 11  4  1  1  0 15.0000000  0 11G03G06G07G08G10G13G16G19G20G23G30   
  22093221.125 6 -12768974.461 6  -9715063.33247  22093213.36747
  23050754.648 6 -12603375.515 6  -9660524.85847  23050746.53947
  21872446.844 6 -21879829.768 6 -16992199.85848  21872437.56348
  24306713.867 5  -8584670.470 5  -7087987.19546  24306706.75446
  22654323.617 6 -15319023.828 6 -11900125.27947  22654315.44947
  20165185.547 7 -27618404.916 7 -24321767.11849  20165175.09449
  22429695.273 6 -14174063.464 6 -14669239.34947  22429685.75847
  23804037.484 5  -4841127.211 5  -4936942.64047  23804029.08247
  23926518.328 6  -8209447.520 6  -9605016.20146  23926511.27346
  20441884.227 7 -27960105.396 7 -23006474.22448  20441872.36748
  23807222.227 5 -11008863.413 5 -11560229.95246  23807214.41046
 11  4  1  1  0 30.0000000  0 11G03G06G07G08G10G13G16G19G20G23G30   
  22088702.664 6 -12792718.949 6  -9733565.50747  22088694.84847
  23048862.758 5 -12613318.647 5  -9668272.73347  23048854.70747
  21867158.891 7 -21907618.858 7 -17013853.67748  21867149.37548
  24299401.719 6  -8623097.493 6  -7117930.27246  24299394.19546
  22651387.828 6 -15334452.897 6 -11912147.91347  22651379.19147
  20162581.688 7 -27632086.898 7 -24332428.39649  20162571.64549
  22437927.125 6 -14130804.360 6 -14635530.97747  22437917.60947
  23795712.938 5  -4884874.829 5  -4971031.58347  23795703.53947
  23936652.039 6  -8156195.382 6  -9563521.08446  23936644.75046
  20445709.727 7 -27940001.095 7 -22990808.53848  20445697.75048
  23817501.656 5 -10954846.672 5 -11518139.05946  23817493.78146
 11  4  1  1  0 45.0000000  0 11G03G06G07G08G10G13G16G19G20G23G30   
  22084208.422 6 -12816337.460 6  -9751969.51147  22084199.72747
  23046994.781 5 -12623136.495 5  -9675922.98847  23046986.14547
  21861878.852 6 -21935364.023 6 -17035473.26348  21861869.21948
  24292092.578 6  -8661506.985 6  -7147859.68646  24292085.17246
  22648477.945 6 -15349742.131 6 -11924061.60047  22648469.77747
  20159997.547 7 -27645666.124 7 -24343009.60549  20159987.38749
  22446173.695 6 -14087468.882 6 -14601763.07947  22446164.47347
  23787394.414 5  -4928586.648 5  -5005092.68447  23787385.54347
  23946786.883 6  -8102935.546 6  -9522019.96446  23946779.94546
  20449557.188 7 -27919783.733 7 -22975054.75248  20449545.27048
  23827788.133 6 -10900792.854 6 -11476019.21846  23827779.90646
 11  4  1  1  1  0.0000000  0 11G03G06G07G08G10G13G16G19G20G23G30   
  22079738.438 6 -12839826.590 6  -9770272.70347  22079730.44547
  23045150.609 5 -12632825.991 5  -9683473.22847  23045142.20747
  21856608.102 7 -21963062.356 7 -17057056.34948  21856598.58648
  24284786.977 6  -8699895.864 6  -7177773.04646  24284780.15646
  22645595.609 6 -15364888.604 6 -11935864.02647  22645587.50047
  20157434.063 7 -27659139.482 7 -24353508.31949  20157423.60949
  22454435.000 6 -14044054.473 6 -14567933.68147  22454425.89547
  23779083.906 5  -4972259.441 5  -5039123.36247  23779074.80147
  23956923.984 6  -8049665.588 6  -9480510.96546  23956916.93046
  20453426.383 7 -27899450.484 7 -22959210.67348  20453414.69948
  23838081.969 5 -10846699.531 5 -11433868.58046  23838073.50846
 11  4  1  1  1 15.0000000  0 11G03G06G07G08G10G13G16G19G20G23G30   
  22075293.219 6 -12863187.138 6  -9788475.71247  22075285.10947
  23043330.539 6 -12642388.070 6  -9690924.17647  23043322.95747
  21851346.219 6 -21990714.959 6 -17078603.81448  21851336.46948
  24277485.555 6  -8738265.247 6  -7207671.21846  24277479.02746
  22642740.734 6 -15379893.144 6 -11947555.87147  22642732.21547
  20154889.938 7 -27672507.927 7 -24363925.28348  20154879.60248
  22462711.445 6 -14000562.515 6 -14534043.86147  22462701.75447
  23770780.828 5  -5015893.871 5  -5073124.13547  23770771.07847
  23967062.813 6  -7996386.732 6  -9438995.03346  23967055.64146
  20457317.461 7 -27879002.420 7 -22943277.12248  20457305.71948
  23848382.523 5 -10792568.143 5 -11391688.31846  23848374.59046
 11  4  1  1  1 30.0000000  0 11G03G06G07G08G10G13G16G19G20G23G30   
  22070872.531 6 -12886419.172 6  -9806578.56447  22070864.12947
  23041535.508 6 -12651822.733 6  -9698275.84847  23041527.63347
  21846092.719 7 -22018322.009 7 -17100115.78148  21846082.91048
  24270187.992 6  -8776615.393 6  -7237554.39746  24270180.76246
  22639912.352 6 -15394755.889 6 -11959137.21847  22639904.00847
  20152365.898 7 -27685771.522 7 -24374260.54249  20152355.50449
  22471002.352 6 -13956993.589 6 -14500094.06447  22470992.77747
  23762484.242 5  -5059489.604 5  -5107094.76247  23762475.25447
  23977203.039 6  -7943099.600 6  -9397472.65046  23977195.92646
  20461230.664 7 -27858439.830 7 -22927254.33648  20461218.68848
  23858690.547 5 -10738399.174 5 -11349478.75346  23858682.61346
 11  4  1  1  1 45.0000000  0 11G03G06G07G08G10G13G16G19G20G23G30   
  22066475.281 6 -12909522.422 6  -9824581.06747  22066467.23047
  23039764.641 5 -12661129.916 5  -9705528.18447  23039756.47347
  21840847.938 6 -22045883.544 6 -17121592.28248  21840838.42248
  24262893.094 5  -8814946.332 5  -7267422.59346  24262886.74246
  22637111.094 6 -15409476.873 6 -11970608.10347  22637102.69147
  20149862.211 7 -27698929.947 7 -24384513.85149  20149851.69949
  22479308.227 6 -13913348.070 6 -14466084.58547  22479298.41847
  23754195.773 5  -5103046.418 5  -5141035.06347  23754186.55147
  23987345.414 6  -7889804.609 6  -9355944.12846  23987337.24646
  20465165.188 7 -27837762.608 7 -22911142.21248  20465153.21148
  23869004.992 5 -10684192.967 5 -11307240.16046  23868998.17246
 11  4  1  1  2  0.0000000  0 11G03G06G07G08G10G13G16G19G20G23G30   
  22062103.836 6 -12932495.904 6  -9842482.45847  22062095.60947
  23038017.172 6 -12670308.820 6  -9712680.55347  23038009.47347
  21835611.828 7 -22073399.017 7 -17143032.89148  21835602.37148
  24255603.875 6  -8853257.444 6  -7297275.35046  24255596.17646
  22634336.625 6 -15424055.307 6 -11981967.91247  22634328.98447
  20147378.203 7 -27711982.395 7 -24394684.58749  20147367.80949
  22487628.055 6 -13869625.685 6 -14432015.21047  22487618.48047
  23745914.648 5  -5146563.273 5  -5174944.23347  23745905.25047
  23997487.984 6  -7836501.411 6  -9314409.22546  23997480.46146
  20469121.711 7 -27816970.273 7 -22894940.40348  20469109.79348
  23879327.750 6 -10629949.240 6 -11264972.35246  23879320.52046
 11  4  1  1  2 15.0000000  0 11G03G06G07G08G10G13G16G19G20G23G30   
  22057756.375 6 -12955340.675 6  -9860283.55547  22057748.38347
  23036295.000 5 -12679360.447 5  -9719733.72847  23036287.41847
  21830383.789 6 -22100869.752 6 -17164438.64148  21830374.80148
  24248316.727 5  -8891549.994 5  -7327113.67946  24248309.43846
  22631589.188 6 -15438492.340 6 -11993217.54347  22631581.54747
  20144914.438 7 -27724930.071 7 -24404773.67449  20144903.69149
  22495962.070 6 -13825828.214 6 -14397887.32047  22495952.90647
  23737640.617 5  -5190040.867 5  -5208822.80747  23737631.68847
  24007632.469 6  -7783191.702 6  -9272869.24546  24007625.47346
  20473100.352 7 -27796064.026 7 -22878649.83048  20473088.31648
  23889655.984 6 -10575669.656 6 -11222676.58246  23889649.04746
 11  4  1  1  2 30.0000000  0 11G03G06G07G08G10G13G16G19G20G23G30   
  22053434.203 6 -12978054.991 6  -9877982.98247  22053425.80147
  23034597.352 6 -12688283.487 6  -9726686.73647  23034588.53947
  21825165.195 7 -22128294.266 7 -17185808.38348  21825155.79748
  24241032.766 5  -8929822.687 5  -7356936.48446  24241026.41446
  22628869.633 6 -15452786.614 6 -12004355.92647  22628861.11347
  20142471.047 7 -27737771.302 7 -24414779.82349  20142460.71149
  22504311.195 6 -13781954.420 6 -14363699.96747  22504301.44547
  23729374.852 5  -5233477.736 5  -5242669.65347  23729366.33247
  24017778.344 6  -7729874.663 6  -9231323.56746  24017771.69946
  20477100.289 7 -27775042.571 7 -22862269.48748  20477088.84048
  23899992.664 6 -10521353.154 6 -11180352.05746  23899985.43446
 11  4  1  1  2 45.0000000  0 11G03G06G07G08G10G13G16G19G20G23G30   
  22049136.719 6 -13000639.437 6  -9895581.22647  22049128.08247
  23032923.422 6 -12697078.589 6  -9733540.04047  23032915.37147
  21819955.289 7 -22155673.449 7 -17207142.78548  21819945.83248
  24233754.359 5  -8968076.440 5  -7386744.57146  24233746.60246
  22626176.102 6 -15466938.707 6 -12015383.50947  22626167.81647
  20140047.203 7 -27750506.747 7 -24424703.54349  20140036.92649
  22512674.297 6 -13738005.564 6 -14329454.11547  22512664.78147
  23721116.727 5  -5276874.426 5  -5276485.19147  23721107.97347
  24027925.789 5  -7676551.303 5  -9189772.93946  24027918.20746
  20481122.313 7 -27753906.850 7 -22845800.09848  20481110.92248
  23910335.906 6 -10467000.838 6 -11137999.63446  23910328.55946
 11  4  1  1  3  0.0000000  0 11G03G06G07G08G10G13G16G19G20G23G30   
  22044863.453 6 -13023093.615 6  -9913077.95247  22044855.22747
  23031273.984 5 -12705745.416 5  -9740293.39147  23031266.22747
  21814753.867 6 -22183007.170 6 -17228441.76548  21814744.41048
  24226477.414 5  -9006311.157 5  -7416537.80246  24226471.18046
  22623510.055 6 -15480948.525 6 -12026300.25347  22623501.59447
  20137644.375 7 -27763136.163 7 -24434544.64549  20137633.86349
  22521052.102 6 -13693981.859 6 -14295149.93947  22521042.58647
  23712866.867 5  -5320230.150 5  -5310268.80047  23712857.17647
  24038073.422 5  -7623221.843 5  -9148217.58646  24038066.54346
  20485166.156 7 -27732656.756 7 -22829241.58848  20485154.47348
  23920685.430 6 -10412612.927 6 -11095619.46546  23920677.96546
 11  4  1  1  3 15.0000000  0 11G03G06G07G08G10G13G16G19G20G23G30   
  22040615.664 6 -13045417.029 6  -9930472.78447  22040607.78947
  23029649.438 5 -12714283.680 5  -9746946.56847  23029641.62147
  21809560.945 7 -22210295.195 7 -17249705.14548  21809551.78148
  24219205.336 5  -9044526.533 5  -7446315.96146  24219198.86746
  22620871.313 6 -15494815.824 6 -12037105.92847  22620863.08647
  20135260.906 7 -27775658.989 7 -24444302.68349  20135250.68849
  22529443.758 6 -13649883.454 6 -14260787.56447  22529434.35947
  23704623.977 5  -5363544.409 5  -5344020.11747  23704614.69547
  24048222.820 5  -7569886.383 5  -9106657.54146  24048215.82446
  20489231.742 7 -27711292.081 7 -22812593.79848  20489220.05948
  23931041.367 6 -10358189.683 6 -11053211.76646  23931033.96146
 11  4  1  1  3 30.0000000  0 11G03G06G07G08G10G13G16G19G20G23G30   
  22036393.813 6 -13067609.434 6  -9947765.54347  22036384.82447
  23028049.125 5 -12722693.199 5  -9753499.42647  23028040.89847
  21804376.695 6 -22237537.674 6 -17270933.03848  21804367.70748
  24211937.422 5  -9082722.523 5  -7476079.01447  24211930.13347
  22618260.086 6 -15508540.561 6 -12047800.50747  22618251.39147
  20132898.227 7 -27788075.203 7 -24453977.64349  20132887.89149
  22537849.703 6 -13605710.866 6 -14226367.37547  22537839.83647
  23696389.578 5  -5406816.789 5  -5377738.78647  23696380.06347
  24058373.188 5  -7516545.290 5  -9065093.12346  24058367.42246
  20493319.172 7 -27689812.894 7 -22795856.77848  20493307.31348
  23941405.063 6 -10303731.420 6 -11010776.77046  23941397.53946
 11  4  1  1  3 45.0000000  0 11G03G06G07G08G10G13G16G19G20G23G30   
  22032193.945 6 -13089670.634 6  -9964956.05747  22032186.30547
  23026473.203 6 -12730973.883 6  -9759951.89047  23026465.32847
  21799201.547 7 -22264734.532 7 -17292125.36548  21799192.32448
  24204672.414 5  -9120899.353 5  -7505827.13546  24204665.24246
  22615675.492 6 -15522122.651 6 -12058383.94647  22615666.56347
  20130555.805 7 -27800384.597 7 -24463569.37849  20130545.64549
  22546269.188 6 -13561464.388 6 -14191889.61547  22546259.26247
  23688163.180 5  -5450046.951 5  -5411424.56547  23688153.54747
  24068524.469 5  -7463198.994 5  -9023524.63146  24068518.35246
  20497428.328 7 -27668219.192 7 -22779030.52548  20497416.52748
  23951774.859 6 -10249238.466 6 -10968314.76846  23951767.16046
 11  4  1  1  4  0.0000000  0 11G03G06G07G08G10G13G16G19G20G23G30   
  22028021.086 6 -13111600.611 6  -9982044.31647  22028013.09447
  23024921.750 6 -12739125.813 6  -9766304.02447  23024913.99247
  21794034.602 7 -22291885.917 7 -17313282.27248  21794025.14548
  24197411.453 6  -9159057.089 6  -7535560.39846  24197403.87146
  22613117.992 6 -15535562.232 6 -12068856.34847  22613109.23847
  20128233.719 7 -27812587.389 7 -24473078.04548  20128223.50048
  22554703.258 6 -13517144.593 6 -14157354.72547  22554693.68447
  23679944.750 5  -5493234.667 5  -5445077.26947  23679935.17647
  24078676.992 5  -7409848.069 5  -8981952.56246  24078670.93446
  20501559.195 7 -27646511.252 7 -22762115.25548  20501547.62948
  23962150.766 6 -10194711.269 6 -10925826.06146  23962143.53546
 11  4  1  1  4 15.0000000  0 11G03G06G07G08G10G13G16G19G20G23G30   
  22023873.641 6 -13133398.684 6  -9999029.78947  22023864.41847
  23023395.289 5 -12747148.612 5  -9772555.52947  23023387.59047
  21788876.766 6 -22318991.557 6 -17334403.53348  21788867.25048
  24190154.039 6  -9197195.646 6  -7565278.70747  24190146.86747
  22610587.328 6 -15548858.941 6 -12079217.41347  22610579.04347
  20125932.188 7 -27824682.976 7 -24482503.16848  20125921.79348
  22563150.672 6 -13472751.550 6 -14122762.74847  22563141.44947
  23671734.359 5  -5536379.315 5  -5478696.40046  23671725.13746
  24088830.578 5  -7356492.816 5  -8940377.08646  24088824.22746
  20505711.844 7 -27624688.829 7 -22745110.77748  20505699.98448
  23972533.461 6 -10140149.964 6 -10883310.77446  23972526.05546
 11  4  1  1  4 30.0000000  0 11G03G06G07G08G10G13G16G19G20G23G30   
  22019750.164 6 -13155064.581 6 -10015912.27447  22019741.46947
  23021893.336 6 -12755042.119 6  -9778706.29647  23021885.34447
  21783727.336 7 -22346051.640 7 -17355489.29548  21783718.17248
  24182899.867 6  -9235314.935 6  -7594981.98547  24182892.69547
  22608084.602 6 -15562012.706 6 -12089467.08147  22608075.61347
  20123650.648 7 -27836671.119 7 -24491844.57649  20123640.19549
  22571612.266 6 -13428285.644 6 -14088114.01047  22571602.80947
  23663532.133 5  -5579480.490 5  -5512281.67346  23663523.49646
  24098984.336 5  -7303133.299 5  -8898798.29446  24098977.98446
  20509886.508 7 -27602752.157 7 -22728017.27248  20509874.35548
  23982922.820 6 -10085554.980 6 -10840769.26446  23982914.88746
 11  4  1  1  4 45.0000000  0 11G03G06G07G08G10G13G16G19G20G23G30   
  22015653.000 6 -13176597.975 6 -10032691.50747  22015644.18847
  23020416.219 6 -12762806.172 6  -9784756.17847  23020407.40647
  21778586.781 6 -22373066.072 6 -17376539.48948  21778577.32448
  24175649.586 6  -9273414.874 6  -7624670.21047  24175642.41447
  22605608.336 6 -15575023.274 6 -12099605.18947  22605600.10947
  20121389.758 7 -27848551.604 7 -24501102.09249  20121379.36349
  22580087.633 6 -13383747.120 6 -14053408.67647  22580078.29347
  23655339.102 5  -5622537.817 5  -5545832.77646  23655329.58646
  24109139.867 4  -7249769.920 4  -8857216.49646  24109133.04746
  20514082.273 7 -27580701.102 7 -22710834.64548  20514070.70748
  23993317.984 5 -10030926.553 5 -10798201.68746  23993310.98846
 11  4  1  1  5  0.0000000  0 11G03G06G07G08G10G13G16G19G20G23G30   
  22011580.391 6 -13197998.723 6 -10049367.37947  22011571.57847
  23018963.078 5 -12770440.654 5  -9790705.10247  23018954.67647
  21773454.945 7 -22400034.953 7 -17397554.17648  21773445.54748
  24168403.000 5  -9311495.691 5  -7654343.51146  24168395.65246
  22603159.914 6 -15587890.854 6 -12109631.86147  22603151.51247
  20119149.695 7 -27860324.339 7 -24510275.63749  20119139.41849
  22588577.047 6 -13339136.408 6 -14018647.09347  22588567.18047
  23647153.734 5  -5665550.841 5  -5579349.35346  23647144.57046
  24119294.406 4  -7196403.072 4  -8815631.99646  24119288.58246
  20518300.664 7 -27558535.671 7 -22693562.89448  20518288.68848
  24003719.766 5  -9976265.126 5 -10755608.37646  24003712.53546
 11  4  1  1  5 15.0000000  0 11G03G06G07G08G10G13G16G19G20G23G30   
  22007533.211 6 -13219266.692 6 -10065939.79147  22007524.51647
  23017534.547 5 -12777945.447 5  -9796552.96747  23017526.67247
  21768331.875 6 -22426958.141 6 -17418533.27048  21768322.18448
  24161160.141 5  -9349557.339 5  -7684001.89047  24161152.91047
  22600738.578 6 -15600615.275 6 -12119546.99447  22600730.17647
  20116929.672 7 -27871989.131 7 -24519365.09048  20116919.62948
  22597079.914 6 -13294453.892 6 -13983829.56247  22597069.93047
  23638977.055 5  -5708519.204 5  -5612831.14946  23638967.77346
  24129450.516 4  -7143033.089 4  -8774045.06246  24129444.63346
  20522540.203 7 -27536255.964 7 -22676202.08948  20522528.69548
  24014127.875 5  -9921570.934 5 -10712989.55846  24014120.23446
 11  4  1  1  5 30.0000000  0 11G03G06G07G08G10G13G16G19G20G23G30   
  22003511.070 6 -13240401.154 6 -10082408.17647  22003502.78547
  23016131.438 5 -12785320.066 5  -9802299.40047  23016123.56347
  21763216.820 6 -22453835.302 6 -17439476.49748  21763207.12948
  24153920.688 5  -9387599.460 5  -7713645.05147  24153913.04747
  22598344.570 6 -15613196.043 6 -12129350.18347  22598336.52047
  20114730.711 7 -27883545.506 7 -24528370.05849  20114720.49249
  22605596.297 6 -13249699.511 6 -13948956.02847  22605586.84047
  23630809.461 5  -5751442.153 5  -5646277.54847  23630799.71147
  24139607.250 4  -7089660.052 4  -8732455.76646  24139601.77746
  20526801.297 7 -27513861.622 7 -22658751.96448  20526790.25848
  24024541.797 5  -9866843.872 5 -10670345.11246  24024534.62546
 11  4  1  1  5 45.0000000  0 11G03G06G07G08G10G13G16G19G20G23G30   
  21999514.984 6 -13261402.130 6 -10098772.53747  21999506.46547
  23014752.789 6 -12792564.709 6  -9807944.54747  23014745.09047
  21758110.891 6 -22480666.754 6 -17460384.10248  21758101.78548
  24146685.414 5  -9425622.406 5  -7743273.27347  24146677.77347
  22595977.750 6 -15625633.471 6 -12139041.67747  22595969.93447
  20112552.008 7 -27894993.421 7 -24537290.50648  20112541.96548
  22614126.156 6 -13204874.014 6 -13914027.08647  22614116.40647
  23622649.586 5  -5794319.397 5  -5679688.34046  23622640.71546
  24149764.578 3  -7036284.695 3  -8690864.61346  24149758.28546
  20531084.797 7 -27491352.977 7 -22641212.76948  20531073.05548
  24034961.914 5  -9812084.722 5 -10627675.68446  24034955.15246
 11  4  1  1  6  0.0000000  0 11G03G06G07G08G10G13G16G19G20G23G30   
  21995543.867 6 -13282269.183 6 -10115032.54247  21995534.99647
  23013399.125 5 -12799679.199 5  -9813488.28747  23013391.25047
  21753013.797 6 -22507452.504 6 -17481256.09348  21753004.10548
  24139453.758 6  -9463626.103 6  -7772886.49547  24139446.70347
  22593638.563 6 -15637927.441 6 -12148621.38847  22593629.57447
  20110394.414 7 -27906332.804 7 -24546126.38449  20110384.19549
  22622669.398 6 -13159977.792 6 -13879043.03547  22622660.00047
  23614499.961 5  -5837150.928 5  -5713063.49447  23614489.97747
  24159922.125 4  -6982907.117 4  -8649271.77546  24159915.24646
  20535389.789 7 -27468730.139 7 -22623584.58848  20535378.45748
  24045388.633 5  -9757293.772 5 -10584981.46246  24045381.98846
 11  4  1  1  6 15.0000000  0 11G03G06G07G08G10G13G16G19G20G23G30   
  21991598.508 6 -13303002.185 6 -10131188.09447  21991590.04747
  23012069.875 5 -12806663.427 5  -9818930.51147  23012061.76647
  21747925.625 7 -22534192.551 7 -17502092.48148  21747915.75848
  24132224.922 6  -9501610.641 6  -7802484.78246  24132217.86746
  22591325.984 6 -15650077.912 6 -12158089.28347  22591318.69547
  20108257.109 7 -27917563.460 7 -24554877.53849  20108246.89149
  22631226.359 6 -13115011.110 6 -13844004.06847  22631217.13747
  23606357.648 5  -5879936.302 5  -5746402.69446  23606347.95746
  24170079.477 3  -6929527.805 3  -8607677.56246  24170072.89146
  20539716.484 7 -27445993.156 7 -22605867.46548  20539704.97748
  24055821.414 5  -9702471.334 5 -10542262.70046  24055813.18846
 11  4  1  1  6 30.0000000  0 11G03G06G07G08G10G13G16G19G20G23G30   
  21987678.570 6 -13323600.740 6 -10147238.88947  21987670.05147
  23010766.031 6 -12813517.251 6  -9824271.13547  23010757.80547
  21742845.367 6 -22560886.937 6 -17522893.28548  21742836.32048
  24125000.586 5  -9539575.864 5  -7832068.02746  24124993.35546
  22589041.180 6 -15662084.748 6 -12167445.26547  22589033.01247
  20106140.984 7 -27928685.001 7 -24563543.66249  20106130.76649
  22639796.344 6 -13069974.277 6 -13808910.43947  22639787.18047
  23598224.609 5  -5922674.956 5  -5779705.49046  23598215.09446
  24180237.320 3  -6876146.995 3  -8566082.17346  24180230.91046
  20544064.953 7 -27423141.918 7 -22588061.31748  20544053.50448
  24066260.016 4  -9647617.746 4 -10499519.69346  24066252.02346
 11  4  1  1  6 45.0000000  0 11G03G06G07G08G10G13G16G19G20G23G30   
  21983784.219 6 -13344064.375 6 -10163184.54347  21983775.99247
  23009486.273 6 -12820240.159 6  -9829509.73947  23009478.34047
  21737774.680 6 -22587535.241 6 -17543658.17948  21737765.34048
  24117779.484 5  -9577521.522 5  -7861635.98246  24117771.90246
  22586784.250 6 -15673947.551 6 -12176688.99747  22586775.55547
  20104045.492 7 -27939696.778 7 -24572124.27049  20104035.21549
  22648379.961 6 -13024867.379 6 -13773762.22747  22648370.79747
  23590100.250 5  -5965366.150 5  -5812971.28146  23590091.02746
  24190396.109 3  -6822764.790 3  -8524485.72646  24190389.93446
  20548435.289 7 -27400176.221 7 -22570165.98148  20548423.07848
  24076703.406 4  -9592732.940 4 -10456752.34646  24076696.64546
 11  4  1  1  7  0.0000000  0 11G03G06G07G08G10G13G16G19G20G23G30   
  21979916.172 6 -13364393.111 6 -10179025.08247  21979907.88747
  23008232.008 6 -12826832.278 6  -9834646.42747  23008223.60547
  21732712.359 7 -22614137.806 7 -17564387.42548  21732703.13748
  24110562.023 5  -9615447.917 5  -7891188.99846  24110555.14546
  22584553.953 6 -15685666.611 6 -12185820.72347  22584545.43447
  20101970.875 7 -27950599.301 7 -24580619.73649  20101960.71549
  22656977.273 6 -12979690.882 6 -13738559.77547  22656967.34847
  23581985.383 5  -6008009.656 5  -5846199.90946  23581976.10246
  24200554.500 4  -6769381.780 4  -8482888.64746  24200548.50046
  20552827.305 7 -27377096.339 7 -22552181.65848  20552815.73848
  24087153.773 5  -9537817.445 5 -10413961.07846  24087146.66046
 11  4  1  1  7 15.0000000  0 11G03G06G07G08G10G13G16G19G20G23G30   
  21976073.344 6 -13384586.772 6 -10194760.37547  21976064.88347
  23007001.922 6 -12833293.774 6  -9839681.34147  23006994.34047
  21727658.805 6 -22640694.784 6 -17585081.15948  21727648.99648
  24103348.703 5  -9653355.135 5  -7920727.05546  24103341.47346
  22582350.836 6 -15697242.061 6 -12194840.55447  22582342.78547
  20099917.125 7 -27961392.550 7 -24589030.05248  20099906.61348
  22665586.820 6 -12934445.443 6 -13703303.60647  22665577.53947
  23573879.406 5  -6050605.481 5  -5879391.40447  23573869.94947
  24210713.336 4  -6715998.515 4  -8441291.35946  24210707.10246
  20557240.914 7 -27353902.527 7 -22534108.56948  20557229.23048
  24097610.055 5  -9482871.836 5 -10371146.35646  24097602.23846
 11  4  1  1  7 30.0000000  0 11G03G06G07G08G10G13G16G19G20G23G30   
  21972256.539 6 -13404645.009 6 -10210390.14147  21972248.02047
  23005797.227 6 -12839624.260 6  -9844614.16647  23005789.76247
  21722613.633 6 -22667206.025 6 -17605739.24948  21722603.94148
  24096138.398 5  -9691243.072 5  -7950250.07146  24096131.57846
  22580175.422 6 -15708673.559 6 -12203748.21447  22580167.37147
  20097883.719 7 -27972076.010 7 -24597354.82749  20097873.38349
  22674210.328 6 -12889131.126 6 -13667993.75647  22674200.81347
  23565783.391 5  -6093152.885 5  -5912545.17746  23565773.75846
  24220871.852 4  -6662615.176 4  -8399694.00646  24220865.26646
  20561676.195 7 -27330594.559 7 -22515946.52848  20561664.57048
  24108071.008 5  -9427896.236 5 -10328308.25346  24108063.36746
 11  4  1  1  7 45.0000000  0 11G03G06G07G08G10G13G16G19G20G23G30   
  21968465.516 6 -13424567.659 6 -10225914.26247  21968456.70347
  23004617.992 6 -12845823.711 6  -9849444.88647  23004609.88347
  21717577.508 7 -22693671.562 7 -17626361.71748  21717567.99248
  24088932.938 6  -9729111.947 6  -7979758.23846  24088925.29746
  22578027.641 6 -15719961.237 6 -12212543.80047  22578019.18047
  20095872.016 7 -27982649.689 7 -24605594.04649  20095861.44549
  22682846.328 6 -12843748.496 6 -13632630.68247  22682836.52047
  23557696.164 5  -6135651.659 5  -5945661.06746  23557686.47346
  24231029.945 4  -6609232.106 4  -8358096.85245  24231022.42245
  20566132.969 7 -27307172.701 7 -22497695.73648  20566121.05148
  24118538.109 5  -9372891.135 5 -10285447.16846  24118531.05546
 11  4  1  1  8  0.0000000  0 11G03G06G07G08G10G13G16G19G20G23G30   
  21964700.047 6 -13444353.846 6 -10241332.03647  21964691.58647
  23003463.078 6 -12851891.518 6  -9854173.01947  23003455.20347
  21712550.133 7 -22720090.931 7 -17646948.21648  21712540.91048
  24081729.398 5  -9766961.126 5  -8009251.06846  24081722.46146
  22575907.336 6 -15731104.541 6 -12221226.89347  22575898.46547
  20093880.531 7 -27993112.818 7 -24613747.14048  20093870.43048
  22691495.188 6 -12798297.308 6 -13597214.18947  22691485.78947
  23549618.273 5  -6178100.716 5  -5978738.20646  23549608.11346
  24241189.172 5  -6555849.267 5  -8316499.90845  24241181.59045
  20570612.328 7 -27283636.449 7 -22479355.80448  20570600.11748
  24129011.133 4  -9317856.167 4 -10242562.81746  24129004.13746
 11  4  1  1  8 15.0000000  0 12G03G05G06G07G08G10G13G16G19G20G23G30
  21960960.766 6 -13464004.297 6 -10256644.05247  21960952.12947
  25726384.46116    350769.86216    290215.74656  25726373.18856
  23002333.500 6 -12857828.620 6  -9858799.32547  23002325.09847
  21707531.313 7 -22746465.158 7 -17667499.54048  21707521.56348
  24074530.727 6  -9804791.644 6  -8038729.37146  24074523.78946
  22573813.977 6 -15742104.281 6 -12229798.10847  22573805.80947
  20091910.672 7 -28003466.125 7 -24621814.64149  20091900.33649
  22700157.289 6 -12752778.903 6 -13561745.31447  22700147.18847
  23541549.438 5  -6220500.849 5  -6011777.22846  23541540.44946
  24251347.461 5  -6502467.918 5  -8274904.10446  24251340.34846
  20575112.570 7 -27259986.868 7 -22460927.57548  20575100.94548
  24139489.508 5  -9262792.857 5 -10199656.36846  24139482.27746
 11  4  1  1  8 30.0000000  0 12G03G05G06G07G08G10G13G16G19G20G23G30
  21957247.102 6 -13483520.178 6 -10271851.20647  21957238.46547
  25718254.094 6    308041.464 6    256920.95046  25718239.53546
  23001228.047 5 -12863636.290 5  -9863324.75247  23001220.17247
  21702520.594 6 -22772795.644 6 -17688016.78648  21702511.02048
  24067335.172 6  -9842604.962 6  -8068194.25346  24067328.35246
  22571747.750 6 -15752961.849 6 -12238258.53947  22571739.46547
  20089961.234 7 -28013710.921 7 -24629797.59649  20089950.60549
  22708831.609 6 -12707195.218 6 -13526225.57247  22708822.21147
  23533490.789 5  -6262853.122 5  -6044778.95846  23533480.33646
  24261505.063 5  -6449089.998 5  -8233311.00046  24261498.71146
  20579634.242 7 -27236225.334 7 -22442412.10548  20579622.20748
  24149971.563 4  -9207702.922 4 -10156729.17346  24149964.85946
 11  4  1  1  8 45.0000000  0 12G03G05G06G07G08G10G13G16G19G20G23G30
  21953559.188 6 -13502897.717 6 -10286950.56247  21953550.72747
  25710137.328 5    265389.924 5                
  23000148.547 5 -12869310.625 5  -9867746.28947  23000140.08647
  21697518.992 7 -22799078.626 7 -17708497.01548  21697509.12548
  24060144.039 5  -9880397.301 5  -8097642.80246  24060136.45746
  22569709.406 6 -15763673.419 6 -12246605.21547  22569701.00447
  20088033.438 7 -28023843.421 7 -24637693.04249  20088022.80949
  22717518.344 6 -12661542.763 6 -13490652.25247  22717509.06347
  23525440.813 5  -6305153.307 5  -6077740.10146  23525431.41446
  24271661.969 5  -6395711.911 5  -8191717.73846  24271655.91046
  20584177.891 7 -27212348.261 7 -22423806.59548  20584165.91448
  24160461.859 4  -9152583.004 4 -10113778.61846  24160454.45346
 11  4  1  1  9  0.0000000  0 12G03G05G06G07G08G10G13G16G19G20G23G30
  21949897.773 6 -13522137.719 6 -10301942.74747  21949889.66447
  25702034.484 4    222814.277 4                
  22999093.211 5 -12874852.778 5  -9872064.84247  22999085.92247
  21692526.234 7 -22825315.317 7 -17728941.16748  21692516.95348
  24052955.758 5  -9918169.977 5  -8127076.01546  24052948.29346
  22567698.367 6 -15774240.417 6 -12254839.24047  22567690.02347
  20086126.172 7 -28033864.560 7 -24645501.71549  20086115.77749
  22726218.719 6 -12615823.139 6 -13455026.58047  22726209.55547
  23517400.664 5  -6347402.306 5  -6110661.34246  23517390.97346
  24281818.852 5  -6342335.334 5  -8150125.68446  24281811.50446
  20588743.367 7 -27188357.055 7 -22405112.15948  20588731.27348
  24170955.375 4  -9097434.615 4 -10070805.87646  24170948.49646
 11  4  1  1  9 15.0000000  0 12G03G05G06G07G08G10G13G16G19G20G23G30
  21946263.047 6 -13541240.246 6 -10316827.81447  21946254.46947
  25693945.430 3    180314.639 3                
  22998064.250 5 -12880262.926 5  -9876280.51847  22998056.31647
  21687542.758 7 -22851505.942 7 -17749349.42648  21687532.83248
  24045771.672 6  -9955923.330 6  -8156494.15946  24045763.73846
  22565715.680 6 -15784662.975 6 -12262960.70847  22565706.57447
  20084240.398 7 -28043774.462 7 -24653223.71149  20084229.82849
  22734931.930 6 -12570036.962 6 -13419349.05547  22734922.41447
  23509371.039 5  -6389600.025 5  -6143542.61346  23509361.23046
  24291976.609 4  -6288960.777 4  -8108535.13946  24291968.38346
  20593330.250 7 -27164251.912 7 -22386328.93748  20593318.44948
  24181455.031 4  -9042258.289 4 -10027811.32446  24181448.56346
 11  4  1  1  9 30.0000000  0 12G03G05G06G07G08G10G13G16G19G20G23G30
  21942654.023 6 -13560205.164 6 -10331605.65847  21942645.73847
  25685869.367 2    137891.045 2                
  22997059.414 6 -12885541.186 6  -9880393.42147  22997051.53947
  21682567.398 7 -22877650.662 7 -17769721.91648  21682557.82448
  24038591.094 5  -9993657.437 5  -8185897.32846  24038583.51246
  22563759.938 6 -15794941.128 6 -12270969.65047  22563751.06647
  20082375.930 7 -28053573.095 7 -24660859.01249  20082365.12549
  22743657.031 6 -12524184.808 6 -13383620.12047  22743647.57447
  23501350.891 5  -6431746.131 5  -6176383.69647  23501341.78547
  24302133.313 5  -6235588.934 5  -8066946.75546  24302124.67646
  20597938.695 7 -27140033.035 7 -22367457.09448  20597927.48048
  24191959.828 3  -8987054.393 3  -9984795.36946  24191953.53546
 11  4  1  1  9 45.0000000  0 12G03G05G06G07G08G10G13G16G19G20G23G30
  21939071.609 6 -13579031.987 6 -10346275.88947  21939063.14847
  25677811.125 3     95544.312 3                
  22996080.750 5 -12890687.028 5  -9884403.15247  22996072.75847
  21677600.844 7 -22903749.247 7 -17790058.45648  21677591.56348
  24031414.055 5 -10031371.929 5  -8215285.22246  24031406.94146
  22561831.383 6 -15805074.365 6 -12278865.67747  22561822.57047
  20080532.078 7 -28063259.856 7 -24668407.12648  20080521.74248
  22752395.023 6 -12478266.496 6 -13347839.62647  22752385.56647
  23493340.594 5  -6473839.856 5  -6209183.94347  23493331.31347
  24312288.586 5  -6182219.699 5  -8025360.39746  24312281.88346
  20602569.313 7 -27115700.161 7 -22348496.42748  20602557.86348
  24202470.461 4  -8931823.030 4  -9941757.97646  24202464.46146
 11  4  1  1 10  0.0000000  0 12G03G05G06G07G08G10G13G16G19G20G23G30
  21935515.320 6 -13597720.869 6 -10360838.63247  21935506.97747
  25669768.781 3     53273.980 3     58400.80556  25669764.42256
  22995126.148 6 -12895700.775 6  -9888309.93847  22995118.27347
  21672643.055 7 -22929802.143 7 -17810359.38948  21672633.71548
  24024240.688 6 -10069067.328 6  -8244658.22046  24024233.57446
  22559930.609 6 -15815063.312 6 -12286649.26447  22559921.97347
  20078709.867 7 -28072835.096 7 -24675868.34849  20078699.88349
  22761145.383 6 -12432283.054 6 -13312008.39147  22761135.92647
  23485340.695 5  -6515881.309 5  -6241943.47147  23485330.77047
  24322443.445 5  -6128853.978 5  -7983776.78346  24322437.38746
  20607221.141 7 -27091253.721 7 -22329447.26648  20607209.75048
  24212986.000 3  -8876565.117 3  -9898699.87346  24212978.59446
 11  4  1  1 10 15.0000000  0 12G03G05G06G07G08G10G13G16G19G20G23G30
  21931985.195 6 -13616271.630 6 -10375293.75647  21931976.55947
  25661740.953 5     11080.340 5     25522.63047  25661735.65647
  22994197.578 6 -12900582.493 6  -9892113.86447  22994189.00047
  21667694.359 7 -22955809.383 7 -17830624.75348  21667684.43448
  24017071.961 6 -10106743.707 6  -8274016.40446  24017064.37946
  22558057.164 6 -15824908.003 6 -12294320.43947  22558048.58647
  20076909.031 7 -28082298.758 7 -24683242.62649  20076898.69549
  22769908.313 6 -12386234.736 6 -13276126.58747  22769898.50447
  23477349.750 6  -6557870.229 6  -6274662.06947  23477340.52747
  24332598.273 5  -6075492.111 5  -7942196.16946  24332592.39146
  20611894.781 7 -27066693.927 7 -22310309.76748  20611883.27348
  24223506.016 3  -8821280.812 3  -9855621.21546  24223499.19546
 11  4  1  1 10 30.0000000  0 12G03G05G06G07G08G10G13G16G19G20G23G30
  21928481.469 6 -13634683.888 6 -10389640.96147  21928472.94947
  25653727.781 5    -31035.968 5     -7295.26547  25653721.66447
  22993293.875 5 -12905331.871 5  -9895814.66747  22993285.47347
  21662753.578 7 -22981770.860 7 -17850854.45848  21662744.12148
  24009905.367 6 -10144401.019 6  -8303359.74546  24009898.02046
  22556211.320 6 -15834608.076 6 -12301878.93647  22556202.85947
  20075129.516 7 -28091650.255 7 -24690529.50749  20075119.06349
  22778683.078 6 -12340121.866 6 -13240194.51047  22778674.14847
  23469370.289 6  -6599806.123 6  -6307339.32847  23469360.83247
  24342751.344 5  -6022134.299 5  -7900618.72846  24342746.04746
  20616590.133 7 -27042020.715 7 -22291083.89848  20616578.97748
  24234031.211 3  -8765970.554 3  -9812522.34346  24234024.50846
 11  4  1  1 10 45.0000000  0 12G03G05G06G07G08G10G13G16G19G20G23G30
  21925004.203 6 -13652957.345 6 -10403879.99447  21924995.56647
  25645727.438 5    -73074.904 5    -40052.86447  25645721.84847
  22992415.008 6 -12909948.691 6  -9899412.16247  22992406.72347
  21657821.969 7 -23007686.510 7 -17871048.44548  21657812.51248
  24002743.680 6 -10182038.983 6  -8332688.00946  24002735.80546
  22554392.867 6 -15844163.353 6 -12309324.60947  22554384.34847
  20073371.180 7 -28100889.736 7 -24697729.10049  20073361.07849
  22787470.531 6 -12293944.586 6 -13204212.22047  22787460.07847
  23461400.258 6  -6641688.237 6  -6339974.70147  23461390.97747
  24352904.438 5  -5968780.747 5  -7859044.60046  24352897.20746
  20621306.984 7 -27017233.905 7 -22271769.51148  20621295.06648
  24244561.594 4  -8710634.338 4  -9769403.23746  24244554.24646
 11  4  1  1 11  0.0000000  0 12G03G05G06G07G08G10G13G16G19G20G23G30
  21921553.156 6 -13671091.559 6 -10418010.53747  21921544.81347
  25637743.016 6   -115035.899 6    -72749.73847  25637736.37147
  22991561.844 6 -12914432.740 6  -9902906.20947  22991553.73447
  21652899.352 7 -23033556.111 7 -17891206.55448  21652890.07048
  23995583.516 6 -10219657.617 6  -8362001.20446  23995577.16446
  22552602.352 6 -15853573.880 6 -12316657.46847  22552593.48047
  20071634.734 7 -28110016.764 7 -24704841.06949  20071623.98849
  22796269.625 6 -12247703.231 6 -13168180.01747  22796259.99247
  23453440.422 5  -6683516.197 5  -6372567.86547  23453430.96547
  24363056.508 5  -5915431.718 5  -7817473.98946  24363049.57046
  20626045.203 7 -26992333.427 7 -22252366.55148  20626033.69548
  24255096.930 4  -8655272.364 4  -9726264.07046  24255089.34846
 11  4  1  1 11 15.0000000  0 12G03G05G06G07G08G10G13G16G19G20G23G30
  21918129.289 6 -13689086.455 6 -10432032.51047  21918120.53547
  25629773.586 6   -156918.899 6   -105385.83847  25629765.82847
  22990733.852 6 -12918784.015 6  -9906296.80347  22990725.80147
  21647985.359 7 -23059380.000 7 -17911329.05048  21647975.66848
  23988429.367 6 -10257257.148 6  -8391299.51646  23988422.37146
  22550838.672 7 -15862839.748 7 -12323877.62847  22550830.56347
  20069919.594 7 -28119031.275 7 -24711865.35449  20069909.02349
  22805081.695 6 -12201398.206 6 -13132098.19247  22805071.65247
  23445490.664 5  -6725289.737 5  -6405118.62947  23445481.67647
  24373207.828 5  -5862087.648 5  -7775907.23646  24373201.53546
  20630805.180 7 -26967319.603 7 -22232875.27148  20630793.61348
  24265637.031 5  -8599885.265 5  -9683105.30146  24265628.68846
 11  4  1  1 11 30.0000000  0 12G03G05G06G07G08G10G13G16G19G20G23G30
  21914731.109 6 -13706941.803 6 -10445945.76047  21914722.59047
  25621818.484 6   -198723.359 6   -137960.75047  25621809.32047
  22989931.055 6 -12923002.456 6  -9909583.88547  22989922.88747
  21643080.211 7 -23085157.898 7 -17931415.71348  21643070.10948
  23981278.492 6 -10294837.361 6  -8420582.77246  23981270.38346
  22549103.164 6 -15871960.835 6 -12330984.96747  22549094.76247
  20068225.242 7 -28127932.948 7 -24718801.72249  20068215.08249
  22813904.961 6 -12155029.722 6 -13095966.91847  22813895.38747
  23437551.906 5  -6767008.448 5  -6437626.65147  23437543.09447
  24383358.203 5  -5808748.845 5  -7734344.60046  24383352.32046
  20635586.531 7 -26942192.434 7 -22213295.66648  20635575.19948
  24276181.086 4  -8544473.088 4  -9639927.01246  24276173.03546
 11  4  1  1 11 45.0000000  0 12G03G05G06G07G08G10G13G16G19G20G23G30
  21911359.742 7 -13724657.077 7 -10459749.84647  21911351.10547
  25613878.242 6   -240448.741 6   -170474.03046  25613868.08246
  22989153.047 6 -12927087.686 6  -9912767.17147  22989145.34847
  21638183.313 7 -23110889.620 7 -17951466.38848  21638173.56348
  23974130.883 6 -10332398.112 6  -8449850.86146  23974123.47746
  22547395.086 6 -15880936.772 6 -12337979.19747  22547386.62547
  20066552.953 7 -28136721.262 7 -24725649.75849  20066542.91049
  22822741.047 6 -12108598.042 6 -13059786.41847  22822731.06347
  23429623.891 5  -6808671.693 5  -6470091.45547  23429614.43447
  24393507.234 5  -5755415.404 5  -7692786.15246  24393501.70346
  20640389.883 7 -26916951.812 7 -22193627.66348  20640378.49248
  24286730.773 5  -8489036.058 5  -9596729.35245  24286722.95745
 11  4  1  1 12  0.0000000  0 12G03G05G06G07G08G10G13G16G19G20G23G30
  21908015.453 6 -13742232.061 6 -10473444.61647  21908006.93447
  25605953.313 5   -282094.993 5   -202925.63446  25605941.74646
  22988401.680 6 -12931039.631 6  -9915846.59047  22988393.51247
  21633295.266 7 -23136575.229 7 -17971481.12248  21633285.63348
  23966986.852 6 -10369939.464 6  -8479103.82546  23966979.38746
  22545714.680 6 -15889767.628 6 -12344860.38147  22545705.92647
  20064902.375 7 -28145396.337 7 -24732409.55549  20064891.68849
  22831588.672 6 -12062103.581 6 -13023556.96847  22831578.57047
  23421706.477 6  -6850279.239 6  -6502512.86047  23421696.90247
  24403654.352 5  -5702087.784 5  -7651232.23546  24403649.99246
  20645214.445 7 -26891597.854 7 -22173871.33348  20645203.05548
  24297284.531 5  -8433574.543 5  -9553512.62545  24297277.06645
 11  4  1  1 12 15.0000000  0 12G03G05G06G07G08G10G13G16G19G20G23G30
  21904697.992 6 -13759666.399 6 -10487029.79347  21904689.35547
  25598040.398 3   -323661.637 3   -235315.18046  25598030.70746
  22987674.797 6 -12934858.124 6  -9918822.01447  22987667.21547
  21628416.391 7 -23162214.612 7 -17991459.84948  21628406.58248
  23959846.555 5 -10407461.250 5  -8508341.55446  23959838.73846
  22544061.656 6 -15898453.239 6 -12351628.38647  22544052.96147
  20063273.102 7 -28153957.960 7 -24739080.94449  20063262.47349
  22840447.766 6 -12015546.535 6 -12987278.77347  22840438.25047
  23413799.391 6  -6891830.461 6  -6534890.37947  23413789.75847
  24413801.492 5  -5648766.159 5  -7609682.98546  24413796.48846
  20650061.086 7 -26866130.303 7 -22154026.49948  20650049.57848
  24307842.883 5  -8378088.661 5  -9510276.89546  24307835.30146
 11  4  1  1 12 30.0000000  0 12G03G05G06G07G08G10G13G16G19G20G23G30
  21901406.969 6 -13776960.022 6 -10500505.32147  21901398.50847
  25590144.922 4   -365148.511 4   -267642.59246  25590136.46146
  22986973.859 6 -12938543.183 6  -9921693.48347  22986965.28147
  21623546.383 7 -23187807.999 7 -18011402.73048  21623536.75048
  23952709.859 5 -10444963.814 5  -8537564.27846  23952703.09846
  22542436.750 6 -15906993.834 6 -12358283.38647  22542428.40647
  20061665.406 7 -28162406.037 7 -24745663.85848  20061654.89548
  22849319.297 6 -11968927.555 6 -12950952.29547  22849309.72347
  23405903.297 6  -6933325.129 6  -6567223.85047  23405893.19547
  24423947.305 5  -5595451.144 5  -7568138.89146  24423941.07046
  20654928.813 7 -26840549.553 7 -22134093.45748  20654917.42248
  24318406.273 5  -8322578.995 5  -9467022.62546  24318398.34046
 11  4  1  1 12 45.0000000  0 12G03G05G06G07G08G10G13G16G19G20G23G30
  21898142.781 6 -13794112.963 6 -10513871.22647  21898134.26247
  25582266.508 4   -406555.539 4   -299907.85846  25582257.75446
  22986298.109 6 -12942094.901 6  -9924461.03747  22986289.82447
  21618684.758 7 -23213355.453 7 -18031309.83648  21618675.24248
  23945577.500 5 -10482447.226 5  -8566772.11846  23945570.21146
  22540838.945 6 -15915389.552 6 -12364825.50247  22540830.71947
  20060079.242 7 -28170740.591 7 -24752158.31449  20060068.73049
  22858202.367 6 -11922247.053 6 -12914577.90947  22858192.67647
  23398017.781 6  -6974762.985 6  -6599513.03047  23398008.20747
  24434091.844 5  -5542143.142 5  -7526600.26346  24434085.37546
  20659818.227 7 -26814855.769 7 -22114072.33948  20659806.54348
  24328973.859 5  -8267045.954 5  -9423750.14946  24328966.39546
 11  4  1  1 13  0.0000000  0 12G03G05G06G07G08G10G13G16G19G20G23G30
  21894905.813 6 -13811124.701 6 -10527127.10447  21894897.29347
  25574403.391 5   -447882.162 5   -332110.44346  25574395.75046
  22985647.313 6 -12945513.001 6  -9927124.47347  22985639.14547
  21613831.664 7 -23238856.869 7 -18051181.04748  21613822.26648
  23938447.180 5 -10519911.447 5  -8595964.96046  23938440.12546
  22539268.633 6 -15923640.240 6 -12371254.60947  22539260.34847
  20058515.000 7 -28178961.154 7 -24758563.94149  20058504.48849
  22867096.789 6 -11875505.098 6 -12878155.60047  22867087.56647
  23390143.242 6  -7016143.416 6  -6631757.48347  23390133.60947
  24444234.984 5  -5488842.362 5  -7485067.24746  24444228.34046
  20664729.125 7 -26789048.943 7 -22093963.12648  20664717.61748
  24339545.969 5  -8211489.699 5  -9380459.55546  24339538.91446
 11  4  1  1 13 15.0000000  0 12G03G05G06G07G08G10G13G16G19G20G23G30
  21891695.359 6 -13827995.140 6 -10540272.88147  21891686.84047
  25566555.664 5   -489128.445 5   -364250.42546  25566547.49646
  22985022.461 6 -12948797.568 6  -9929683.85247  22985014.29347
  21608988.039 7 -23264312.222 7 -18071016.36848  21608978.69948
  23931322.289 5 -10557356.388 5  -8625142.76446  23931314.53146
  22537726.250 6 -15931745.874 6 -12377570.66747  22537718.08247
  20056972.727 7 -28187067.691 7 -24764880.72249  20056961.86349
  22876003.398 6 -11828701.975 6 -12841685.66447  22875993.88347
  23382279.766 5  -7057466.109 5  -6663956.92547  23382270.07447
  24454375.844 5  -5435549.188 5  -7443540.17446  24454369.96146
  20669661.492 7 -26763129.090 7 -22073765.85348  20669649.98448
  24350122.641 5  -8155910.557 5  -9337151.15045  24350115.64545
 11  4  1  1 13 30.0000000  0 12G03G05G06G07G08G10G13G16G19G20G23G30
  21888511.906 6 -13844724.047 6 -10553308.36447  21888503.09447
  25558721.180 5   -530293.856 5   -396327.35847  25558714.53547
  22984422.695 6 -12951948.459 6  -9932139.06647  22984414.58647
  21604152.578 7 -23289721.575 7 -18090815.84848  21604143.18048
  23924200.734 5 -10594782.120 5  -8654305.63046  23924192.56646
  22536211.836 6 -15939706.492 6 -12383773.74847  22536203.43447
  20055451.570 7 -28195059.977 7 -24771108.47449  20055440.70749
  22884920.953 6 -11781838.270 6 -12805168.50047  22884911.78947
  23374426.828 6  -7098730.860 6  -6696111.22547  23374418.07447
  24464515.680 5  -5382263.951 5  -7402019.29146  24464510.44146
  20674615.344 7 -26737096.429 7 -22053480.66848  20674603.77748
  24360702.578 5  -8100309.020 5  -9293825.29045  24360695.99245
 11  4  1  1 13 45.0000000  0 12G03G05G06G07G08G10G13G16G19G20G23G30
  21885355.664 6 -13861311.067 6 -10566233.28647  21885347.02747
  25550903.703 6   -571377.884 6   -428340.86647  25550897.93847
  22983848.422 6 -12954965.446 6  -9934489.94147  22983840.54747
  21599326.383 7 -23315084.844 7 -18110579.42648  21599316.63348
  23917082.813 5 -10632188.445 5  -8683453.37546  23917074.64546
  22534724.297 6 -15947521.656 6 -12389863.47347  22534716.07047
  20053952.781 7 -28202937.719 7 -24777246.96948  20053941.56648
  22893850.594 6 -11734914.130 6 -12768604.25047  22893840.84447
  23366586.570 6  -7139936.915 6  -6728219.78847  23366576.46947
  24474653.719 5  -5328986.793 5  -7360504.69646  24474648.30546
  20679590.914 7 -26710950.735 7 -22033107.41048  20679578.93848
  24371287.867 5  -8044684.996 5  -9250481.93445  24371280.40245
 11  4  1  1 14  0.0000000  0 12G03G05G06G07G08G10G13G16G19G20G23G30
  21882226.031 6 -13877755.937 6 -10579047.45547  21882217.57047
  25543101.250 5   -612380.441 5   -460290.88747  25543095.48447
  22983299.570 6 -12957848.365 6  -9936736.35647  22983291.69547
  21594508.242 7 -23340401.909 7 -18130306.99048  21594498.90248
  23909967.398 5 -10669575.428 5  -8712586.03546  23909960.16846
  22533265.148 6 -15955191.464 6 -12395839.93547  22533256.33647
  20052474.766 7 -28210700.768 7 -24783296.10349  20052464.66449
  22902791.273 6 -11687929.852 6 -12731993.12747  22902781.52347
  23358755.906 6  -7181083.960 6  -6760282.37147  23358746.68447
  24484790.828 4  -5275718.212 4  -7318996.79846  24484784.94546
  20684587.563 7 -26684692.090 7 -22012646.14548  20684575.99648
  24381876.219 5  -7989038.784 5  -9207121.25146  24381870.04346
 11  4  1  1 14 15.0000000  0 12G03G05G06G07G08G10G13G16G19G20G23G30
  21879123.445 6 -13894058.651 6 -10591750.84947  21879114.86747
  25535314.531 6   -653301.319 6   -492177.27347  25535308.23847
  22982776.227 6 -12960597.442 6  -9938878.47747  22982768.00047
  21589699.617 7 -23365673.001 7 -18149998.72848  21589689.98448
  23902856.352 5 -10706943.192 5  -8741703.72446  23902849.29746
  22531832.516 6 -15962716.225 6 -12401703.38047  22531824.64147
  20051019.539 7 -28218349.228 7 -24789255.93849  20051009.43849
  22911743.656 6 -11640886.023 6 -12695335.61547  22911734.08247
  23350937.164 6  -7222171.841 6  -6792298.85147  23350928.00047
  24494926.344 4  -5222458.659 4  -7277495.92646  24494919.69946
  20689605.617 7 -26658320.747 7 -21992097.05148  20689594.10948
  24392470.148 5  -7933371.068 5  -9163743.83646  24392462.74246
 11  4  1  1 14 30.0000000  0 12G03G05G06G07G08G10G13G16G19G20G23G30
  21876048.211 6 -13910218.812 6 -10604343.15747  21876039.63347
  25527542.906 5   -694140.132 5   -523999.69147  25527536.55547
  22982278.719 6 -12963212.270 6  -9940915.98847  22982270.84447
  21584899.406 7 -23390897.829 7 -18169654.43048  21584889.71548
  23895748.891 5 -10744291.665 5  -8770806.37746  23895741.77746
  22530429.125 6 -15970095.569 6 -12407453.51247  22530420.02047
  20049585.875 7 -28225882.505 7 -24795126.02249  20049576.06649
  22920707.250 6 -11593782.687 6 -12658631.72747  22920697.67647
  23343130.070 6  -7263199.821 6  -6824268.64647  23343120.67247
  24505060.320 4  -5169208.191 4  -7236002.12346  24505052.68046
  20694645.609 7 -26631836.608 7 -21971460.07348  20694634.21948
  24403067.133 5  -7877681.845 5  -9120349.63946  24403059.90246
 11  4  1  1 14 45.0000000  0 12G03G05G06G07G08G10G13G16G19G20G23G30
  21873000.375 7 -13926236.086 7 -10616824.12347  21872991.73847
  25519784.516 4   -734896.397 4   -555757.80946  25519779.86346
  22981806.898 6 -12965692.808 6  -9942848.85647  22981799.08247
  21580107.602 7 -23416076.414 7 -18189274.08648  21580098.20348
  23888646.461 5 -10781620.749 5  -8799893.93546  23888638.17646
  22529052.492 6 -15977329.453 6 -12413090.29447  22529043.62147
  20048174.695 7 -28233300.575 7 -24800906.33149  20048164.00849
  22929681.969 6 -11546620.261 6 -12621881.79847  22929672.16047
  23335334.266 6  -7304167.551 6  -6856191.50247  23335323.98847
  24515190.531 3  -5115967.184 3  -7194515.69646  24515184.00446
  20699706.781 7 -26605239.781 7 -21950735.28148  20699695.33248
  24413669.070 5  -7821971.441 5  -9076938.93946  24413661.89846
 11  4  1  1 15  0.0000000  0 12G03G05G06G07G08G10G13G16G19G20G23G30
  21869979.516 6 -13942109.895 6 -10629193.29747  21869971.28947
  25512038.203 1   -775569.592 1   -587451.24446  25512039.76646
  22981360.438 6 -12968038.636 6  -9944676.75347  22981352.56347
  21575325.609 7 -23441208.483 7 -18208857.50548  21575315.68448
  23881546.047 5 -10818930.076 5  -8828966.09046  23881538.75846
  22527703.383 6 -15984417.719 6 -12418613.61647  22527694.86347
  20046784.773 7 -28240603.056 7 -24806596.57049  20046774.02749
  22938667.680 6 -11499398.850 6 -12585085.90147  22938658.16447
  23327550.094 6  -7345074.327 6  -6888066.87147  23327540.40247
  24525319.273 2  -5062735.692 2  -7153036.68846  24525313.85946
  20704789.641 7 -26578530.028 7 -21929922.50148  20704777.78148
  24424274.258 5  -7766239.830 5  -9033511.72446  24424267.49646
 11  4  1  1 15 15.0000000  0 11G03G06G07G08G10G13G16G19G20G23G30   
  21866986.563 6 -13957839.720 6 -10641450.28447  21866978.10247
  22980939.438 6 -12970249.330 6  -9946399.35647  22980931.68047
  21570551.984 7 -23466293.645 7 -18228404.36948  21570541.94148
  23874450.539 6 -10856219.379 6  -8858022.64346  23874442.37146
  22526382.656 6 -15991359.946 6 -12424023.12947  22526373.96147
  20045417.461 7 -28247789.407 7 -24812196.33349  20045407.00849
  22947665.484 6 -11452118.352 6 -12548243.97247  22947655.50047
  23319776.992 5  -7385919.493 5  -6919894.21547  23319767.41847
  24535448.117 2  -5009513.652 2  -7111565.06946  24535442.35246
  20709893.797 7 -26551706.990 7 -21909021.44748  20709882.17248
  24434883.484 5  -7710487.031 5  -8990068.02446  24434877.01646
 11  4  1  1 15 30.0000000  0 11G03G06G07G08G10G13G16G19G20G23G30   
  21864020.078 6 -13973427.056 6 -10653596.23347  21864011.91047
  22980544.727 6 -12972326.458 6  -9948017.87647  22980536.38347
  21565786.969 7 -23491333.619 7 -18247916.01948  21565777.57048
  23867357.742 5 -10893490.309 5  -8887064.89746  23867349.92646
  22525088.438 6 -15998157.595 6 -12429319.98447  22525080.15247
  20044071.570 7 -28254860.926 7 -24817706.59849  20044061.17649
  22956672.875 6 -11404780.811 6 -12511357.60047  22956662.94947
  23312015.781 5  -7426704.171 5  -6951674.42847  23312006.50047
  24545573.633 3  -4956303.119 3  -7070102.40146  24545568.45346
  20715019.219 7 -26524772.428 7 -21888033.48948  20715007.71148
  24445496.477 5  -7654714.886 5  -8946609.21746  24445489.42246
 11  4  1  1 15 45.0000000  0 12G03G05G06G07G08G10G13G16G19G20G23G30
  21861065.719 6 -13988953.932 6 -10665695.06747  21861056.96547
  25488984.99211    323376.95411                
  22980159.555 6 -12974352.125 6  -9949596.30447  22980150.85947
  21561014.844 7 -23516410.510 7 -18267456.44548  21561005.68048
  23860253.008 5 -10930825.099 5  -8916156.88446  23860245.42646
  22523806.883 6 -16004892.904 6 -12434568.28347  22523798.53947
  20042732.383 7 -28261899.707 7 -24823191.35649  20042721.93049
  22965676.211 6 -11357468.719 6 -12474491.03747  22965666.52047
  23304251.070 5  -7467510.161 5  -6983471.26147  23304241.55547
  24555680.805 3  -4903186.425 3  -7028712.85946  24555676.21146
  20720150.336 7 -26497808.573 7 -21867022.69748  20720138.77048
  24456097.391 5  -7599005.996 5  -8903199.70446  24456089.98446
 11  4  1  1 16  0.0000000  0 12G03G05G06G07G08G10G13G16G19G20G23G30
  21858168.047 6 -14004177.375 6 -10677557.47647  21858160.17247
  25481248.742 5    283113.576 5  -1798233.22456  25481232.30956
  22979829.938 6 -12976083.625 6  -9950945.50947  22979821.94547
  21556282.109 7 -23541281.708 7 -18286836.57848  21556272.71148
  23853182.914 5 -10967981.085 5  -8945109.55346  23853175.09846
  22522583.258 6 -16011323.316 6 -12439578.98447  22522574.79747
  20041445.555 7 -28268662.840 7 -24828461.33048  20041434.57448
  22974720.703 6 -11309939.679 6 -12437455.44447  22974710.95347
  23296527.391 6  -7508094.491 6  -7015095.36347  23296517.64147
  24565816.391 2  -4849921.307 2  -6987207.68146  24565811.68046
  20725333.383 7 -26470572.813 7 -21845800.04248  20725321.64148
  24466733.094 5  -7543117.888 5  -8859650.56946  24466725.80546
 11  4  1  1 16 15.0000000  0 12G03G05G06G07G08G10G13G16G19G20G23G30
  21855284.328 6 -14019332.541 6 -10689366.66447  21855275.86747
  25473589.078 4    242858.357 4  -1829600.82446  25473573.64146
  22979511.516 6 -12977756.325 6  -9952248.88847  22979502.99647
  21551543.586 7 -23566182.576 7 -18306239.83748  21551534.01248
  23846101.375 5 -11005193.805 5  -8974106.42746  23846093.14846
  22521372.891 6 -16017684.213 6 -12444535.52047  22521364.31347
  20040165.922 7 -28275385.688 7 -24833699.91149  20040155.58649
  22983761.805 6 -11262429.552 6 -12400434.57547  22983751.64547
  23288802.266 5  -7548692.044 5  -7046729.77547  23288792.86747
  24575936.297 2  -4796743.504 2  -6945770.49245  24575931.11745
  20730522.898 7 -26443300.732 7 -21824549.08148  20730511.15648
  24477357.742 5  -7487286.388 5  -8816145.51546  24477350.62946
 11  4  1  1 16 30.0000000  0 12G03G05G06G07G08G10G13G16G19G20G23G30
  21852427.953 6 -14034343.467 6 -10701063.46747  21852419.84447
  25465943.781 5    202687.512 5  -1860902.70446  25465931.57046
  22979218.695 6 -12979294.378 6  -9953447.35547  22979210.87947
  21546814.070 7 -23591037.377 7 -18325607.20748  21546804.55548
  23839023.547 6 -11042387.366 6  -9003088.38546  23839015.49646
  22520189.789 6 -16023899.830 6 -12449378.84947  22520181.27047
  20038909.016 7 -28281992.445 7 -24838848.02949  20038898.68049
  22992813.070 6 -11214862.853 6 -12363369.62547  22992803.61347
  23281088.172 6  -7589226.685 6  -7078315.16147  23281078.77347
  24586054.063 1  -4743577.671 1  -6904342.66845  24586048.35545
  20735733.852 7 -26415916.564 7 -21803210.78448  20735722.22748
  24487985.227 5  -7431436.069 5  -8772625.81346  24487978.40646
 11  4  1  1 16 45.0000000  0 12G03G05G06G07G08G10G13G16G19G20G23G30
  21849599.359 6 -14049209.700 6 -10712647.52447  21849590.48847
  25458315.094 5    162601.712 5  -1892138.35246  25458304.93446
  22978951.523 6 -12980697.281 6  -9954540.49347  22978943.18047
  21542092.914 7 -23615845.666 7 -18344938.32248  21542083.69148
  23831948.844 5 -11079561.448 5  -9032055.13147  23831942.08247
  22519034.859 6 -16029969.848 6 -12454108.72647  22519026.51647
  20037673.969 7 -28288482.386 7 -24843905.12648  20037663.39848
  23001875.648 6 -11167239.487 6 -12326260.52547  23001866.07447
  23273386.922 5  -7629697.628 5  -7109850.91447  23273377.87547
  24596167.836 1  -4690423.819 1  -6862924.13545  24596162.53945
  20740966.008 7 -26388420.139 7 -21781785.01148  20740954.55948
  24498616.680 4  -7375566.646 4  -8729091.23146  24498609.80146
 11  4  1  1 17  0.0000000  0 12G03G05G06G07G08G10G13G16G19G20G23G30
  21846797.758 6 -14063931.504 6 -10724119.02847  21846789.76647
  25450703.586 4    122600.564 4  -1923308.04946  25450693.13346
  22978710.539 6 -12981965.364 6  -9955528.60247  22978702.25447
  21537381.180 7 -23640607.894 7 -18364233.55348  21537371.19548
  23824878.914 6 -11116716.616 6  -9061007.15647  23824871.91847
  22517907.406 6 -16035894.609 6 -12458725.40947  22517898.65247
  20036460.891 7 -28294855.884 7 -24848871.48448  20036450.43848
  23010948.813 6 -11119560.317 6 -12289107.93247  23010938.53547
  23265698.031 5  -7670105.181 5  -7141337.25847  23265688.92647
  24606281.313 2  -4637282.690 2  -6821515.55846  24606276.01646
  20746219.789 7 -26360811.868 7 -21760272.08748  20746208.69148
  24509252.383 4  -7319678.966 4  -8685542.37746  24509244.85946
 11  4  1  1 17 15.0000000  0 12G03G05G06G07G08G10G13G16G19G20G23G30
  21844023.828 6 -14078508.459 6 -10735477.67748  21844015.48448
  25443109.227 4     82684.619 4  -1954411.36546  25443098.18846
  22978494.773 6 -12983098.689 6  -9956411.68947  22978485.90247
  21532677.563 7 -23665324.152 7 -18383492.96048  21532667.81348
  23817812.438 6 -11153852.545 6  -9089944.19347  23817805.20747
  22516807.836 6 -16041674.057 6 -12463228.88347  22516799.25847
  20035270.227 7 -28301112.607 7 -24853746.85148  20035259.65648
  23020032.008 6 -11071825.623 6 -12251912.07847  23020022.78547
  23258020.391 5  -7710448.679 5  -7172773.69747  23258011.10947
  24616392.023 2  -4584154.358 2  -6780116.94145  24616386.19945
  20751495.016 7 -26333091.788 7 -21738672.03248  20751483.33248
  24519890.898 4  -7263773.258 4  -8641979.55246  24519884.02046
 11  4  1  1 17 30.0000000  0 12G03G05G06G07G08G10G13G16G19G20G23G30
  21841277.328 6 -14092940.397 6 -10746723.31547  21841268.98447
  25435529.203 3     42854.056 3  -1985448.12646  25435518.75046
  22978304.750 6 -12984096.964 6  -9957189.54747  22978296.75847
  21527982.930 7 -23689994.222 7 -18402716.37448  21527973.06348
  23810749.836 6 -11190969.292 6  -9118866.28247  23810741.43447
  22515735.266 6 -16047308.118 6 -12467619.05147  22515726.62947
  20034101.773 7 -28307252.471 7 -24858531.15449  20034091.55549
  23029126.547 6 -11024035.792 6 -12214673.26247  23029117.14847
  23250355.891 6  -7750727.696 6  -7204159.89147  23250346.60947
  24626499.445 3  -4531039.133 3  -6738728.52646  24626493.09446
  20756791.023 7 -26305259.927 7 -21716984.88348  20756779.39848
  24530532.906 3  -7207849.829 3  -8598402.86745  24530525.38345
 11  4  1  1 17 45.0000000  0 12G03G05G06G07G08G10G13G16G19G20G23G30
  21838558.703 6 -14107227.526 6 -10757856.12047  21838550.30147
  25427974.820 2      3108.735 2  -2016418.42346  25427955.75046
  22978140.656 6 -12984960.596 6  -9957862.49547  22978132.25447
  21523297.266 7 -23714618.543 7 -18421904.14748  21523287.69148
  23803689.578 6 -11228067.286 6  -9147773.76947  23803682.46547
  22514691.063 6 -16052797.260 6 -12471896.29747  22514682.36747
  20032955.844 7 -28313275.780 7 -24863224.64149  20032945.21549
  23038230.727 6 -10976191.488 6 -12177392.00847  23038221.21147
  23242703.133 5  -7790942.318 5  -7235495.90347  23242693.20747
  24636604.500 3  -4477937.940 3  -6697351.06846  24636598.03146
  20762108.617 7 -26277316.858 7 -21695211.06948  20762096.75848
  24541178.086 3  -7151909.512 3  -8554813.02645  24541170.03545
 11  4  1  1 18  0.0000000  0 12G03G05G06G07G08G10G13G16G19G20G23G30
  21835867.422 6 -14121369.348 6 -10768875.69447  21835859.19547
  25420428.953 3    -36550.501 3  -2047321.66245  25420408.53545
  22978001.531 6 -12985689.315 6  -9958430.30947  22977993.42247
  21518620.094 7 -23739196.825 7 -18441056.03848  21518610.63748
  23796633.664 6 -11265146.271 6  -9176666.43647  23796625.78947
  22513674.102 6 -16058141.081 6 -12476060.30947  22513665.34847
  20031831.656 7 -28319182.097 7 -24867826.96149  20031821.43849
  23047345.109 6 -10928292.731 6 -12140068.31347  23047336.35547
  23235062.859 5  -7831091.936 5  -7266781.27447  23235053.34447
  24646705.375 3  -4424850.794 3  -6655984.57145  24646700.48845
  20767447.070 7 -26249262.364 7 -21673350.43748  20767435.56348
  24551826.797 3  -7095952.149 3  -8511209.90045  24551818.74645
 11  4  1  1 18 15.0000000  0 12G03G05G06G07G08G10G13G16G19G20G23G30
  21833203.891 6 -14135365.745 6 -10779781.96147  21833195.54747
  25412913.641 1    -76123.873 1  -2078157.93645  25412878.45345
  22977888.898 6 -12986283.090 6  -9958892.97347  22977880.49647
  21513951.672 7 -23763729.248 7 -18460172.19848  21513941.92248
  23789581.125 6 -11302206.382 6  -9205544.39647  23789573.71947
  22512684.383 6 -16063339.876 6 -12480111.30947  22512675.80547
  20030730.016 7 -28324971.181 7 -24872337.93049  20030719.85549
  23056471.047 6 -10880340.052 6 -12102702.60247  23056461.12147
  23227435.867 6  -7871176.160 6  -7298015.68547  23227425.23847
  24656805.813 4  -4371778.312 4  -6614629.46845  24656800.39845
  20772806.961 7 -26221096.550 7 -21651403.06248  20772794.86748
  24562478.445 2  -7039978.235 2  -8467593.91145  24562470.27745
 11  4  1  1 18 30.0000000  0 12G03G05G06G07G08G10G13G16G19G20G23G30
  21830570.188 6 -14149206.391 6 -10790566.86247  21830561.78547
  25405414.32811                                
  22977803.594 6 -12986731.714 6  -9959242.54747  22977794.78147
  21509293.828 7 -23788205.540 7 -18479244.61948  21509284.43048
  23782534.320 6 -11339237.272 6  -9234399.60447  23782527.03147
  22511725.023 6 -16068383.288 6 -12484041.24147  22511716.62147
  20029652.836 7 -28330632.689 7 -24876749.49549  20029642.44149
  23065608.375 6 -10832323.532 6 -12065287.15547  23065598.50847
  23219822.219 6  -7911184.320 6  -7329190.82847  23219812.17647
  24666905.141 5  -4318710.492 5  -6573277.98045  24666898.61345
  20778189.414 7 -26192809.353 7 -21629361.10348  20778177.96548
  24573134.391 2  -6983977.874 2  -8423957.32245  24573126.80945
 11  4  1  1 18 45.0000000  0 12G03G05G06G07G08G10G13G16G19G20G23G30
  21827962.594 6 -14162908.895 6 -10801244.11647  21827954.48447
  25397912.70311                                
  22977742.164 6 -12987052.940 6  -9959492.82347  22977733.64547
  21504643.547 7 -23812643.629 7 -18498287.27748  21504633.91448
  23775489.539 6 -11376257.067 6  -9263246.14047  23775482.36747
  22510791.617 6 -16073289.362 6 -12487864.15547  22510782.86347
  20028596.219 7 -28336184.473 7 -24881075.56049  20028586.00049
  23074754.195 6 -10784261.390 6 -12027836.15447  23074744.27047
  23212218.945 6  -7951133.924 6  -7360320.31147  23212210.01647
  24676999.523 5  -4265665.464 5  -6531944.26945  24676992.76245
  20783592.234 7 -26164418.763 7 -21607238.57448  20783580.72748
  24583792.586 2  -6927969.160 2  -8380314.21045  24583785.18045
 11  4  1  1 19  0.0000000  0 11G03G06G07G08G10G13G16G19G20G23G30   
  21825383.141 6 -14176464.939 6 -10811807.24647  21825374.50447
  22977707.164 6 -12987238.663 6  -9959637.53547  22977698.46947
  21500001.984 7 -23837035.370 7 -18517293.81248  21499992.52748
  23768448.828 6 -11413257.832 6  -9292077.86746  23768441.42246
  22509885.828 6 -16078049.969 6 -12491573.72147  22509876.89847
  20027562.320 7 -28341618.251 7 -24885309.66949  20027551.92649
  23083909.961 6 -10736145.960 6 -11990343.62547  23083900.56347
  23204629.805 5  -7991016.482 5  -7391397.58047  23204620.28947
  24687090.680 5  -4212635.553 5  -6490622.35646  24687083.91846
  20789015.883 7 -26135916.874 7 -21585029.32448  20789004.49248
  24594454.195 2  -6871944.318 2  -8336658.50845  24594446.37945
 11  4  1  1 19 15.0000000  0 12G03G05G06G07G08G10G13G16G19G20G23G30
  21822831.555 7 -14189874.649 7 -10822256.35248  21822823.15248
  25382938.42211                                
  22977697.438 6 -12987289.140 6  -9959676.86047  22977688.80147
  21495369.383 7 -23861380.971 7 -18536264.39748  21495359.57448
  23761411.688 6 -11450239.640 6  -9320894.82947  23761403.63747
  22509007.359 6 -16082665.303 6 -12495170.08947  22508998.78147
  20026550.711 7 -28346934.241 7 -24889451.99649  20026540.02349
  23093076.164 6 -10687977.803 6 -11952810.03047  23093066.70747
  23197053.461 6  -8030831.955 6  -7422422.56447  23197043.77047
  24697178.891 5  -4159621.217 5  -6449312.52846  24697173.30146
  20794460.969 7 -26107303.860 7 -21562733.47948  20794449.28548
  24605117.867 2  -6815903.863 2  -8292990.63445  24605110.34445
 11  4  1  1 19 30.0000000  0 12G03G05G06G07G08G10G13G16G19G20G23G30
  21820306.289 6 -14203143.063 6 -10832595.36247  21820297.65247
  25375484.32011   -478748.38911                
  22977712.422 6 -12987209.443 6  -9959614.73647  22977703.96147
  21490743.758 7 -23885685.690 7 -18555203.11948  21490734.41848
  23754376.828 6 -11487207.582 6  -9349700.99147  23754368.95347
  22508155.539 6 -16087140.702 6 -12498657.41047  22508147.25447
  20025560.625 7 -28352137.490 7 -24893506.47349  20025549.99649
  23102251.250 6 -10639762.452 6 -11915239.63147  23102241.85247
  23189488.648 5  -8070585.113 5  -7453399.00247  23189479.42647
  24707262.727 5  -4106628.120 5  -6408019.32245  24707257.13745
  20799925.977 7 -26078585.036 7 -21540355.18648  20799914.64548
  24615783.453 2  -6759853.331 2  -8249314.91745  24615776.04745
 11  4  1  1 19 45.0000000  0 12G03G05G06G07G08G10G13G16G19G20G23G30
  21817811.086 6 -14216257.119 6 -10842814.08847  21817802.56647
  25368054.961 3   -517793.389 3                
  22977754.703 6 -12986986.736 6  -9959441.18947  22977746.59447
  21486129.430 7 -23909936.657 7 -18574099.96448  21486119.68048
  23747346.891 6 -11524148.798 6  -9378486.31947  23747339.19147
  22507333.188 6 -16091463.215 6 -12502025.59847  22507324.84447
  20024594.406 7 -28357214.951 7 -24897462.93749  20024583.77749
  23111437.688 6 -10591487.449 6 -11877622.76947  23111428.69947
  23181938.156 5  -8110262.791 5  -7484316.62947  23181928.69947
  24717346.023 5  -4053643.722 5  -6366732.83145  24717338.55945
  20805413.539 7 -26049747.736 7 -21517884.57948  20805401.62148
  24626453.109 2  -6703780.311 2  -8205621.69845  24626447.16845
 11  4  1  1 20  0.0000000  0 12G03G05G06G07G08G10G13G16G19G20G23G30
  21815343.398 6 -14229224.461 6 -10852918.49947  21815334.52747
  25360642.461 3   -556750.396 3                
  22977822.883 6 -12986628.810 6  -9959162.27147  22977814.71547
  21481523.125 7 -23934141.764 7 -18592961.07948  21481513.55148
  23740320.688 6 -11561071.186 6  -9407256.96747  23740313.28147
  22506537.930 6 -16095640.850 6 -12505280.90347  22506529.99647
  20023650.422 7 -28362174.193 7 -24901327.27249  20023640.02749
  23120634.250 6 -10543160.888 6 -11839965.72847  23120624.50047
  23174400.289 5  -8149872.352 5  -7515181.16347  23174391.24247
  24727426.219 5  -4000676.262 5  -6325459.58445  24727417.87545
  20810922.156 7 -26020799.940 7 -21495327.86048  20810910.53148
  24637126.148 2  -6647692.885 2  -8161917.26846  24637120.03146
 11  4  1  1 20 15.0000000  0 12G03G05G06G07G08G10G13G16G19G20G23G30
  21812903.898 7 -14242044.297 7 -10862907.96247  21812895.08647
  25353243.547 4   -595618.464 4  -3428319.31856  25353235.73056
  22977917.055 6 -12986134.793 6  -9958777.31547  22977908.47747
  21476926.000 7 -23958300.279 7 -18611785.88248  21476916.42648
  23733298.891 6 -11597974.138 6  -9436012.47847  23733290.78147
  22505770.773 6 -16099672.959 6 -12508422.80647  22505762.37147
  20022729.750 7 -28367014.523 7 -24905098.95949  20022719.29749
  23129840.195 6 -10494782.555 6 -11802268.33547  23129830.32847
  23166876.320 5  -8189412.876 5  -7545991.90047  23166866.98047
  24737500.930 6  -3947725.260 6  -6284199.08645  24737494.75445
  20816451.961 7 -25991741.048 7 -21472684.58648  20816440.51248
  24647801.992 1  -6591590.690 1  -8118201.25945  24647795.81645
 11  4  1  1 20 30.0000000  0 12G03G05G06G07G08G10G13G16G19G20G23G30
  21810492.070 7 -14254716.056 7 -10872782.03947  21810483.84447
  25345865.680 4   -634397.159 4  -3458536.38546  25345857.33646
  22978036.805 6 -12985504.680 6  -9958286.29447  22978028.34447
  21472337.547 7 -23982411.869 7 -18630574.12448  21472328.20748
  23726279.922 6 -11634857.505 6  -9464752.72647  23726272.57447
  22505031.391 6 -16103559.175 6 -12511451.03547  22505023.10547
  20021831.234 7 -28371735.543 7 -24908777.67949  20021821.01649
  23139055.742 6 -10446352.439 6 -11764530.61147  23139046.10947
  23159364.859 6  -8228883.659 6  -7576748.30247  23159355.40247
  24747574.336 6  -3894790.955 6  -6242951.61345  24747567.63345
  20822002.703 7 -25962570.865 7 -21449954.58648  20821991.78148
  24658480.242 3  -6535473.688 3  -8074473.74846  24658474.47746
 11  4  1  1 20 45.0000000  0 12G03G05G06G07G08G10G13G16G19G20G23G30
  21808109.133 6 -14267240.455 6 -10882541.29947  21808100.55547
  25338501.938 5   -673086.899 5  -3488684.28846  25338495.52746
  22978182.430 6 -12984738.998 6  -9957689.64047  22978174.20347
  21467757.836 7 -24006477.388 7 -18649326.44648  21467748.55548
  23719264.594 6 -11671722.105 6  -9493478.35147  23719257.07047
  22504319.602 6 -16107300.430 6 -12514366.29447  22504310.67247
  20020955.477 7 -28376337.940 7 -24912363.95749  20020944.73049
  23148281.945 6 -10397871.621 6 -11726753.35547  23148272.37147
  23151866.781 6  -8268285.038 6  -7607450.61847  23151857.96947
  24757643.375 6  -3841874.350 6  -6201717.98646  24757637.66846
  20827574.586 7 -25933290.290 7 -21427138.56748  20827562.84448
  24669162.211 3  -6479343.016 3  -8030735.58846  24669155.91846
 11  4  1  1 21  0.0000000  0 12G03G05G06G07G08G10G13G16G19G20G23G30
  21805754.031 6 -14279616.430 6 -10892184.89647  21805745.45347
  25331152.617 1   -711686.605 1  -3518761.96946  25331148.60946
  22978354.414 6 -12983836.959 6  -9956986.74447  22978345.54347
  21463187.266 7 -24030496.063 7 -18668042.28548  21463177.69148
  23712253.039 6 -11708567.010 6  -9522188.63647  23712245.80947
  22503635.063 6 -16110895.826 6 -12517167.91047  22503626.42647
  20020102.422 7 -28380820.655 7 -24915856.97749  20020092.08649
  23157517.438 6 -10349339.542 6 -11688936.17047  23157507.57047
  23144383.547 5  -8307615.656 5  -7638097.80947  23144373.21147
  24767710.109 5  -3788974.875 5  -6160497.71445  24767704.34445
  20833167.820 7 -25903898.490 7 -21404235.87648  20833156.25448
  24679846.547 3  -6423198.088 3  -7986986.29946  24679840.02046
 11  4  1  1 21 15.0000000  0 12G03G05G06G07G08G10G13G16G19G20G23G30
  21803427.266 6 -14291844.006 6 -10901712.85647  21803418.51247
  25323825.102 2   -750196.100 2  -3548769.36945  25323821.62145
  22978552.164 6 -12982798.639 6  -9956177.65347  22978543.52747
  21458625.820 7 -24054468.028 7 -18686721.71048  21458616.24648
  23705245.578 6 -11745392.497 6  -9550883.78947  23705238.58247
  22502978.836 6 -16114345.613 6 -12519856.05047  22502970.08247
  20019271.703 7 -28385183.667 7 -24919256.71749  20019261.66049
  23166761.766 6 -10300756.725 6 -11651079.45047  23166752.19147
  23136911.414 6  -8346875.451 6  -7668689.79847  23136902.01647
  24777773.125 5  -3736093.263 5  -6119291.33846  24777768.18046
  20838781.922 7 -25874395.834 7 -21381246.79948  20838770.41448
  24690533.266 3  -6367039.389 3  -7943226.29146  24690526.85546
 11  4  1  1 21 30.0000000  0 12G03G05G06G07G08G10G13G16G19G20G23G30
  21801128.875 6 -14303922.997 6 -10911125.04047  21801119.82847
  25316512.820 3   -788614.911 3  -3578706.23446  25316511.50846
  22978775.406 6 -12981624.014 6  -9955262.34847  22978766.88747
  21454073.305 7 -24078393.289 7 -18705364.75248  21454063.43848
  23698241.258 6 -11782198.570 6  -9579563.81347  23698234.08647
  22502349.805 6 -16117649.853 6 -12522430.80047  22502341.57847
  20018464.586 7 -28389426.901 7 -24922563.13749  20018454.07449
  23176016.078 6 -10252123.713 6 -11613183.60947  23176007.38347
  23129454.750 6  -8386063.862 6  -7699226.16947  23129444.64847
  24787833.445 6  -3683229.658 6  -6078098.95746  24787826.91846
  20844417.344 7 -25844782.369 7 -21358171.38648  20844405.60248
  24701222.516 4  -6310867.236 4  -7899455.80646  24701215.98846
 11  4  1  1 21 45.0000000  0 12G03G05G06G07G08G10G13G16G19G20G23G30
  21798858.273 6 -14315853.595 6 -10920421.58947  21798849.75447
  25309221.297 2   -826943.393 2  -3608572.66745  25309217.69945
  22979024.641 6 -12980313.446 6  -9954241.10347  22979016.29747
  21449528.805 7 -24102272.146 7 -18723971.63648  21449518.99648
  23691241.016 6 -11818985.441 6  -9608228.86947  23691233.72747
  22501748.656 6 -16120808.830 6 -12524892.34047  22501740.07847
  20017679.766 7 -28393550.559 7 -24925776.37149  20017669.43049
  23185280.430 6 -10203441.135 6 -11575249.16047  23185271.50047
  23122010.414 6  -8425181.118 6  -7729707.09747  23122001.13347
  24797889.398 5  -3630384.784 5  -6036921.19046  24797883.10546
  20850073.344 7 -25815058.567 7 -21335009.99548  20850061.95348
  24711914.461 5  -6254682.312 5  -7855675.36246  24711907.34846
 11  4  1  1 22  0.0000000  0 12G03G05G06G07G08G10G13G16G19G20G23G30
  21796616.336 6 -14327635.554 6 -10929602.31747  21796607.58247
  25301945.625 4   -865181.258 4  -3638368.53745  25301942.49645
  22979299.766 6 -12978866.677 6  -9953113.73647  22979291.42247
  21444993.805 7 -24126104.394 7 -18742542.20648  21444984.23048
  23684244.578 6 -11855753.098 6  -9636878.95647  23684237.28947
  22501175.336 6 -16123822.524 6 -12527240.66947  22501167.16847
  20016917.891 7 -28397554.332 7 -24928896.19449  20016907.67249
  23194553.953 6 -10154709.153 6 -11537276.20647  23194544.84847
  23114580.641 6  -8464226.611 6  -7760132.10247  23114571.24247
  24807942.406 5  -3577558.654 5  -5995758.03246  24807935.46946
  20855750.719 7 -25785224.379 7 -21311762.59148  20855739.21148
  24722608.672 5  -6198484.682 5  -7811885.01546  24722601.91046
 11  4  1  1 22 15.0000000  0 12G03G05G06G07G08G10G13G16G19G20G23G30
  21794402.313 6 -14339268.858 6 -10938667.20647  21794393.96947
  25294687.570 5   -903328.315 5  -3668093.47346  25294685.08646
  22979600.836 6 -12977283.873 6  -9951880.36247  22979592.84447
  21440467.570 7 -24149890.268 7 -18761076.63548  21440457.82048
  23677250.930 6 -11892501.767 6  -9665514.24247  23677244.34447
  22500629.586 6 -16126691.163 6 -12529475.98347  22500620.71547
  20016178.992 7 -28401438.223 7 -24931922.59249  20016168.77349
  23203836.523 6 -10105928.303 6 -11499265.17447  23203827.30147
  23107164.352 6  -8503200.225 6  -7790501.10747  23107154.54347
  24817991.508 5  -3524751.852 5  -5954609.95246  24817984.33646
  20861449.086 7 -25755280.160 7 -21288429.44948  20861437.52048
  24733304.555 5  -6142274.817 5  -7768085.11246  24733298.02746
 11  4  1  1 22 30.0000000  0 12G03G05G06G07G08G10G13G16G19G20G23G30
  21792216.703 6 -14350753.243 6 -10947616.05647  21792208.30147
  25287445.758 6   -941384.176 6  -3697747.57845  25287444.03545
  22979928.398 6 -12975565.036 6  -9950540.99747  22979919.87947
  21435949.930 7 -24173629.761 7 -18779574.92448  21435940.47348
  23670262.047 6 -11929231.259 6  -9694134.59147  23670254.40647
  22500111.555 6 -16129414.598 6 -12531598.14547  22500102.97747
  20015462.484 7 -28405202.062 7 -24934855.45948  20015452.20748
  23213128.750 6 -10057098.827 6 -11461216.25147  23213119.17647
  23099761.875 6  -8542101.466 6  -7820813.72247  23099752.12547
  24828036.250 5  -3471964.818 5  -5913477.29046  24828029.95746
  20867168.172 7 -25725225.941 7 -21265010.58548  20867156.60548
  24744003.797 5  -6086052.966 5  -7724275.91746  24743997.03546
 11  4  1  1 22 45.0000000  0 12G03G05G06G07G08G10G13G16G19G20G23G30
  21790060.172 6 -14362087.967 6 -10956448.29447  21790051.59447
  25280221.328 5   -979348.075 5  -3727329.91145  25280222.42245
  22980281.719 6 -12973709.531 6  -9949095.12847  22980273.08247
  21431441.508 7 -24197322.359 7 -18798036.67148  21431431.75848
  23663276.156 6 -11965941.070 6  -9722739.61647  23663268.80947
  22499620.625 6 -16131992.455 6 -12533606.86747  22499612.04747
  20014769.578 7 -28408845.329 7 -24937694.37049  20014759.24249
  23222430.344 6 -10008220.592 6 -11423129.33847  23222420.71147
  23092372.930 6  -8580929.441 6  -7851069.23747  23092362.82847
  24838078.016 5  -3419197.364 5  -5872359.86246  24838071.43046
  20872908.219 7 -25695061.408 7 -21241505.76548  20872896.88748
  24754704.695 5  -6029818.985 5  -7680457.23846  24754697.69946
 11  4  1  1 23  0.0000000  0 12G03G05G06G07G08G10G13G16G19G20G23G30
  21787931.555 7 -14373272.962 7 -10965163.84347  21787923.15247
  25273014.789 5  -1017219.832 5  -3756840.21845  25273017.52345
  22980660.141 6 -12971717.454 6  -9947542.84847  22980651.91447
  21426942.047 7 -24220968.013 7 -18816461.85448  21426932.00448
  23656294.227 6 -12002631.343 6  -9751329.40547  23656286.76247
  22499157.781 6 -16134424.813 6 -12535502.20847  22499149.14547
  20014099.016 7 -28412367.927 7 -24940439.24849  20014088.85549
  23231740.414 6  -9959294.004 6 -11385004.72647  23231731.07447
  23084997.867 6  -8619683.700 6  -7881267.31547  23084987.82447
  24848114.898 4  -3366449.849 4  -5831257.99546  24848109.42646
  20878669.391 7 -25664786.615 7 -21217915.03648  20878657.82448
  24765408.016 5  -5973573.197 5  -7636629.36546  24765401.19546
 11  4  1  1 23 15.0000000  0 12G03G05G06G07G08G10G13G16G19G20G23G30
  21785831.633 7 -14384308.218 7 -10973762.73147  21785822.70347
  25265824.539 6  -1054999.277 6  -3786279.14545  25265829.09045
  22981065.656 6 -12969588.914 6  -9945884.23147  22981056.96147
  21422451.125 7 -24244566.961 7 -18834850.62548  21422441.66848
  23649316.172 6 -12039302.196 6  -9779904.04846  23649308.35546
  22498722.883 6 -16136711.951 6 -12537284.40047  22498714.01247
  20013452.000 7 -28415769.800 7 -24943090.04749  20013441.31349
  23241059.750 6  -9910319.526 6 -11346842.81747  23241050.58647
  23077637.352 6  -8658364.131 6  -7911407.87047  23077627.54347
  24858149.063 5  -3313722.643 5  -5790171.94746  24858143.47346
  20884451.133 7 -25634401.824 7 -21194238.58148  20884439.85948
  24776113.352 5  -5917315.953 5  -7592792.55446  24776106.94146
 11  4  1  1 23 30.0000000  0 12G03G05G06G07G08G10G13G16G19G20G23G30
  21783760.148 6 -14395193.206 6 -10982244.52447  21783751.45347
  25258651.969 5  -1092685.893 5  -3815645.22345  25258655.75845
  22981496.109 6 -12967323.548 6  -9944118.99947  22981487.82447
  21417969.117 7 -24268118.806 7 -18853202.69248  21417959.71948
  23642342.289 6 -12075953.395 6  -9808463.39647  23642333.94547
  22498315.039 6 -16138853.357 6 -12538953.02447  22498306.52047
  20012827.477 7 -28419050.414 7 -24945646.37249  20012817.25849
  23250388.633 6  -9861297.120 6 -11308643.55547  23250379.46947
  23070291.266 6  -8696969.987 6  -7941490.30647  23070280.98847
  24868178.781 4  -3261015.920 4  -5749101.82246  24868173.42646
  20890254.172 7 -25603906.883 7 -21170476.30748  20890243.25048
  24786820.383 5  -5861047.262 5  -7548946.84246  24786814.50046
 11  4  1  1 23 45.0000000  0 12G03G05G06G07G08G10G13G16G19G20G23G30
  21781717.633 6 -14405928.279 6 -10990609.50547  21781708.82047
  25251498.320 5  -1130279.652 5  -3844939.28345  25251498.59045
  22981953.734 6 -12964921.669 6  -9942247.38647  22981945.50847
  21413496.617 7 -24291623.865 7 -18871518.30248  21413486.34048
  23635370.422 6 -12112585.490 6  -9837007.84746  23635362.84046
  22497934.836 6 -16140849.496 6 -12540508.46647  22497927.02047
  20012226.070 7 -28422210.222 7 -24948108.55849  20012216.02749
  23259726.344 6  -9812227.506 6 -11270407.52047  23259717.29747
  23062958.602 6  -8735501.224 6  -7971514.59847  23062948.91047
  24878203.930 3  -3208330.187 3  -5708048.10945  24878198.80945
  20896078.266 7 -25573302.167 7 -21146628.49148  20896066.46548
  24797530.648 5  -5804767.753 5  -7505092.68746  24797523.47746
 11  4  1  1 24  0.0000000  0 12G03G05G06G07G08G10G13G16G19G20G23G30
  21779702.969 6 -14416513.051 6 -10998857.36147  21779694.56647
  25244361.680 5  -1167780.137 5  -3874160.45945  25244358.37545
  22982436.680 6 -12962383.153 6  -9940269.29947  22982428.04347
  21409033.141 7 -24315082.145 7 -18889797.47048  21409022.68848
  23628403.000 6 -12149198.210 6  -9865537.19946  23628396.23846
  22497583.203 6 -16142700.318 6 -12541950.66147  22497574.15647
  20011647.898 7 -28425248.807 7 -24950476.28149  20011637.27049
  23269073.117 6  -9763111.000 6 -11232134.92547  23269063.01647
  23055640.891 6  -8773957.347 6  -8001480.36247  23055630.90647
  24888225.383 3  -3155665.777 3  -5667010.95245  24888220.02745
  20901923.133 7 -25542587.696 7 -21122695.15148  20901911.62548
  24808243.016 5  -5748477.683 5  -7461230.29546  24808235.19946
 11  4  1  1 24 15.0000000  0 12G03G05G06G07G08G10G13G16G19G20G23G30
  21777717.641 6 -14426947.057 6 -11006987.72547  21777709.06347
  25237243.117 5  -1205186.992 5  -3903308.69846  25237239.87146
  22982945.305 6 -12959707.629 6  -9938184.45947  22982937.07847
  21404577.539 7 -24338493.237 7 -18908039.87248  21404567.73048
  23621440.680 6 -12185791.127 6  -9894051.11347  23621432.16047
  22497258.188 6 -16144405.749 6 -12543279.57947  22497249.37547
  20011092.875 7 -28428165.711 7 -24952749.19349  20011082.77349
  23278428.406 6  -9713947.543 6 -11193825.75247  23278418.48047
  23048336.992 6  -8812337.707 6  -8031387.09947  23048326.94947
  24898242.750 3  -3103022.639 3  -5625990.41745  24898238.39145
  20907788.680 7 -25511763.280 7 -21098676.13648  20907777.46548
  24818956.742 5  -5692176.933 5  -7417359.59446  24818949.21946
 11  4  1  1 24 30.0000000  0 12G03G05G06G07G08G10G13G16G19G20G23G30
  21775760.578 6 -14437230.752 6 -11015000.97647  21775751.82447
  25230143.141 5  -1242500.334 5  -3932384.04646  25230138.31346
  22983480.648 6 -12956895.720 6  -9935993.36147  22983472.42247
  21400131.445 7 -24361857.698 7 -18926245.92748  21400121.93048
  23614480.578 6 -12222364.804 6  -9922550.05147  23614472.29347
  22496961.242 6 -16145966.307 6 -12544495.59847  22496952.84047
  20010560.992 7 -28430961.442 7 -24954927.68648  20010550.48048
  23287792.781 6  -9664738.046 6 -11155480.71247  23287783.03147
  23041048.047 6  -8850642.566 6  -8061234.98747  23041037.65247
  24908256.383 2  -3050401.706 2  -5584987.17045  24908252.19945
  20913675.320 7 -25480829.666 7 -21074572.03548  20913663.81348
  24829672.320 6  -5635866.349 6  -7373481.24145  24829664.15245
 11  4  1  1 24 45.0000000  0 12G03G05G06G07G08G10G13G16G19G20G23G30
  21773832.531 6 -14447363.758 6 -11022896.81147  21773823.48447
  25223060.523 6  -1279719.767 6  -3961386.20046  25223055.46146
  22984041.672 6 -12953947.176 6  -9933695.76547  22984033.56347
  21395693.820 7 -24385175.499 7 -18944415.62748  21395684.65648
  23607523.875 6 -12258919.080 6  -9951033.86547  23607516.17647
  22496692.094 6 -16147381.766 6 -12545598.55347  22496683.69147
  20010051.992 7 -28433635.643 7 -24957011.47548  20010041.42248
  23297165.992 6  -9615482.601 6 -11117099.86447  23297156.18447
  23033773.305 6  -8888871.179 6  -8091023.47647  23033762.96947
  24918265.523 1  -2997803.098 1  -5544001.30345  24918261.51645
  20919582.375 7 -25449786.698 7 -21050382.72448  20919571.16048
  24840389.484 5  -5579546.050 5  -7329595.28345  24840381.66845
 11  4  1  1 25  0.0000000  0 12G03G05G06G07G08G10G13G16G19G20G23G30
  21771932.719 6 -14457345.644 6 -11030674.89047  21771924.55147
  25215995.727 6  -1316844.746 6  -3990314.73346  25215991.19146
  22984628.953 6 -12950861.781 6  -9931291.55047  22984620.66847
  21391265.891 7 -24408446.269 7 -18962548.68648  21391256.31648
  23600571.438 6 -12295453.834 6  -9979502.44647  23600564.20747
  22496450.633 6 -16148651.992 6 -12546588.33947  22496442.05547
  20009566.328 7 -28436187.834 7 -24959000.20049  20009556.22749
  23306547.297 6  -9566181.398 6 -11078683.35547  23306537.78147
  23026513.461 6  -8927022.854 6  -8120752.00147  23026503.06647
  24928270.711 2  -2945226.829 2  -5503032.89946  24928266.58646
  20925510.781 7 -25418634.248 7 -21026108.10048  20925499.27348
  24851108.953 6  -5523216.094 6  -7285701.80445  24851101.19545
 11  4  1  1 25 15.0000000  0 12G03G05G06G07G08G10G13G16G19G20G23G30
  21770062.320 6 -14467176.251 6 -11038335.08447  21770053.91847
  25208949.266 6  -1353875.089 6  -4019169.50746  25208943.79346
  22985242.148 6 -12947639.559 6  -9928780.70847  22985233.33647
  21386846.328 7 -24431670.144 7 -18980645.19648  21386836.81348
  23593623.469 6 -12331969.161 6 -10007955.89847  23593615.65247
  22496236.531 6 -16149777.006 6 -12547464.97447  22496227.66047
  20009103.797 7 -28438617.912 7 -24960893.76349  20009093.75449
  23315937.961 6  -9516834.748 6 -11040231.43047  23315927.97747
  23019267.602 6  -8965097.461 6  -8150420.48847  23019257.55947
  24938271.969 1  -2892673.430 1  -5462082.26645  24938267.08245
  20931459.680 7 -25387372.498 7 -21001748.31048  20931447.87948
  24861829.117 5  -5466876.984 5  -7241801.22045  24861822.59045
 11  4  1  1 25 30.0000000  0 11G03G05G06G07G08G10G13G16G19G20G23   
  21768221.000 6 -14476852.594 6 -11045875.07147  21768212.36347
  25201920.109 5  -1390807.526 5  -4047948.07346  25201915.80946
  22985881.891 6 -12944277.372 6  -9926160.81147  22985873.84047
  21382436.391 7 -24454843.976 7 -18998702.70848  21382426.93448
  23586679.023 6 -12368461.968 6 -10036391.80747  23586670.97347
  22496050.094 6 -16150753.942 6 -12548226.21447  22496041.80947
  20008665.008 7 -28440922.979 7 -24962689.91949  20008654.67249
  23325337.070 6  -9467439.957 6 -11001742.01646  23325327.32046
  23012038.297 6  -9003091.529 6  -8180026.21447  23012027.72747
  24948268.648 1  -2840140.101 1  -5421147.28445  24948263.82045
  20937429.930 7 -25355998.576 7 -20977301.11348  20937418.65648
 11  4  1  1 25 45.0000000  0 11G03G05G06G07G08G10G13G16G19G20G23   
  21766407.555 6 -14486380.282 6 -11053299.22648  21766399.27048
  25194909.359 5  -1427647.644 5  -4076654.60546  25194905.41046
  22986547.406 6 -12940781.061 6  -9923436.39547  22986538.82847
  21378034.906 7 -24477973.531 7 -19016725.72648  21378025.50848
  23579737.406 6 -12404937.999 6 -10064814.63747  23579730.46947
  22495891.563 6 -16151588.602 6 -12548876.59947  22495883.33647
  20008249.469 7 -28443108.648 7 -24964393.03649  20008239.01649
  23334744.875 6  -9418003.234 6 -10963219.89946  23334734.94946
  23004821.695 6  -9041010.371 6  -8209573.31847  23004811.88747
  24958260.375 1  -2787632.797 1  -5380232.61945  24958255.25445
  20943420.625 7 -25324518.390 7 -20952771.10548  20943409.00048
 11  4  1  1 26  0.0000000  0 12G03G05G06G07G08G10G13G16G19G20G23G28
  21764623.797 7 -14495755.478 7 -11060604.57347  21764615.10247
  25187919.102 5  -1464391.411 5  -4105286.08646  25187910.99246
  22987238.820 6 -12937147.071 6  -9920604.70247  22987230.35947
  21373642.656 7 -24501055.220 7 -19034711.46248  21373633.14148
  23572800.125 6 -12441393.761 6 -10093221.68347  23572792.60247
  22495760.383 6 -16152277.622 6 -12549413.49647  22495752.03947
  20007856.594 7 -28445171.209 7 -24966000.22949  20007846.66849
  23344160.664 6  -9368521.206 6 -10924662.48547  23344150.85547
  22997621.289 6  -9078850.218 6  -8239058.86447  22997610.77747
  24968247.594 1  -2735148.508 1  -5339335.85645  24968242.94145
  20949431.906 7 -25292928.462 7 -20928155.58948  20949420.28148
  25103213.78915   -806494.67815   -612491.72855  25103208.37555
 11  4  1  1 26 15.0000000  0 12G03G05G06G07G08G10G13G16G19G20G23G28
  21762868.203 6 -14504979.959 6 -11067792.45847  21762859.85947
  25180944.891 5  -1501040.438 5  -4133843.74946  25180935.60946
  22987955.914 6 -12933377.155 6  -9917667.09447  22987948.03947
  21369259.344 7 -24524090.871 7 -19052661.31748  21369249.35948
  23565866.648 6 -12477831.028 6 -10121614.32547  23565858.65647
  22495656.797 6 -16152822.676 6 -12549838.21647  22495648.45347
  20007487.430 7 -28447112.194 7 -24967512.68549  20007477.03549
  23353584.750 6  -9318996.071 6 -10886071.48747  23353575.35247
  22990435.211 6  -9116612.388 6  -8268483.88947  22990425.05147
  24978230.953 1  -2682689.252 1  -5298458.56445  24978225.12945
  20955463.563 7 -25261230.794 7 -20903456.13048  20955452.23048
  25093660.219 5   -856702.329 5   -651614.36246  25093654.39546
 11  4  1  1 26 30.0000000  0 12G03G05G06G07G08G10G13G16G19G20G23G28
  21761141.836 6 -14514052.993 6 -11074862.34147  21761133.49247
  25173989.297 5  -1537593.890 5  -4162326.93546  25173979.66446
  22988699.422 6 -12929470.733 6  -9914623.12847  22988691.25447
  21364884.828 7 -24547079.861 7 -19070574.80748  21364875.19548
  23558936.758 6 -12514249.240 6 -10149992.11347  23558928.82447
  22495580.594 6 -16153223.401 6 -12550150.46647  22495572.13347
  20007141.414 7 -28448930.901 7 -24968929.85449  20007130.96149
  23363017.703 6  -9269427.630 6 -10847446.74647  23363008.30547
  22983264.656 6  -9154295.884 6  -8297847.61247  22983254.14547
  24988208.188 1  -2630254.822 1  -5257600.67245  24988203.35945
  20961516.102 7 -25229424.989 7 -20878672.39748  20961504.47748
  25084110.602 5   -906883.452 5   -690716.35746  25084105.42246
 11  4  1  1 26 45.0000000  0 12G03G05G06G07G08G10G13G16G19G20G23G28
  21759444.039 6 -14522973.871 6 -11081813.65747  21759435.57847
  25167052.031 6  -1574051.087 6  -4190735.08046  25167041.87146
  22989469.047 6 -12925427.303 6  -9911472.38147  22989460.58647
  21360518.789 7 -24570021.836 7 -19088451.65948  21360509.44948
  23552009.859 6 -12550647.970 6 -10178354.72047  23552002.21947
  22495531.766 6 -16153479.134 6 -12550349.74247  22495523.71547
  20006818.672 7 -28450626.725 7 -24970251.27749  20006808.51249
  23372458.797 6  -9219815.614 6 -10808788.04246  23372449.10546
  22976108.922 6  -9191899.826 6  -8327149.33747  22976098.46947
  24998182.453 1  -2577844.673 1  -5216761.68146  24998176.80546
  20967589.164 7 -25197510.363 7 -20853803.86848  20967578.00848
  25074565.992 5   -957037.609 5   -729797.33145  25074561.16445
 11  4  1  1 27  0.0000000  0 12G03G05G06G07G08G10G13G16G19G20G23G28
  21757775.672 6 -14531742.458 6 -11088646.31047  21757767.50447
  25160133.781 6  -1610411.690 6  -4219067.97146  25160123.68046
  22990264.125 6 -12921246.881 6  -9908214.89647  22990256.25047
  21356162.492 7 -24592916.683 7 -19106291.78648  21356152.50848
  23545086.969 6 -12587027.331 6 -10206702.23047  23545079.62147
  22495510.578 6 -16153590.038 6 -12550436.15647  22495502.11747
  20006519.391 7 -28452199.633 7 -24971476.91549  20006509.05549
  23381907.789 6  -9170160.402 6 -10770095.68646  23381897.51246
  22968967.883 5  -9229423.680 5  -8356388.66547  22968958.01647
  25008150.320 2  -2525459.510 2  -5175942.17446  25008145.43446
  20973683.219 7 -25165487.224 7 -20828850.78748  20973671.65248
  25065026.555 5  -1007164.331 5   -768856.93146  25065022.02046
 11  4  1  1 27 15.0000000  0 12G03G05G06G07G08G10G13G16G19G20G23G28
  21756135.773 6 -14540358.293 6 -11095359.92947  21756127.31347
  25153232.891 6  -1646675.528 6  -4247325.45446  25153224.13746
  22991085.773 6 -12916929.318 6  -9904850.55247  22991078.01647
  21351814.609 7 -24615764.188 7 -19124095.03048  21351804.74248
  23538167.734 6 -12623386.998 6 -10235034.39347  23538160.50447
  22495517.492 6 -16153556.130 6 -12550409.74347  22495508.91447
  20006243.438 7 -28453649.430 7 -24972606.62849  20006233.10249
  23391364.656 6  -9120462.186 6 -10731369.83146  23391355.37546
  22961842.602 6  -9266867.394 6  -8385565.54447  22961832.03147
  25018114.961 1  -2473099.586 1  -5135142.32845  25018109.66445
  20979797.227 7 -25133355.398 7 -20803813.01848  20979786.01248
  25055492.828 5  -1057263.671 5   -807895.14145  25055488.29345
 11  4  1  1 27 30.0000000  0 12G03G05G06G07G08G10G13G16G19G20G23G28
  21754525.484 6 -14548821.740 6 -11101954.80947  21754516.73047
  25146349.664 6  -1682842.259 6  -4275507.32747  25146342.43447
  22991933.320 6 -12912474.876 6  -9901379.54947  22991925.21147
  21347475.688 7 -24638564.585 7 -19141861.56348  21347465.87948
  23531252.297 6 -12659727.238 6 -10263351.42647  23531244.89147
  22495551.203 6 -16153377.697 6 -12550270.69647  22495542.74247
  20005991.000 7 -28454976.194 7 -24973640.47049  20005980.66449
  23400830.133 6  -9070721.562 6 -10692610.90146  23400820.96946
  22954732.289 6  -9304230.533 6  -8414679.63747  22954722.24647
  25028073.836 2  -2420765.461 2  -5094362.56045  25028068.59845
  20985932.695 7 -25101115.454 7 -20778690.99548  20985921.30548
  25045964.648 5  -1107335.287 5   -846911.82346  25045958.64846
 11  4  1  1 27 45.0000000  0 12G03G05G06G07G08G10G13G16G19G20G23G28
  21752944.055 6 -14557132.366 6 -11108430.60847  21752935.47747
  25139486.281 6  -1718911.559 6  -4303613.21547  25139479.34447
  22992807.367 6 -12907883.229 6  -9897801.63547  22992799.08247
  21343145.656 7 -24661317.626 7 -19159591.18948  21343136.31648
  23524341.336 6 -12696047.827 6 -10291653.14747  23524333.10947
  22495612.352 6 -16153054.459 6 -12550018.82247  22495604.18447
  20005762.242 7 -28456179.436 7 -24974578.06349  20005751.78949
  23410303.281 6  -9020938.596 6 -10653819.00246  23410293.94146
  22947638.109 6  -9341512.503 6  -8443730.47347  22947627.36347
  25038028.766 1  -2368457.083 1  -5053602.88845  25038022.53145
  20992088.297 7 -25068767.298 7 -20753484.65248  20992077.14148
  25036441.305 5  -1157378.838 5   -885906.57946  25036435.94946
 11  4  1  1 28  0.0000000  0 12G03G05G06G07G08G10G13G16G19G20G23G28
  21751391.227 6 -14565290.124 6 -11114787.28747  21751383.00047
  25132638.938 4  -1754883.233 4  -4331643.09046  25132633.58246
  22993706.992 6 -12903154.558 6  -9894116.94547  22993698.70747
  21338824.805 7 -24684023.497 7 -19177284.05548  21338815.28948
  23517433.383 6 -12732349.005 6 -10319939.73647  23517424.80547
  22495701.766 6 -16152586.568 6 -12549654.23147  22495693.65647
  20005556.656 7 -28457259.237 7 -24975419.46149  20005546.08649
  23419784.750 6  -8971113.657 6 -10614994.40546  23419775.17646
  22940558.859 6  -9378713.018 6  -8472717.84947  22940548.87547
  25047976.477 1  -2316174.931 1  -5012863.63645  25047971.53145
  20998264.633 7 -25036311.058 7 -20728194.09248  20998253.06648
  25026924.320 5  -1207394.389 5   -924879.57046  25026918.26246
 11  4  1  1 28 15.0000000  0 12G03G05G06G07G08G10G13G16G19G20G23G28
  21749868.492 6 -14573294.645 6 -11121024.55747  21749860.32447
  25125812.133 5  -1790756.577 5  -4359596.33346  25125807.42246
  22994632.523 6 -12898288.498 6  -9890325.20247  22994625.05947
  21334513.406 7 -24706681.843 7 -19194939.89848  21334503.65648
  23510529.016 6 -12768630.302 6 -10348210.84647  23510520.96547
  22495818.164 6 -16151973.624 6 -12549176.61347  22495810.11347
  20005374.656 7 -28458215.036 7 -24976164.23949  20005364.78949
  23429274.391 6  -8921246.797 6 -10576137.13446  23429265.46146
  22933495.297 6  -9415831.500 6  -8501641.29347  22933485.19547
  25057920.938 3  -2263918.765 3  -4972144.63446  25057915.75846
  21004461.320 7 -25003746.532 7 -20702819.15448  21004450.28148
  25017411.086 5  -1257381.366 5   -963830.25846  25017406.14146
 11  4  1  1 28 30.0000000  0 12G03G05G06G07G08G10G13G16G19G20G23G28
  21748374.547 6 -14581145.955 6 -11127142.45347  21748365.91047
  25119004.297 4  -1826531.670 4  -4387473.05346  25118998.82446
  22995584.914 6 -12893285.176 6  -9886426.50747  22995576.74647
  21330210.367 7 -24729292.793 7 -19212558.81348  21330200.85248
  23503628.516 6 -12804891.906 6 -10376466.61647  23503621.10947
  22495961.953 6 -16151216.124 6 -12548586.34847  22495954.02047
  20005216.563 7 -28459046.955 7 -24976812.48749  20005206.22749
  23438771.664 6  -8871338.487 6 -10537247.54646  23438762.38346
  22926447.461 5  -9452867.614 5  -8530500.55047  22926437.47747
  25067859.898 3  -2211689.390 3  -4931446.51546  25067855.12946
  21010678.547 7 -24971074.090 7 -20677360.11948  21010667.21548
  25007904.664 5  -1307339.565 5  -1002758.56346  25007899.54346
 11  4  1  1 28 45.0000000  0 12G03G05G06G07G08G10G13G16G19G20G23G28
  21746909.539 6 -14588844.216 6 -11133141.06847  21746901.02047
  25112216.758 5  -1862208.519 5  -4415273.17146  25112209.46946
  22996563.211 6 -12888144.953 6  -9882421.12447  22996554.80947
  21325916.781 7 -24751856.639 7 -19230141.02048  21325907.09048
  23496731.836 6 -12841134.171 6 -10404707.29247  23496723.84447
  22496133.789 6 -16150314.353 6 -12547883.67747  22496125.62147
  20005081.508 6 -28459755.150 6 -24977364.32549  20005070.99649
  23448276.195 6  -8821389.378 6 -10498326.19646  23448267.32446
  22919415.922 6  -9489821.241 6  -8559295.53847  22919405.41047
  25077792.867 2  -2159487.187 2  -4890769.55646  25077788.33246
  21016916.281 7 -24938294.170 7 -20651817.34248  21016905.35948
  24998403.094 5  -1357269.360 5  -1041664.69746  24998397.32846
 11  4  1  1 29  0.0000000  0 12G03G05G06G07G08G10G13G16G19G20G23G28
  21745473.586 6 -14596389.458 6 -11139020.47447  21745465.30147
  25105447.273 5  -1897787.138 5  -4442996.75146  25105438.93046
  22997566.773 6 -12882868.094 6  -9878309.27847  22997559.54347
  21321631.977 7 -24774373.598 7 -19247686.69648  21321622.10948
  23489839.008 6 -12877357.366 6 -10432933.13347  23489831.19147
  22496333.469 6 -16149268.673 6 -12547068.86747  22496324.59847
  20004970.469 6 -28460339.739 6 -24977819.84849  20004960.30949
  23457789.688 6  -8771400.038 6 -10459373.46446  23457780.34846
  22912399.688 6  -9526692.185 6  -8588026.10447  22912389.05947
  25087721.883 3  -2107312.645 3  -4850114.15646  25087716.41046
  21023174.727 7 -24905406.988 7 -20626190.97648  21023163.21948
  24988907.242 5  -1407170.521 5  -1080548.53846  24988902.06346
 11  4  1  1 29 15.0000000  0 12G03G05G06G07G08G10G13G16G19G20G23G28
  21744067.102 6 -14603781.144 6 -11144780.21247  21744058.52347
  25098697.914 5  -1933266.872 5  -4470643.25446  25098686.87546
  22998597.570 6 -12877454.242 6  -9874090.68247  22998589.57847
  21317356.141 7 -24796843.333 7 -19265195.56948  21317346.39148
  23482949.414 5 -12913561.005 5 -10461143.71647  23482941.71547
  22496559.641 6 -16148078.846 6 -12546141.72147  22496551.41447
  20004882.438 6 -28460800.291 6 -24978178.71949  20004872.45349
  23467309.438 6  -8721370.422 6 -10420389.37047  23467300.44947
  22905398.313 5  -9563479.896 5  -8616691.81247  22905388.85547
  25097645.625 4  -2055166.053 4  -4809480.51846  25097640.03546
  21029453.109 7 -24872412.488 7 -20600480.99748  21029441.89548
  24979417.773 5  -1457042.681 5  -1119409.77046  24979411.36346
 11  4  1  1 29 30.0000000  0 12G03G05G06G07G08G10G13G16G19G20G23G28
  21742689.578 6 -14611019.598 6 -11150420.54947  21742681.17647
  25091965.539 4  -1968647.548 4  -4498212.55946  25091952.74246
  22999654.242 6 -12871903.703 6  -9869765.56847  22999645.72347
  21313089.258 7 -24819266.233 7 -19282667.92748  21313079.44948
  23476063.773 5 -12949745.718 5 -10489339.57047  23476055.89847
  22496813.070 6 -16146745.193 6 -12545102.51047  22496805.19547
  20004818.633 6 -28461137.013 6 -24978441.09549  20004808.41449
  23476837.625 6  -8671301.409 6 -10381374.57346  23476828.46146
  22898413.516 5  -9600184.250 5  -8645292.55247  22898404.29347
  25107563.414 4  -2003047.822 4  -4768869.01446  25107558.00046
  21035752.227 7 -24839311.119 7 -20574687.73048  21035740.95348
  24969931.648 5  -1506886.001 5  -1158248.54346  24969926.29346
 11  4  1  1 29 45.0000000  0 12G03G05G06G07G08G10G13G16G19G20G23G28
  21741341.383 6 -14618104.220 6 -11155941.03148  21741332.57048
  25085250.602 5  -2003928.679 5  -4525704.30546  25085239.56346
  23000736.109 6 -12866215.997 6  -9865333.59147  23000728.00047
  21308831.141 7 -24841641.556 7 -19300103.23448  21308821.44948
  23469181.688 6 -12985910.765 6 -10517520.10047  23469174.16447
  22497094.555 6 -16145267.318 6 -12543950.92047  22497086.15247
  20004778.273 6 -28461349.420 6 -24978606.60749  20004768.05549
  23486372.797 5  -8621192.448 5 -10342328.65146  23486363.86746
  22891445.664 5  -9636804.362 5  -8673827.65547  22891435.62147
  25117476.266 5  -1950957.837 5  -4728279.46946  25117470.61746
  21042071.586 7 -24806102.383 7 -20548810.80748  21042060.25448
  24960451.703 5  -1556699.655 5  -1197064.17046  24960446.58246
 11  4  1  1 30  0.0000000  0 12G03G05G06G07G08G10G13G16G19G20G23G28
  21740022.523 6 -14625034.247 6 -11161341.03548  21740014.29748
  25078556.023 4  -2039109.488 4  -4553117.83246  25078544.69146
  23001845.031 6 -12860390.525 6  -9860794.24947  23001835.98447
  21304582.844 7 -24863968.790 7 -19317501.06648  21304573.09448
  23462303.508 6 -13022055.582 6 -10545684.85847  23462295.98447
  22497403.352 6 -16143644.770 6 -12542686.59547  22497395.12547
  20004761.508 7 -28461436.520 7 -24978674.47449  20004751.58249
  23495915.570 6  -8571043.309 6 -10303251.42246  23495906.34846
  22884493.133 6  -9673339.242 6  -8702296.34747  22884482.97347
  25127382.602 4  -1898895.674 4  -4687711.63046  25127377.42246
  21048411.797 7 -24772785.692 7 -20522849.76248  21048400.34848
  24950977.664 5  -1606482.939 5  -1235856.13246  24950973.30546
 11  4  1  1 30 15.0000000  0 12G03G05G06G07G08G10G13G16G19G20G23G28
  21738733.078 6 -14631810.199 6 -11166620.98648  21738724.79348
  25071876.852 4  -2074190.175 4  -4580453.46146  25071869.68046
  23002979.438 6 -12854427.945 6  -9856148.07747  23002971.15247
  21300342.922 7 -24886248.657 7 -19334861.98648  21300333.05548
  23455429.266 6 -13058181.012 6 -10573834.53547  23455421.21547
  22497739.391 6 -16141878.295 6 -12541310.12347  22497730.87147
  20004768.906 6 -28461399.096 6 -24978645.31249  20004758.51249
  23505466.156 5  -8520855.219 5 -10264143.84046  23505457.40246
  22877556.617 6  -9709789.219 6  -8730698.88447  22877547.16047
  25137284.055 4  -1846862.427 4  -4647166.30846  25137279.22746
  21054772.227 7 -24739361.899 7 -20496805.26548  21054760.89548
  24941511.398 5  -1656236.355 5  -1274624.85746  24941505.51646
 11  4  1  1 30 30.0000000  0 12G03G05G06G07G08G10G13G16G19G20G23G28
  21737473.508 6 -14638431.212 6 -11171780.19647  21737464.69547
  25065217.469 2  -2109169.872 2  -4607710.34946  25065214.28146
  23004139.531 6 -12848327.584 6  -9851394.54347  23004132.47747
  21296112.398 7 -24908480.260 7 -19352185.30248  21296102.59048
  23448558.609 6 -13094286.124 6 -10601968.35847  23448550.44147
  22498102.898 6 -16139967.178 6 -12539820.94147  22498094.55547
  20004799.633 6 -28461236.256 6 -24978518.42049  20004789.59049
  23515024.688 5  -8470627.580 5 -10225005.43847  23515015.17247
  22870636.961 5  -9746153.183 5  -8759034.39547  22870626.91847
  25147180.484 4  -1794857.608 4  -4606643.16646  25147175.48046
  21061152.992 7 -24705830.612 7 -20470677.00348  21061141.77748
  24932048.961 5  -1705959.039 5  -1313369.63046  24932042.43446
 11  4  1  1 30 45.0000000  0 12G03G05G06G07G08G10G13G16G19G20G23G28
  21736242.813 6 -14644897.996 6 -11176819.23347  21736234.23447
  25058584.922 4  -2144049.164 4  -4634889.00546  25058577.45746
  23005326.797 6 -12842090.348 6  -9846534.35147  23005318.62947
  21291890.703 7 -24930664.703 7 -19369471.87748  21291881.12948
  23441692.148 6 -13130371.673 6 -10630086.94547  23441683.68847
  22498494.039 6 -16137912.402 6 -12538219.82047  22498485.34447
  20004854.023 7 -28460948.698 7 -24978294.35449  20004843.80549
  23524590.078 6  -8420361.614 6 -10185837.17847  23524580.73847
  22863733.242 6  -9782431.639 6  -8787303.27047  22863723.60947
  25157071.070 4  -1742882.587 4  -4566143.27946  25157066.30146
  21067554.016 7 -24672192.790 7 -20444465.72848  21067542.85948
  24922592.063 5  -1755651.516 5  -1352090.88046  24922587.00046
 11  4  1  1 31  0.0000000  0 12G03G05G06G07G08G10G13G16G19G20G23G28
  21735041.461 6 -14651210.722 6 -11181738.22747  21735032.64847
  25051969.000 3  -2178827.952 3  -4661989.43046  25051958.78146
  23006539.813 6 -12835716.425 6  -9841567.64347  23006531.64547
  21287678.094 7 -24952801.978 7 -19386721.68648  21287668.57848
  23434828.281 6 -13166438.164 6 -10658190.67547  23434820.40647
  22498912.523 6 -16135714.260 6 -12536506.98047  22498904.12147
  20004932.875 6 -28460536.442 6 -24977973.11349  20004922.42249
  23534161.984 6  -8370057.882 6 -10146639.47246  23534153.34846
  22856846.227 6  -9818624.299 6  -8815505.28747  22856836.30147
  25166956.430 5  -1690937.832 5  -4525666.88846  25166951.48446
  21073975.266 7 -24638448.821 7 -20418171.74248  21073964.05148
  24913142.313 5  -1805313.798 5  -1390788.54146  24913136.19546
 11  4  1  1 31 15.0000000  0 12G03G05G06G07G08G10G13G16G19G20G23G28
  21733869.234 6 -14657369.204 6 -11186537.02247  21733861.12547
  25045370.766 5  -2213505.950 5  -4689011.15346  25045360.60546
  23007778.992 6 -12829205.684 6  -9836494.34247  23007770.53147
  21283474.695 7 -24974891.970 7 -19403934.66348  21283465.23848
  23427969.016 6 -13202485.375 6 -10686279.38347  23427961.02347
  22499357.836 6 -16133372.791 6 -12534682.46947  22499349.19947
  20005034.914 7 -28459999.497 7 -24977554.71549  20005024.52049
  23543741.742 6  -8319716.738 6 -10107412.63447  23543733.28147
  22849975.711 6  -9854730.867 6  -8843640.24247  22849965.19947
  25176835.063 5  -1639023.417 5  -4485214.18145  25176829.76645
  21080416.734 7 -24604598.728 7 -20391795.05748  21080405.40248
  24903696.609 5  -1854945.785 5  -1429462.63646  24903690.96146
 11  4  1  1 31 30.0000000  0 12G03G05G06G07G08G10G13G16G19G20G23G28
  21732726.727 6 -14663373.282 6 -11191215.51347  21732718.14847
  25038790.719 4  -2248082.754 4  -4715954.17746  25038780.38346
  23009044.086 6 -12822558.122 6  -9831314.42147  23009035.50847
  21279279.898 7 -24996934.738 7 -19421110.83348  21279270.20748
  23421113.234 6 -13238513.382 6 -10714353.12247  23421105.12547
  22499831.063 6 -16130887.950 6 -12532746.22947  22499822.25047
  20005160.742 7 -28459337.593 7 -24977038.95249  20005150.69949
  23553328.945 6  -8269338.256 6 -10068156.69947  23553319.07847
  22843120.969 6  -9890750.883 6  -8871707.74047  22843111.10247
  25186708.719 5  -1587139.589 5  -4444785.27845  25186702.77745
  21086878.250 7 -24570642.544 7 -20365335.71248  21086866.91848
  24894258.406 4  -1904547.133 4  -1468112.85346  24894252.23046
 11  4  1  1 31 45.0000000  0 12G03G05G06G07G08G10G13G16G19G20G23G28
  21731614.180 6 -14669221.719 6 -11195772.71747  21731605.19147
  25032229.320 3  -2282557.510 3  -4742817.53546  25032219.33646
  23010335.313 6 -12815772.831 6  -9826027.16547  23010326.79347
  21275094.172 7 -25018929.242 7 -19438249.39848  21275084.53948
  23414260.797 6 -13274520.984 6 -10742410.96747  23414253.09847
  22500331.336 6 -16128258.908 6 -12530697.62647  22500322.69947
  20005311.047 7 -28458549.660 7 -24976424.97549  20005300.88749
  23562922.641 6  -8218921.795 6 -10028871.16847  23562913.12547
  22836282.898 6  -9926682.944 6  -8899706.70047  22836272.91447
  25196576.500 5  -1535285.840 5  -4404379.81045  25196570.38345
  21093360.375 7 -24536579.468 7 -20338793.06148  21093348.86748
  24884825.141 4  -1954116.632 4  -1506738.25045  24884819.25845
 11  4  1  1 32  0.0000000  0 12G03G05G06G07G08G10G13G16G19G20G23G28
  21730530.773 6 -14674915.286 6 -11200209.24548  21730522.02048
  25025686.016 3  -2316930.393 3  -4769601.62346  25025678.14146
  23011652.703 6 -12808850.609 6  -9820633.22647  23011644.24247
  21270917.836 7 -25040876.174 7 -19455350.89348  21270908.32048
  23407412.141 6 -13310509.158 6 -10770453.67247  23407404.67647
  22500858.695 6 -16125486.443 6 -12528537.26347  22500850.46947
  20005484.938 7 -28457636.276 7 -24975713.24449  20005474.83649
  23572523.461 6  -8168468.496 6  -9989556.92947  23572514.35547
  22829462.156 6  -9962527.350 6  -8927637.35647  22829451.99647
  25206437.117 5  -1483463.148 5  -4363998.60745  25206432.52345
  21099862.539 7 -24502410.276 7 -20312167.73748  21099851.32448
  24875397.773 4  -2003654.699 4  -1545339.13545  24875392.06645
 11  4  1  1 32 15.0000000  0 12G03G05G06G07G08G10G13G16G19G20G23G28
  21729476.398 6 -14680453.512 6 -11204524.72847  21729467.93847
  25019163.547 3  -2351200.902 3  -4796305.87246  25019156.66846
  23012995.688 6 -12801791.138 6  -9815132.33147  23012987.34447
  21266750.984 7 -25062775.377 7 -19472415.19648  21266740.88348
  23400568.133 6 -13346477.595 6 -10798481.00247  23400560.55147
  22501413.719 6 -16122570.471 6 -12526265.08347  22501405.49247
  20005682.445 7 -28456597.269 7 -24974903.63149  20005672.22749
  23582130.906 6  -8117978.390 6  -9950214.01847  23582121.91847
  22822657.961 6  -9998283.653 6  -8955499.36847  22822648.09447
  25216292.352 4  -1431671.586 4  -4323641.63045  25216288.40245
  21106384.961 7 -24468135.005 7 -20285459.74248  21106373.98048
  24865977.313 3  -2053161.165 3  -1583915.37345  24865970.96145
 11  4  1  1 32 30.0000000  0 12G03G05G06G07G08G10G13G16G19G20G23G28
  21728452.320 6 -14685836.404 6 -11208719.18147  21728443.74247
  25012663.547 3  -2385368.731 3  -4822930.11246  25012653.44546
  23014365.313 6 -12794594.425 6  -9809524.48547  23014357.08647
  21262592.797 7 -25084626.722 7 -19489442.20948  21262582.93048
  23393727.352 6 -13382426.182 6 -10826492.85847  23393719.12547
  22501995.953 6 -16119511.073 6 -12523881.13247  22501987.14147
  20005904.305 7 -28455432.342 7 -24973995.89649  20005893.85249
  23591746.664 6  -8067451.704 6  -9910842.58647  23591737.14847
  22815870.805 6 -10033951.271 6  -8983292.26547  22815860.82047
  25226141.789 4  -1379911.451 4  -4283309.12545  25226137.72345
  21112927.516 7 -24433753.614 7 -20258669.07048  21112916.24248
  24856562.836 3  -2102635.775 3  -1622466.85045  24856556.54345
 11  4  1  1 32 45.0000000  0 12G03G05G06G07G08G10G13G16G19G20G23G28
  21727457.039 6 -14691064.149 6 -11212792.73447  21727448.87147
  25006178.359 2  -2419434.042 2  -4849474.49446  25006171.24646
  23015761.039 6 -12787260.726 6  -9803809.90747  23015752.63747
  21258443.438 7 -25106430.348 7 -19506432.04548  21258433.92248
  23386889.688 6 -13418355.302 6 -10854489.54047  23386882.16447
  22502605.281 6 -16116308.582 6 -12521385.69547  22502596.99647
  20006149.500 7 -28454141.565 7 -24972990.09849  20006139.57449
  23601368.922 6  -8016889.092 6  -9871443.16347  23601359.05547
  22809099.906 6 -10069530.102 6  -9011015.99247  22809089.80547
  25235985.813 4  -1328183.193 4  -4243001.44445  25235980.16445
  21119490.188 7 -24399266.484 7 -20231795.99048  21119478.73848
  24847153.617 3  -2152078.661 3  -1660993.56446  24847147.85246
 11  4  1  1 33  0.0000000  0 12G03G05G06G07G08G10G13G16G19G20G23G28
  21726492.125 6 -14696136.552 6 -11216745.23447  21726483.19547
  24999720.109 4  -2453396.381 4  -4875938.56446  24999708.77746
  23017182.016 6 -12779790.141 6  -9797988.66647  23017173.55547
  21254303.352 7 -25128186.332 7 -19523384.74248  21254294.12948
  23380056.328 6 -13454264.994 6 -10882471.08647  23380048.27747
  22503241.930 6 -16112963.020 6 -12518778.76547  22503233.58647
  20006419.109 7 -28452724.956 7 -24971886.24249  20006409.00849
  23610996.961 6  -7966290.791 6  -9832015.93947  23610987.50447
  22802346.305 6 -10105019.930 6  -9038670.36447  22802336.02747
  25245824.195 5  -1276487.166 5  -4202718.96245  25245817.72745
  21126073.039 7 -24364673.834 7 -20204840.69548  21126061.76648
  24837750.758 3  -2201489.402 3  -1699495.27745  24837745.10945
