     2.11           OBSERVATION DATA    GPS(GPS)            RINEX VERSION / TYPE
cnvtToRINEX 2.11.0  Stan Thomas         26-Mar-11 14:09 UTC PGM / RUN BY / DATE 
----------------------------------------------------------- COMMENT             
LR1                                                         MARKER NAME         
LR1                                                         MARKER NUMBER       
Stan Thomas         University of Utah                      OBSERVER / AGENCY   
4644124574          NetRS               1.12                REC # / TYPE / VERS 
12532422            TRM41249.00                             ANT # / TYPE        
 -1943694.8969 -4552384.2017  4011197.9967                  APPROX POSITION XYZ 
        1.2740        0.0000        0.0000                  ANTENNA: DELTA H/E/N
     1     1     0                                          WAVELENGTH FACT L1/2
     7    C1    D1    L1    L2    P2    S1    S2            # / TYPES OF OBSERV 
  2011     3    24     0     0    0.0000000     GPS         TIME OF FIRST OBS   
  2011     3    24     0    18   15.0000000     GPS         TIME OF LAST OBS    
     0                                                      RCV CLOCK OFFS APPL 
    15                                                      LEAP SECONDS        
    11                                                      # OF SATELLITES     
   G03    74    74    71    74    74    74    74            PRN / # OF OBS      
   G04    74    74    74    74    74    74    74            PRN / # OF OBS      
   G06    73    73    71    71    71    73    71            PRN / # OF OBS      
   G07    74    74    74    74    74    74    74            PRN / # OF OBS      
   G10    66    66    64    52    52    66    52            PRN / # OF OBS      
   G13    74    74    74    74    74    74    74            PRN / # OF OBS      
   G16    74    74    74    74    74    74    74            PRN / # OF OBS      
   G20    74    74    74    74    74    74    74            PRN / # OF OBS      
   G23    74    74    74    74    74    74    74            PRN / # OF OBS      
   G30    74    74    74    74    74    74    74            PRN / # OF OBS      
   G31    74    74    74    74    74    74    74            PRN / # OF OBS      
CARRIER PHASE MEASUREMENTS: PHASE SHIFTS REMOVED            COMMENT             
                                                            END OF HEADER       
 11  3 24  0  0  0.0000000  0 11G03G04G06G07G10G13G16G20G23G30G31   
  24877780.500 3      2981.141 3  -4255700.217 3  -3709128.46846  24877775.84846
        37.250          20.000  
  24778108.570 4      -583.328 4  -1953402.292 4  -4500692.28846  24778101.69146
        39.000          22.000  
  25001342.477 3      2478.141 3     30869.337 3                
        37.250  
  24388015.148 5      2909.672 5  -1504650.028 5  -7802215.90046  24388007.62546
        40.750          21.500  
  25268173.945 4      3448.031 4    -78839.985 4    -41075.08846  25268165.48446
        38.250          20.000  
  22133982.563 6      2484.984 6 -12017188.271 6  -9335666.51247  22133973.51647
        47.500          32.250  
  20925485.844 7       322.734 7 -24020425.057 7 -18683798.84948  20925475.80148
        48.250          40.000  
  20850631.367 6     -1731.906 6 -22607475.399 6 -20273532.18148  20850621.91048
        47.500          40.250  
  20421762.672 7      1096.656 7 -21610289.734 7 -23018484.25848  20421750.75448
        50.000          41.000  
  21078655.883 7     -1067.906 7 -25488481.696 7 -19836824.27948  21078647.65648
        48.750          38.250  
  24437202.867 5     -3035.625 5  -5791626.326 5  -4497103.09446  24437194.28946
        40.000          26.000  
 11  3 24  0  0 15.0000000  0 11G03G04G06G07G10G13G16G20G23G30G31   
  24869270.586 4      2981.636 4  -4300424.764 4  -3743978.67446  24869265.17246
        38.250          19.250  
  24779784.945 4      -587.371 4  -1944591.728 4  -4493826.92046  24779778.18446
        39.000          21.500  
  24994260.859 1      2477.833 1     -6298.153 1  -4597937.28955  24994258.78555
        31.750          17.250  
  24379712.813 5      2908.377 5  -1548275.679 5  -7836209.84746  24379705.93446
        40.750          21.000  
  25258335.836 4      3446.613 4   -130539.181 4    -81360.11046  25258328.25446
        37.500          19.250  
  22126892.531 7      2483.913 7 -12054446.964 7  -9364699.25347  22126883.36747
        48.000          32.500  
  20924580.078 7       317.386 7 -24025185.852 7 -18687508.54948  20924569.85948
        48.000          39.750  
  20855586.914 7     -1736.248 7 -22581431.686 7 -20253238.38848  20855577.80948
        48.000          40.000  
  20418638.977 7      1094.218 7 -21626702.999 7 -23031273.82549  20418627.70349
        51.000          41.500  
  21081719.414 7     -1073.203 7 -25472383.644 7 -19824280.33648  21081711.01248
        49.000          38.750  
  24445868.016 5     -3035.498 5  -5746093.851 5  -4461623.29247  24445859.02747
        40.500          27.500  
 11  3 24  0  0 30.0000000  0 10G03G04G07G10G13G16G20G23G30G31      
  24860757.398 5      2982.647 5  -4345164.462 5  -3778840.76146  24860750.81346
        39.500          20.000  
  24781484.680 4      -595.402 4  -1935660.698 4  -4486867.70746  24781478.56346
        39.000          22.000  
  24371418.359 5      2905.892 5  -1591864.055 5  -7870174.73346  24371411.01246
        40.000          22.000  
  25248505.695 4      3443.872 4   -182197.262 4   -121613.15646  25248497.46946
        38.500          21.250  
  22119808.008 7      2481.905 7 -12091675.543 7  -9393708.51847  22119798.90247
        48.000          32.000  
  20923704.320 7       306.745 7 -24029787.025 7 -18691093.87248  20923694.57048
        48.000          40.000  
  20860568.203 7     -1744.928 7 -22555257.764 7 -20232843.13248  20860558.51248
        47.750          40.250  
  20415529.586 7      1089.434 7 -21643044.510 7 -23044007.46348  20415517.90248
        50.250          41.000  
  21084812.805 7     -1083.666 7 -25456128.655 7 -19811614.11048  21084804.05148
        49.000          39.000  
  24454529.281 4     -3035.162 4  -5700566.427 4  -4426147.37646  24454522.05146
        38.500          25.500  
 11  3 24  0  0 45.0000000  0 11G03G04G06G07G10G13G16G20G23G30G31   
  24852240.516 4      2983.885 4  -4389922.735 4  -3813717.28046  24852234.16446
        38.500          20.000  
  24783206.836 4      -603.178 4  -1926613.025 4  -4479817.58646  24783200.01646
        38.750          22.250  
  24980126.64814      2476.26614                                
        38.000  
  24363130.406 5      2903.638 5  -1635418.633 5  -7904113.29446  24363123.11746
        39.250          22.500  
  25238682.594 4      3441.360 4   -233817.669 4   -161836.85546  25238674.30946
        37.750          21.500  
  22112728.617 7      2480.129 7 -12128877.475 7  -9422697.02947  22112719.39547
        48.000          32.750  
  20922858.492 6       296.343 6 -24034232.177 6 -18694557.62148  20922849.03548
        47.500          39.750  
  20865572.039 6     -1753.352 6 -22528957.477 6 -20212349.40748  20865562.75848
        47.000          40.250  
  20412432.625 7      1084.889 7 -21659317.843 7 -23056687.97948  20412421.35248
        50.000          41.000  
  21087934.883 7     -1093.868 7 -25439720.628 7 -19798828.62948  21087926.53948
        50.250          38.750  
  24463193.086 5     -3034.569 5  -5655047.890 5  -4390678.39846  24463184.33246
        41.250          26.000  
 11  3 24  0  1  0.0000000  0 11G03G04G06G07G10G13G16G20G23G30G31   
  24843719.352 4      2984.894 4  -4434696.145 4  -3848605.57746  24843713.58646
        38.500          20.250  
  24784950.867 4      -611.146 4  -1917445.836 4  -4472674.31146  24784944.34046
        38.500          21.000  
  24973055.805 3      2475.750 3    377059.534 3  -4592544.94356  24973050.33256
        37.250          20.000  
  24354849.211 4      2901.181 4  -1678936.346 4  -7938023.10946  24354841.62946
        38.500          22.750  
  25228867.469 5      3438.629 5   -285397.099 5   -202028.61246  25228859.12546
        39.750          22.500  
  22105655.203 7      2478.136 7 -12166049.508 7  -9451662.22747  22105646.33247
        48.750          33.000  
  20922042.992 7       285.737 7 -24038518.235 7 -18697897.39448  20922033.24248
        48.250          39.750  
  20870601.813 7     -1761.973 7 -22502527.877 7 -20191754.92448  20870592.47348
        48.500          39.750  
  20409349.680 7      1080.129 7 -21675519.777 7 -23069312.86448  20409337.82048
        50.250          40.750  
  21091087.297 7     -1104.264 7 -25423156.668 7 -19785921.64148  21091078.19148
        50.500          39.000  
  24471854.219 5     -3034.186 5  -5609535.106 5  -4355213.96347  24471846.87147
        42.250          28.500  
 11  3 24  0  1 15.0000000  0 11G03G04G06G07G10G13G16G20G23G30G31   
  24835197.016 4      2985.963 4  -4479485.594 4  -3883506.42246  24835190.13746
        38.000          19.250  
  24786717.555 3      -619.024 3  -1908160.473 3  -4465439.00246  24786711.02746
        37.250          21.500  
  24965987.367 3      2475.623 3    339925.188 3  -4621480.84246  24965984.41446
        36.750          19.750  
  24346574.789 4      2898.797 4  -1722418.307 4  -7971905.08246  24346567.67646
        38.000          22.500  
  25219059.695 5      3435.941 5   -336936.209 5   -242188.96846  25219051.64546
        39.500          22.000  
  22098587.266 7      2476.219 7 -12203192.796 7  -9480605.02547  22098578.33647
        48.000          33.000  
  20921257.648 7       275.216 7 -24042646.478 7 -18701114.20448  20921247.60548
        47.750          40.250  
  20875656.039 7     -1770.502 7 -22475970.353 7 -20171060.76448  20875646.40648
        47.750          40.000  
  20406280.039 7      1075.430 7 -21691651.219 7 -23081882.81248  20406268.35548
        50.500          40.750  
  21094268.336 7     -1114.570 7 -25406438.116 7 -19772894.19848  21094259.58248
        50.250          38.000  
  24480512.047 5     -3033.704 5  -5564029.546 5  -4319755.05347  24480503.93847
        39.750          27.250  
 11  3 24  0  1 30.0000000  0 11G03G04G06G07G10G13G16G20G23G30G31   
  24826666.961 2      2986.972 2  -4524290.169 2  -3918419.05146  24826664.06646
        34.750          19.500  
  24788507.375 3      -626.937 3  -1898756.424 3  -4458111.20346  24788500.61346
        36.750          20.250  
  24958924.852 4      2474.969 4    302800.653 4  -4650409.02846  24958919.32046
        38.500          20.250  
  24338306.844 4      2896.359 4  -1765863.694 4  -8005758.52646  24338299.67246
        38.250          23.000  
  25209259.719 5      3433.194 5   -388434.126 5   -282317.21046  25209251.90246
        41.000          22.250  
  22091524.867 7      2474.238 7 -12240306.367 7  -9509524.68147  22091515.41047
        48.500          32.750  
  20920501.852 6       264.645 6 -24046616.156 6 -18704207.45448  20920492.10248
        47.250          39.000  
  20880734.305 6     -1779.059 6 -22449284.463 6 -20150266.57148  20880724.90648
        47.000          39.750  
  20403223.789 7      1070.670 7 -21707711.273 7 -23094397.14948  20403212.10548
        49.750          41.250  
  21097479.484 7     -1124.916 7 -25389564.377 7 -19759745.83648  21097470.78948
        50.500          38.250  
  24489170.961 5     -3033.258 5  -5518530.682 5  -4284301.48947  24489163.67247
        42.250          26.500  
 11  3 24  0  1 45.0000000  0 11G03G04G06G07G10G13G16G20G23G30G31   
  24818142.281 4      2987.939 4  -4569109.261 4  -3953342.86446  24818136.45746
        38.250          20.000  
  24790319.820 3      -634.821 3  -1889234.105 3  -4450691.25346  24790312.82446
        36.500          21.000  
  24951862.406 4      2474.316 4    265685.907 4  -4679329.57546  24951856.28946
        38.250          20.750  
  24330046.531 4      2893.933 4  -1809272.688 4  -8039583.65446  24330039.35946
        38.250          24.750  
  25199467.719 5      3430.422 5   -439890.449 5   -322413.05846  25199460.43046
        40.250          22.250  
  22084467.875 7      2472.261 7 -12277390.289 7  -9538421.22447  22084458.77047
        48.750          33.500  
  20919776.617 6       254.078 6 -24050427.331 6 -18707177.20148  20919766.63348
        47.250          39.500  
  20885836.547 6     -1787.596 6 -22422470.519 6 -20129372.59848  20885827.14848
        47.000          39.500  
  20400181.578 7      1065.916 7 -21723700.007 7 -23106855.89448  20400169.95348
        51.000          41.000  
  21100719.750 7     -1135.239 7 -25372535.796 7 -19746476.80348  21100711.40648
        50.500          38.000  
  24497828.047 6     -3032.803 6  -5473038.631 6  -4248853.11747  24497820.99247
        42.500          28.500  
 11  3 24  0  2  0.0000000  0 11G03G04G06G07G10G13G16G20G23G30G31   
  24809608.852 3      2988.937 3  -4613943.322 3  -3988278.44646  24809604.19946
        36.000          19.500  
  24792153.813 4      -642.655 4  -1879594.277 4  -4443179.70446  24792146.64146
        37.500          20.500  
  24944802.422 4      2473.684 4    228580.641 4  -4708242.79646  24944795.77746
        38.250          20.250  
  24321792.906 4      2891.560 4  -1852646.092 4  -8073381.02446  24321786.26246
        39.000          24.250  
  25189684.242 5      3427.684 5   -491305.715 5   -362476.91346  25189676.48446
        40.750          22.750  
  22077416.375 7      2470.330 7 -12314445.232 7  -9567295.18847  22077407.44547
        48.250          33.500  
  20919081.344 7       243.568 7 -24054080.852 7 -18710024.08948  20919071.88748
        48.500          39.500  
  20890963.578 7     -1796.062 7 -22395529.589 7 -20108379.67448  20890953.94548
        48.000          40.500  
  20397152.336 7      1061.203 7 -21739618.046 7 -23119259.56449  20397140.65249
        50.500          41.750  
  21103989.336 7     -1145.486 7 -25355353.501 7 -19733088.00448  21103980.64148
        49.500          38.500  
  24506483.719 5     -3032.279 5  -5427554.444 5  -4213410.92346  24506474.37946
        41.500          25.500  
 11  3 24  0  2 15.0000000  0 11G03G04G06G07G10G13G16G20G23G30G31   
  24801077.703 4      2989.832 4  -4658790.798 4  -4023224.43846  24801070.64846
        39.000          19.250  
  24794011.406 3      -650.555 3  -1869835.954 3  -4435575.83746  24794003.88346
        36.750          20.250  
  24937738.953 3      2472.953 3    191486.345 3  -4737147.38646  24937736.87946
        36.250          19.500  
  24313546.836 4      2889.089 4  -1895982.428 4  -8107149.52346  24313539.07846
        38.250          24.500  
  25179907.867 5      3424.844 5   -542678.377 5   -402507.57046  25179900.16846
        40.750          23.500  
  22070370.875 7      2468.295 7 -12351469.653 7  -9596145.37648  22070361.88748
        48.500          33.750  
  20918416.734 6       232.962 6 -24057575.280 6 -18712747.01648  20918406.98448
        47.250          40.250  
  20896114.344 6     -1804.606 6 -22368460.504 6 -20087286.89748  20896105.12148
        47.000          40.000  
  20394136.914 7      1056.386 7 -21755463.842 7 -23131606.93748  20394125.23048
        50.750          41.000  
  21107288.570 7     -1155.812 7 -25338016.326 7 -19719578.52748  21107279.69948
        50.500          37.750  
  24515137.695 6     -3031.843 6  -5382076.801 6  -4177973.84047  24515130.05547
        42.500          28.000  
 11  3 24  0  2 30.0000000  0 11G03G04G06G07G10G13G16G20G23G30G31   
  24792539.586 2      2990.739 2  -4703651.886 2  -4058181.14846  24792533.70346
        34.000          19.750  
  24795890.125 4      -658.397 4  -1859960.002 4  -4427880.31146  24795883.53946
        38.250          20.500  
  24930686.203 5      2472.226 5    154402.958 5  -4766043.48946  24930678.91446
        40.750          19.000  
  24305306.508 5      2886.638 5  -1939281.993 5  -8140889.38146  24305299.62946
        39.750          25.250  
  25170140.578 5      3422.020 5   -594008.670 5   -442505.18646  25170132.35246
        39.250          23.000  
  22063330.945 6      2466.302 6 -12388464.182 6  -9624972.26547  22063321.54747
        47.250          33.250  
  20917781.586 6       222.402 6 -24060911.306 6 -18715346.51348  20917771.95348
        47.250          39.750  
  20901289.961 6     -1813.082 6 -22341264.277 6 -20066095.04848  20901280.27048
        47.500          39.750  
  20391135.156 7      1051.607 7 -21771237.952 7 -23143898.45048  20391123.35548
        49.500          41.250  
  21110617.180 7     -1166.084 7 -25320525.067 7 -19705948.96948  21110608.25048
        49.750          38.000  
  24523789.469 5     -3031.355 5  -5336606.470 5  -4142542.43447  24523781.94547
        40.500          26.750  
 11  3 24  0  2 45.0000000  0 11G03G04G06G07G10G13G16G20G23G30G31   
  24783997.367 2      2991.627 2  -4748526.286 2  -4093148.09345  24783993.00845
        34.750          18.500  
  24797791.320 4      -666.247 4  -1849966.298 4  -4420093.03846  24797784.85246
        37.750          21.000  
  24923632.281 5      2471.471 5    117330.895 5  -4794930.79346  24923624.81646
        40.500          19.250  
  24297074.109 5      2884.178 5  -1982544.667 5  -8174600.48246  24297066.87946
        40.250          26.000  
  25160380.703 5      3419.171 5   -645296.236 5   -482469.51846  25160372.35946
        40.000          22.500  
  22056297.570 7      2464.287 7 -12425428.480 7  -9653775.60147  22056287.87947
        48.750          32.750  
  20917177.070 7       211.825 7 -24064088.682 7 -18717822.38648  20917167.37948
        48.750          39.750  
  20906489.172 6     -1821.565 6 -22313940.807 6 -20044804.04048  20906479.65648
        47.500          40.000  
  20388147.227 7      1046.797 7 -21786939.905 7 -23156133.73848  20388135.48448
        49.750          41.250  
  21113974.805 7     -1176.357 7 -25302879.706 7 -19692199.34448  21113965.99248
        50.500          38.000  
  24532440.070 5     -3030.861 5  -5291143.551 5  -4107116.80047  24532433.07447
        40.500          26.750  
 11  3 24  0  3  0.0000000  0 11G03G04G06G07G10G13G16G20G23G30G31   
  24775458.820 2      2992.497 2  -4793413.742 2  -4128125.29146  24775451.82446
        35.250          19.250  
  24799716.391 3      -674.073 3  -1839855.199 3  -4412214.27046  24799708.92646
        37.000          21.500  
  24916577.672 5      2470.696 5     80270.452 5  -4823809.02946  24916572.37546
        39.500          19.000  
  24288847.930 5      2881.748 5  -2025770.882 5  -8208283.18247  24288841.34447
        41.000          26.500  
  25150628.547 5      3416.318 5   -696541.011 5   -522400.49146  25150621.02346
        39.500          22.500  
  22049268.781 7      2462.274 7 -12462362.591 7  -9682555.41247  22049260.02747
        48.250          33.500  
  20916602.563 6       201.255 6 -24067107.502 6 -18720174.71348  20916592.63748
        47.500          40.250  
  20911712.750 7     -1830.025 7 -22286490.434 7 -20023414.15348  20911703.35248
        48.000          40.000  
  20385173.031 7      1041.994 7 -21802569.817 7 -23168312.88649  20385161.11349
        50.000          41.750  
  21117362.195 7     -1186.606 7 -25285080.612 7 -19678329.92648  21117353.09048
        50.750          37.500  
  24541092.063 5     -3030.365 5  -5245688.083 5  -4071696.99047  24541083.42647
        41.000          28.000  
 11  3 24  0  3 15.0000000  0 11G03G04G06G07G10G13G16G20G23G30G31   
  24766910.281 1      2993.320 1  -4838313.540 1  -4163112.15246  24766906.80146
        30.500          19.250  
  24801661.977 4      -681.907 4  -1829626.593 4  -4404243.94546  24801655.62546
        38.250          20.500  
  24909526.852 4      2469.878 4     43222.285 4  -4852677.71746  24909522.49246
        39.000          19.250  
  24280629.570 5      2879.264 5  -2068959.838 5  -8241936.85747  24280622.28147
        42.250          28.000  
  25140885.336 4      3413.404 4   -747742.069 4   -562297.41346  25140878.28146
        37.500          22.250  
  22042246.086 7      2460.220 7 -12499265.886 7  -9711311.20548  22042237.09848
        48.500          33.750  
  20916058.203 7       190.658 7 -24069967.368 7 -18722403.17048  20916048.57048
        48.750          40.000  
  20916960.750 7     -1838.493 7 -22258913.038 7 -20001925.28648  20916951.29348
        48.250          40.000  
  20382212.445 7      1037.142 7 -21818126.953 7 -23180435.33249  20382200.70349
        50.000          41.500  
  21120778.305 7     -1196.885 7 -25267127.339 7 -19664340.36148  21120769.55148
        50.750          38.000  
  24549740.867 5     -3029.877 5  -5200239.934 5  -4036282.88947  24549731.82047
        40.250          27.750  
 11  3 24  0  3 30.0000000  0 11G03G04G06G07G10G13G16G20G23G30G31   
  24758368.031 2      2994.130 2  -4883225.487 2  -4198108.38646  24758360.74246
        35.500          19.250  
  24803631.656 5      -689.715 5  -1819280.864 5  -4396182.36546  24803624.13346
        39.750          21.250  
  24902479.289 5      2469.044 5      6186.622 5  -4881536.63746  24902474.69546
        40.000          19.000  
  24272418.094 5      2876.809 5  -2112111.966 5  -8275561.83047  24272411.50847
        42.000          28.000  
  25131150.727 4      3410.488 4   -798899.387 4   -602160.25446  25131142.85246
        38.250          21.500  
  22035229.133 7      2458.170 7 -12536138.432 7  -9740043.03547  22035220.20347
        48.750          33.250  
  20915544.242 7       180.085 7 -24072668.642 7 -18724508.05948  20915534.31648
        47.750          39.750  
  20922232.531 6     -1846.930 6 -22231209.093 6 -19980337.81548  20922223.19148
        47.250          39.750  
  20379265.883 7      1032.303 7 -21833611.496 7 -23192501.21048  20379253.84848
        49.500          40.750  
  21124224.203 7     -1207.123 7 -25249020.497 7 -19650231.14248  21124215.44948
        50.000          38.250  
  24558386.641 5     -3029.361 5  -5154799.516 5  -4000874.78547  24558378.29747
        40.000          27.250  
 11  3 24  0  3 45.0000000  0 11G03G04G06G07G10G13G16G20G23G30G31   
  24749818.914 1      2994.955 1  -4928149.818 1  -4233114.31745  24749812.85545
        33.750          16.750  
  24805622.703 4      -697.460 4  -1808818.965 4  -4388030.26346  24805615.00446
        38.500          21.250  
  24895435.789 5      2468.251 5    -30837.149 5  -4910386.31245  24895428.61745
        41.250          16.750  
  24264213.367 6      2874.391 6  -2155227.827 6  -8309158.54847  24264206.07847
        42.750          28.000  
  25121423.211 4      3407.595 4   -850013.319 4   -641989.28146  25121416.27346
        38.000          19.250  
  22028218.773 7      2456.161 7 -12572980.847 7  -9768751.39447  22028209.55147
        49.000          33.500  
  20915060.477 7       169.561 7 -24075212.058 7 -18726489.93548  20915050.72748
        48.750          40.250  
  20927528.070 7     -1855.305 7 -22203379.524 7 -19958652.44748  20927519.02348
        48.250          39.000  
  20376333.133 7      1027.508 7 -21849024.115 7 -23204511.05449  20376321.50849
        50.000          41.750  
  21127698.734 7     -1217.296 7 -25230761.063 7 -19636003.01848  21127690.03948
        51.000          38.000  
  24567032.172 5     -3028.790 5  -5109367.661 5  -3965473.38247  24567024.94147
        40.500          27.500  
 11  3 24  0  4  0.0000000  0 11G03G04G06G07G10G13G16G20G23G30G31   
  24741268.383 1      2995.709 1  -4973085.454 1  -4268129.06946  24741260.68446
        32.250          19.000  
  24807636.195 4      -705.253 4  -1798240.174 4  -4379787.06046  24807628.37946
        39.000          22.250  
  24888389.906 5      2467.362 5    -67847.578 5  -4939225.55146  24888385.89846
        39.250          19.000  
  24256015.734 6      2871.902 6  -2198306.355 6  -8342726.18047  24256008.50447
        43.500          27.500  
  25111706.063 3      3404.632 3   -901082.802 3   -681783.69946  25111698.01246
        36.500          20.500  
  22021213.984 7      2454.088 7 -12609792.171 7  -9797435.52748  22021204.87948
        49.500          34.000  
  20914606.617 7       158.976 7 -24077596.701 7 -18728348.08948  20914596.75048
        48.000          39.500  
  20932848.219 6     -1863.717 6 -22175423.771 6 -19936868.75648  20932838.52748
        47.500          39.500  
  20373414.070 7      1022.633 7 -21864363.616 7 -23216463.91148  20373402.62148
        49.000          41.000  
  21131202.594 7     -1227.517 7 -25212348.305 7 -19621655.41948  21131193.72348
        51.250          37.750  
  24575675.492 4     -3028.265 4  -5063943.693 4  -3930078.06546  24575667.79346
        39.000          25.500  
 11  3 24  0  4 15.0000000  0 11G03G04G06G07G10G13G16G20G23G30G31   
  24732712.07011      2996.51611                  -6758352.15856  24732707.24256
        30.750          19.500  
  24809671.094 5      -713.203 5  -1787542.133 5  -4371450.93846  24809663.86346
        40.000          22.250  
  24881350.734 5      2466.275 5   -104841.711 5  -4968052.04145  24881346.08245
        40.000          18.250  
  24247825.711 6      2869.234 6  -2241344.863 6  -8376262.63847  24247818.24647
        43.000          27.750  
  25101996.875 2      3401.470 2   -952104.846 2   -721541.09946  25101988.29746
        34.250          19.500  
  22014215.273 7      2451.824 7 -12646569.530 7  -9826093.18948  22014206.40248
        48.750          34.000  
  20914183.563 7       148.210 7 -24079819.848 7 -18730080.40148  20914173.81348
        49.250          39.750  
  20938192.367 7     -1872.306 7 -22147339.187 7 -19914984.66948  20938183.32048
        48.750          40.000  
  20370509.531 7      1017.567 7 -21879627.121 7 -23228357.54249  20370497.55549
        49.750          41.750  
  21134736.063 7     -1237.908 7 -25193779.679 7 -19607186.36148  21134727.30948
        50.500          37.500  
  24584320.602 5     -3027.923 5  -5018524.845 5  -3894686.81347  24584311.49647
        40.750          26.500  
 11  3 24  0  4 30.0000000  0 11G03G04G06G07G10G13G16G20G23G30G31   
  24724157.664 1      2997.578 1  -8213830.493 1  -6793385.26045  24724152.25045
        31.750          17.250  
  24811727.914 5      -720.677 5  -1776731.980 5  -4363027.45746  24811721.27046
        39.750          22.000  
  24874314.414 5      2465.649 5   -141826.445 5  -4996871.34146  24874308.23846
        42.000          19.250  
  24239642.266 6      2867.049 6  -2284350.601 6  -8409773.55847  24239634.62547
        43.250          27.250  
  25092294.852 1      3398.766 1  -1003086.336 1   -761266.94145  25092286.27345
        33.500          18.250  
  22007222.008 7      2450.040 7 -12683320.123 7  -9854730.00148  22007212.43448
        48.500          34.000  
  20913789.578 7       137.924 7 -24081888.702 7 -18731692.49948  20913779.94548
        49.500          39.500  
  20943559.914 7     -1880.389 7 -22119133.353 7 -19893006.11848  20943550.80948
        48.750          40.250  
  20367617.969 7      1012.983 7 -21894821.868 7 -23240197.60548  20367606.22748
        49.500          41.250  
  21138297.641 7     -1247.807 7 -25175062.570 7 -19592601.60548  21138289.06348
        50.750          37.500  
  24592960.430 5     -3027.084 5  -4973118.587 5  -3859305.34247  24592952.49647
        40.000          27.000  
 11  3 24  0  4 45.0000000  0 11G03G04G06G07G10G13G16G20G23G30G31   
  24715605.625 3      2997.904 3  -8258799.047 3  -6828425.57145  24715595.11345
        35.750          17.750  
  24813807.859 5      -728.463 5  -1765805.039 5  -4354512.96746  24813800.62946
        39.250          21.500  
  24867280.625 5      2464.644 5   -178796.110 5  -5025678.88145  24867273.45345
        42.000          18.250  
  24231465.805 5      2864.518 5  -2327318.373 5  -8443254.89046  24231458.16446
        42.250          24.250  
  25082602.719 1      3395.695 1  -1054021.761 1   -800956.87245  25082592.79345
        31.250          16.750  
  22000234.344 7      2447.901 7 -12720038.644 7  -9883341.81848  22000225.29748
        49.000          34.250  
  20913426.313 7       127.299 7 -24083798.191 7 -18733180.40148  20913416.68048
        49.250          40.000  
  20948951.391 7     -1888.797 7 -22090801.403 7 -19870929.28048  20948942.16848
        49.000          40.500  
  20364740.391 7      1008.045 7 -21909942.539 7 -23251979.94448  20364729.05948
        49.750          41.000  
  21141888.609 7     -1258.026 7 -25156192.173 7 -19577897.40348  21141880.03148
        51.000          38.000  
  24601598.305 4     -3026.575 4  -4927719.955 4  -3823929.80746  24601589.90246
        39.000          24.500  
 11  3 24  0  5  0.0000000  0 11G03G04G06G07G10G13G16G20G23G30G31   
  24707042.17211      2998.84411                  -6863467.54855  24707037.63755
        32.000          17.250  
  24815910.539 5      -736.745 5  -1754753.857 5  -4345901.67546  24815903.77746
        40.250          21.500  
  24860251.406 6      2463.135 6   -215743.135 6  -5054468.74745  24860243.18045
        44.500          18.500  
  24223297.594 6      2861.480 6  -2370240.566 6  -8476700.72146  24223290.12946
        42.500          25.250  
  25072919.35911      3390.45311                  -2068204.86055  25072910.25455
        28.750          15.500  
  21993254.672 7      2445.251 7 -12756717.407 7  -9911922.65848  21993245.44948
        48.500          34.250  
  20913094.773 7       116.171 7 -24085540.755 7 -18734538.24348  20913085.25848
        48.250          40.250  
  20954368.102 7     -1897.690 7 -22062336.052 7 -19848748.50048  20954358.82048
        48.500          38.750  
  20361878.727 7      1002.598 7 -21924981.515 7 -23263698.62448  20361866.80948
        50.500          41.250  
  21145510.313 7     -1268.743 7 -25137161.036 7 -19563067.94948  21145501.55948
        51.000          38.500  
  24610238.711 5     -3026.564 5  -4882321.499 5  -3788554.42347  24610231.18847
        39.500          26.750  
 11  3 24  0  5 15.0000000  0 10G03G04G06G07G13G16G20G23G30G31      
  24698480.82811      2999.53111                  -6898523.32155  24698476.93855
        30.000          18.250  
  24818033.977 5      -743.901 5  -1743595.345 5  -4337206.75346  24818026.80546
        40.750          21.500  
  24853219.797 6      2462.696 6   -252683.569 6  -5083253.51945  24853213.32845
        42.750          18.500  
  24215135.703 5      2859.546 5  -2413133.763 5  -8510123.95346  24215127.65246
        41.750          25.750  
  21986279.422 7      2443.699 7 -12793372.896 7  -9940485.35547  21986270.25847
        48.750          33.500  
  20912791.820 7       106.150 7 -24087133.006 7 -18735778.95648  20912782.07048
        49.500          39.000  
  20959807.133 7     -1905.467 7 -22033754.039 7 -19826476.81748  20959797.91048
        49.500          39.750  
  20359029.359 7       998.240 7 -21939955.119 7 -23275366.36348  20359017.61748
        50.750          41.250  
  21149159.383 7     -1278.330 7 -25117986.081 7 -19548126.43648  21149150.68848
        50.500          37.750  
  24618873.742 5     -3025.441 5  -4836939.878 5  -3753192.12446  24618864.16846
        39.250          22.500  
 11  3 24  0  5 30.0000000  0 10G03G04G06G07G13G16G20G23G30G31      
  24689922.195 3      3000.344 3  -8393757.650 3  -6933587.86246  24689913.44146
        35.750          19.000  
  24820179.328 5      -751.471 5  -1732323.274 5  -4328423.32246  24820171.92246
        40.250          22.750  
  24846193.703 6      2461.809 6   -289610.699 6  -5112027.86845  24846185.82845
        43.500          18.500  
  24206979.172 5      2857.190 5  -2455991.605 5  -8543519.62946  24206971.88346
        41.750          24.500  
  21979309.563 7      2441.712 7 -12829998.570 7  -9969024.82148  21979300.04748
        49.250          34.000  
  20912518.438 7        95.710 7 -24088568.649 7 -18736897.63248  20912508.80548
        50.000          39.500  
  20965269.609 7     -1913.646 7 -22005049.349 7 -19804109.53848  20965260.44548
        48.750          40.500  
  20356193.695 7       993.452 7 -21954856.897 7 -23286978.14349  20356181.83649
        49.500          42.000  
  21152836.430 7     -1288.331 7 -25098661.112 7 -19533068.02448  21152828.08648
        50.500          38.000  
  24627506.742 5     -3024.730 5  -4791568.922 5  -3717838.18646  24627500.85946
        39.250          25.500  
 11  3 24  0  5 45.0000000  0 10G03G04G06G07G13G16G20G23G30G31      
  24681355.242 1      3000.393 1  -8438763.545 1  -6968657.42845  24681349.30145
        33.500          17.750  
  24822346.313 5      -759.346 5  -1720933.082 5  -4319547.86246  24822339.37546
        39.500          22.250  
  24839166.141 5      2460.591 5   -326519.558 5  -5140788.04745  24839162.01645
        39.500          17.750  
  24198831.719 5      2854.502 5  -2498809.141 5  -8576883.90146  24198824.31346
        41.000          22.750  
  21972346.641 7      2439.401 7 -12866589.585 7  -9997537.28548  21972337.53548
        49.000          34.000  
  20912276.273 7        84.959 7 -24089843.029 7 -18737890.65148  20912266.40648
        49.000          40.000  
  20970756.094 7     -1922.120 7 -21976217.548 7 -19781643.21548  20970746.63748
        49.250          39.500  
  20353372.648 7       988.334 7 -21969681.914 7 -23298530.10148  20353360.90648
        50.500          41.000  
  21156543.680 7     -1298.633 7 -25079181.618 7 -19517889.19648  21156534.92648
        50.500          38.000  
  24636139.898 4     -3024.331 4  -4746203.964 4  -3682488.87246  24636131.73046
        39.000          23.750  
 11  3 24  0  6  0.0000000  0 10G03G04G06G07G13G16G20G23G30G31      
  24672790.070 2      3000.958 2  -8483777.917 2  -7003733.47345  24672783.48445
        34.500          17.750  
  24824536.273 5      -767.014 5  -1709427.875 5  -4310582.77646  24824529.33646
        42.000          21.500  
  24832146.680 4      2459.525 4   -363412.440 4  -5169535.78245  24832140.73845
        38.750          17.250  
  24190690.719 5      2851.997 5  -2541589.098 5  -8610218.89846  24190683.07846
        40.000          25.500  
  21965389.555 7      2437.267 7 -12903148.596 7 -10026024.80347  21965380.62547
        47.750          33.500  
  20912063.898 7        74.379 7 -24090958.710 7 -18738760.00448  20912053.97348
        51.000          39.750  
  20976266.156 7     -1930.399 7 -21947261.563 7 -19759080.11848  20976256.58248
        48.500          39.500  
  20350565.570 7       983.384 7 -21984432.678 7 -23310024.19848  20350553.71148
        50.250          41.000  
  21160278.883 7     -1308.734 7 -25059550.605 7 -19502592.30848  21160270.12948
        50.500          37.750  
  24644771.109 5     -3023.732 5  -4700847.978 5  -3647146.57546  24644763.05946
        39.500          25.250  
 11  3 24  0  6 15.0000000  0 10G03G04G06G07G13G16G20G23G30G31      
  24664223.047 3      3001.493 3  -8528800.310 3  -7038815.70745  24664215.64145
        37.000          18.250  
  24826747.008 5      -774.703 5  -1697807.331 5  -4301527.83646  24826739.95346
        41.000          20.750  
  24825131.000 4      2458.415 4   -400288.667 4  -5198270.47245  24825124.23845
        37.750          16.750  
  24182557.383 5      2849.466 5  -2584331.092 5  -8643524.30346  24182549.97746
        40.000          25.000  
  21958439.125 7      2435.092 7 -12939674.980 7 -10054486.90747  21958429.78547
        48.000          33.500  
  20911881.672 7        63.783 7 -24091915.455 7 -18739505.51148  20911872.03948
        50.500          39.500  
  20981799.891 7     -1938.698 7 -21918181.091 7 -19736420.02648  20981790.55148
        49.500          40.250  
  20347773.086 7       978.393 7 -21999108.572 7 -23321459.96548  20347761.16848
        50.750          41.250  
  21164043.531 7     -1318.843 7 -25039767.953 7 -19487177.25748  21164034.77748
        50.750          38.000  
  24653400.023 4     -3023.153 4  -4655500.677 4  -3611811.03746  24653392.79346
        37.750          25.500  
 11  3 24  0  6 30.0000000  0 11G03G04G06G07G10G13G16G20G23G30G31   
  24655649.461 1      3002.410 1  -8573836.461 1  -7073908.81146  24655645.21946
        33.000          19.000  
  24828979.602 5      -781.945 5  -1686078.154 5  -4292388.23546  24828972.13746
        40.500          20.250  
  24818117.102 4      2457.702 4   -437154.195 4  -5226996.86845  24818108.11345
        39.000          18.250  
  24174429.875 4      2847.354 4  -2627041.395 4  -8676805.00746  24174422.05946
        39.000          25.500  
  25015001.52312      3372.42212   -260004.42812                
        35.250  
  21951493.391 6      2433.326 6 -12976174.868 6 -10082928.36247  21951483.75847
        47.000          33.500  
  20911728.852 6        53.616 6 -24092719.701 6 -18740132.19048  20911718.45748
        47.500          39.750  
  20987356.148 7     -1946.542 7 -21888982.960 7 -19713668.24548  20987346.63348
        49.000          40.000  
  20344993.086 7       973.829 7 -22013716.013 7 -23332842.38349  20344981.34449
        49.000          41.750  
  21167835.664 7     -1328.514 7 -25019840.239 7 -19471649.17148  21167826.96948
        51.000          38.000  
  24662027.727 4     -3022.141 4  -4610168.556 4  -3576487.35446  24662018.91446
        38.500          22.500  
 11  3 24  0  6 45.0000000  0 11G03G04G06G07G10G13G16G20G23G30G31   
  24647079.539 1      3002.555 1  -8618874.785 1  -7109003.56546  24647075.35546
        32.500          19.500  
  24831234.383 5      -789.923 5  -1674229.314 5  -4283155.37146  24831226.74246
        41.500          20.250  
  24811105.563 5      2456.220 5   -473997.494 5  -5255705.96645  24811097.57045
        39.500          17.750  
  24166310.539 5      2844.487 5  -2669708.703 5  -8710052.22546  24166303.07446
        40.250          23.250  
  25005379.539 4      3370.786 4   -310566.214 4                
        38.000  
  21944554.516 7      2430.826 7 -13012637.253 7 -10111340.58947  21944545.52747
        48.250          33.500  
  20911606.688 6        42.703 6 -24093360.246 6 -18740631.30448  20911596.87948
        47.250          39.750  
  20992936.688 7     -1955.118 7 -21859656.194 7 -19690816.23748  20992927.75848
        47.750          39.750  
  20342228.922 7       968.511 7 -22028243.679 7 -23344162.64349  20342217.29749
        49.000          41.500  
  21171657.188 7     -1338.917 7 -24999756.480 7 -19455999.49848  21171648.84448
        51.000          37.750  
  24670651.313 3     -3021.865 3  -4564840.580 3  -3541166.88846  24670645.66446
        36.750          25.250  
 11  3 24  0  7  0.0000000  0 11G03G04G06G07G10G13G16G20G23G30G31   
  24638511.445 4      3003.004 4  -8663919.848 4  -7144103.55346  24638503.21946
        37.750          19.250  
  24833510.469 5      -797.570 5  -1662265.758 5  -4273833.12346  24833503.53146
        41.500          20.500  
  24804100.328 6      2455.033 6   -510822.986 6  -5284401.09345  24804089.52345
        43.750          17.750  
  24158198.570 4      2841.955 4  -2712338.032 4  -8743269.82146  24158191.04746
        38.750          23.500  
  24995766.328 4      3367.547 4   -361079.413 4                
        38.250  
  21937622.258 7      2428.622 7 -13049066.577 7 -10139727.05247  21937613.32847
        48.750          32.500  
  20911515.375 6        32.103 6 -24093841.788 6 -18741006.53148  20911505.56648
        47.250          40.000  
  20998541.133 6     -1963.370 6 -21830205.637 6 -19667867.75448  20998531.85248
        47.000          39.750  
  20339478.117 7       963.489 7 -22042696.014 7 -23355424.20348  20339466.37548
        48.750          41.000  
  21175508.008 7     -1348.995 7 -24979521.555 7 -19440232.01848  21175499.48848
        50.750          38.000  
  24679275.070 3     -3021.258 3  -4519521.708 3  -3505853.46646  24679267.54746
        36.500          21.500  
 11  3 24  0  7 15.0000000  0 11G03G04G06G07G10G13G16G20G23G30G31   
  24629938.547 4      3003.440 4  -8708971.453 4  -7179208.65145  24629930.26245
        38.000          18.500  
  24835808.859 5      -805.188 5  -1650187.942 5  -4264421.86046  24835802.09846
        41.500          19.750  
  24797094.602 5      2453.835 5   -547630.507 5  -5313082.28845  24797085.26245
        39.750          17.250  
  24150093.477 4      2839.423 4  -2754929.383 4  -8776457.82946  24150086.12946
        38.500          24.000  
  24986163.141 5      3364.294 5   -411543.824 5                
        40.250  
  21930696.414 7      2426.424 7 -13085462.939 7 -10168087.84647  21930686.60547
        48.500          33.250  
  20911453.852 7        21.520 7 -24094164.595 7 -18741258.06448  20911444.33648
        49.750          39.250  
  21004168.789 6     -1971.589 6 -21800631.797 6 -19644823.21948  21004159.39148
        47.500          39.500  
  20336742.484 7       958.472 7 -22057073.094 7 -23366627.12448  20336730.74248
        49.250          40.750  
  21179386.898 7     -1359.044 7 -24959135.894 7 -19424347.09148  21179378.90648
        51.000          37.500  
  24687899.031 4     -3020.650 4  -4474211.951 4  -3470547.24646  24687891.56646
        38.250          25.250  
 11  3 24  0  7 30.0000000  0 11G03G04G06G07G10G13G16G20G23G30G31   
  24621362.305 4      3003.895 4  -8754029.876 4  -7214319.08446  24621355.71946
        38.000          19.250  
  24838129.023 5      -812.748 5  -1637996.715 5  -4254922.23146  24838121.67646
        41.000          21.000  
  24790090.891 4      2452.659 4   -584420.390 4  -5341749.71745  24790084.48045
        37.500          17.250  
  24141995.711 4      2836.927 4  -2797483.291 4  -8809616.67546  24141988.18846
        39.000          23.500  
  24976569.578 5      3361.080 5   -461960.019 5                
        41.250  
  21923776.438 6      2424.260 6 -13121826.834 6 -10196423.33447  21923767.62547
        47.500          33.500  
  20911422.469 7        10.990 7 -24094329.440 7 -18741386.50048  20911412.77748
        48.250          40.250  
  21009819.656 6     -1979.740 6 -21770935.694 6 -19621683.40648  21009810.72748
        47.500          39.750  
  20334021.047 7       953.488 7 -22071375.414 7 -23377771.79049  20334009.30549
        49.000          41.750  
  21183295.023 7     -1369.028 7 -24938600.474 7 -19408345.46548  21183286.15248
        50.750          38.000  
  24696518.344 3     -3019.972 3  -4428912.363 3  -3435248.83746  24696509.23846
        36.750          21.250  
 11  3 24  0  7 45.0000000  0 11G03G04G06G07G10G13G16G20G23G30G31   
  24612784.047 3      3004.257 3  -8799093.735 3  -7249433.75646  24612780.21546
        35.750          19.250  
  24840470.617 5      -820.383 5  -1625690.963 5  -4245333.35646  24840463.38746
        42.000          20.500  
  24783093.563 4      2451.376 4   -621191.029 4  -5370402.07645  24783087.21145
        38.000          16.750  
  24133905.148 4      2834.337 4  -2839998.342 4  -8842745.24246  24133897.97746
        38.500          24.500  
  24966984.805 5      3357.764 5   -512326.482 5                
        42.250  
  21916863.039 7      2422.004 7 -13158156.896 7 -10224732.45947  21916854.16847
        48.000          33.500  
  20911421.367 6         0.370 6 -24094334.983 6 -18741390.81948  20911411.67648
        47.500          39.000  
  21015494.273 6     -1987.966 6 -21741116.211 6 -19598447.44948  21015484.99248
        47.250          39.000  
  20331313.961 7       948.416 7 -22085601.647 7 -23388857.16049  20331302.21949
        48.750          42.000  
  21187231.664 7     -1379.090 7 -24917914.128 7 -19392226.23848  21187222.55948
        51.000          38.000  
  24705137.477 4     -3019.377 4  -4383621.708 4  -3399957.52346  24705129.95346
        37.500          21.500  
 11  3 24  0  8  0.0000000  0 11G03G04G06G07G10G13G16G20G23G30G31   
  24604208.945 3      3004.611 3  -8844162.896 3  -7284552.54346  24604203.76646
        36.750          19.500  
  24842834.227 5      -827.970 5  -1613271.408 5  -4235655.76446  24842826.35246
        41.250          19.500  
  24776097.820 4      2450.098 4   -657942.493 4  -5399039.53145  24776093.93045
        38.500          17.250  
  24125822.094 5      2831.779 5  -2882475.031 5  -8875843.90046  24125814.51246
        39.750          24.750  
  24957410.383 5      3354.456 5   -562643.317 5                
        42.000  
  21909956.234 7      2419.766 7 -13194453.389 7 -10253015.41947  21909946.83647
        48.750          33.500  
  20911450.516 6       -10.220 6 -24094181.676 6 -18741271.34848  20911440.82448
        47.500          40.000  
  21021192.242 6     -1996.144 6 -21711174.046 6 -19575115.90948  21021183.02048
        47.250          39.500  
  20328620.922 7       943.364 7 -22099752.108 7 -23399883.49849  20328609.47349
        48.750          42.250  
  21191196.523 7     -1389.098 7 -24897077.662 7 -19375990.02948  21191187.94548
        51.000          37.500  
  24713754.719 4     -3018.736 4  -4338340.675 4  -3364673.53846  24713745.02746
        37.500          20.500  
 11  3 24  0  8 15.0000000  0 11G03G04G06G07G10G13G16G20G23G30G31   
  24595634.750 5      3004.975 5  -8889237.515 5  -7319675.60446  24595626.40646
        40.500          19.000  
  24845218.773 5      -835.511 5  -1600738.745 5  -4225890.07946  24845211.66046
        41.000          19.000  
  24769108.227 4      2448.818 4   -694674.756 4  -5427662.04445  24769104.68845
        39.000          17.750  
  24117746.016 5      2829.255 5  -2924913.862 5  -8908913.07346  24117738.96146
        40.250          26.000  
  24947845.469 6      3351.153 6   -612910.607 6                
        43.750  
  21903055.219 7      2417.553 7 -13230716.680 7 -10281272.51047  21903046.28947
        48.750          33.500  
  20911509.844 7       -20.773 7 -24093870.078 7 -18741028.52948  20911499.91848
        48.500          39.750  
  21026912.938 6     -2004.281 6 -21681109.824 6 -19551689.25148  21026903.53948
        47.000          39.250  
  20325942.813 7       938.323 7 -22113826.946 7 -23410850.89749  20325930.83649
        48.750          41.500  
  21195189.961 7     -1399.067 7 -24876091.655 7 -19359637.29348  21195181.20748
        50.750          38.000  
  24722368.656 3     -3018.069 3  -4293069.639 3  -3329397.55346  24722361.95346
        37.250          22.000  
 11  3 24  0  8 30.0000000  0 11G03G04G06G07G10G13G16G20G23G30G31   
  24587055.188 4      3005.366 4  -8934318.000 4  -7354803.29846  24587048.36746
        39.000          19.750  
  24847625.133 5      -842.985 5  -1588093.976 5  -4216037.03645  24847617.84445
        40.500          17.750  
  24762126.625 5      2447.579 5   -731388.435 5  -5456270.02745  24762117.52045
        42.250          17.750  
  24109677.578 5      2826.773 5  -2967315.461 5  -8941953.24046  24109669.93846
        40.000          25.750  
  24938288.508 6      3347.885 6   -663128.880 6                
        44.000  
  21896160.969 7      2415.374 7 -13266947.290 7 -10309504.13947  21896152.15647
        48.000          33.500  
  20911599.133 6       -31.283 6 -24093400.827 6 -18740662.87148  20911589.26648
        47.500          40.000  
  21032657.336 6     -2012.337 6 -21650924.769 6 -19528168.43548  21032647.64548
        47.000          39.000  
  20323278.703 7       933.328 7 -22127826.864 7 -23421759.91149  20323267.02049
        48.750          41.500  
  21199211.805 7     -1408.969 7 -24854957.119 7 -19343168.82848  21199203.05148
        50.500          38.250  
  24730982.289 3     -3017.333 3  -4247809.645 3  -3294129.89446  24730972.18846
        36.000          19.250  
 11  3 24  0  8 45.0000000  0 11G03G04G06G07G10G13G16G20G23G30G31   
  24578475.156 4      3005.648 4  -8979402.715 4  -7389934.23046  24578468.51246
        38.750          20.250  
  24850052.836 5      -850.537 5  -1575335.917 5  -4206095.68445  24850045.48845
        40.500          17.250  
  24755141.609 4      2446.217 4   -768081.692 4  -5484862.20145  24755134.61345
        38.250          18.500  
  24101616.578 5      2824.203 5  -3009678.505 5  -8974963.36046  24101608.41046
        40.750          26.000  
  24928742.195 6      3344.500 6   -713296.384 6                
        44.750  
  21889272.891 7      2413.105 7 -13303143.868 7 -10337709.25547  21889263.55147
        49.000          33.500  
  20911718.289 6       -41.855 6 -24092773.001 6 -18740173.65248  20911708.48048
        47.500          39.750  
  21038424.406 6     -2020.471 6 -21620617.706 6 -19504552.55348  21038415.18448
        47.000          39.000  
  20320629.086 7       928.223 7 -22141750.212 7 -23432609.27349  20320617.34449
        49.000          41.750  
  21203261.883 7     -1418.950 7 -24833672.872 7 -19326583.69948  21203253.30548
        50.500          38.250  
  24739593.766 4     -3016.699 4  -4202559.162 4  -3258869.98046  24739587.12146
        38.000          25.500  
 11  3 24  0  9  0.0000000  0 11G03G04G06G07G10G13G16G20G23G30G31   
  24569893.727 4      3005.929 4  -9024491.648 4  -7425068.47446  24569887.90246
        38.500          20.000  
  24852501.391 5      -858.034 5  -1562465.402 5  -4196066.74245  24852494.68845
        41.750          18.500  
  24748167.633 6      2444.876 6   -804754.828 6  -5513438.55545  24748156.00845
        43.500          18.500  
  24093561.867 5      2821.656 5  -3052003.350 5  -9007943.70547  24093554.63747
        41.500          26.750  
  24919205.031 6      3341.131 6   -763413.352 6                
        44.250  
  21882391.430 7      2410.855 7 -13339306.696 7 -10365888.06347  21882381.50447
        49.000          33.500  
  20911867.750 6       -52.397 6 -24091987.048 6 -18739561.20948  20911858.05948
        47.250          40.500  
  21044214.836 6     -2028.551 6 -21590189.436 6 -19480842.22448  21044205.61348
        47.000          39.000  
  20317993.836 7       923.150 7 -22155597.466 7 -23443399.33748  20317982.15248
        48.750          41.250  
  21207340.602 7     -1428.882 7 -24812239.646 7 -19309882.48848  21207332.08248
        50.750          37.500  
  24748199.008 1     -3015.992 1  -4157319.288 1  -3223618.02246  24748192.71546
        33.500          19.250  
 11  3 24  0  9 15.0000000  0 11G03G04G06G07G10G13G16G20G23G30G31   
  24561313.875 4      3006.197 4  -9069584.605 4  -7460205.79346  24561307.28946
        39.000          19.250  
  24854972.664 5      -865.519 5  -1549482.613 5  -4185950.27345  24854964.84845
        40.500          18.250  
  24741191.461 5      2443.504 5   -841407.386 5  -5541999.01845  24741181.82845
        39.500          17.750  
  24085515.039 6      2819.110 6  -3094289.996 6  -9040894.28647  24085507.39847
        42.500          28.000  
  24909677.930 6      3337.734 6   -813479.355 6                
        44.000  
  21875516.078 7      2408.601 7 -13375435.716 7 -10394040.54247  21875506.68047
        49.000          33.250  
  20912047.695 6       -62.969 6 -24091042.508 6 -18738825.19348  20912038.06348
        47.500          40.250  
  21050027.930 6     -2036.615 6 -21559640.205 6 -19457037.63848  21050018.53148
        47.000          39.000  
  20315373.359 7       918.072 7 -22169368.545 7 -23454130.04649  20315361.79349
        48.750          41.500  
  21211447.594 7     -1438.793 7 -24790657.743 7 -19293065.42148  21211438.66448
        50.750          38.000  
  24756809.063 4     -3015.282 4  -4112090.054 4  -3188374.60446  24756803.18046
        38.500          24.000  
 11  3 24  0  9 30.0000000  0 11G03G04G06G07G10G13G16G20G23G30G31   
  24552733.375 5      3006.398 5  -9114680.572 5  -7495345.49446  24552726.55546
        40.750          19.500  
  24857464.203 5      -873.030 5  -1536387.168 5  -4175746.02345  24857456.21145
        41.250          18.500  
  24734219.047 4      2442.080 4   -878038.579 4  -5570542.74345  24734210.93845
        38.250          18.500  
  24077475.273 5      2816.531 5  -3136537.957 5  -9073814.72647  24077467.98447
        41.750          27.750  
  24900160.055 6      3334.284 6   -863493.619 6                
        43.500  
  21868647.500 7      2406.299 7 -13411530.199 7 -10422166.09247  21868638.45347
        49.000          33.000  
  20912258.023 6       -73.540 6 -24089939.409 6 -18737965.63048  20912247.92248
        47.500          39.750  
  21055864.711 6     -2044.699 6 -21528969.716 6 -19433138.56948  21055855.43048
        47.000          39.750  
  20312767.422 7       912.943 7 -22183062.696 7 -23464800.80749  20312755.68049
        48.750          41.500  
  21215582.789 7     -1448.732 7 -24768926.763 7 -19276132.18748  21215574.15248
        49.750          37.500  
  24765413.367 3     -3014.617 3  -4066870.792 3  -3153138.68645  24765404.26245
        37.250          17.750  
 11  3 24  0  9 45.0000000  0 11G03G04G06G07G10G13G16G20G23G30G31   
  24544150.891 5      3006.603 5  -9159779.621 5  -7530487.63246  24544144.18846
        40.500          19.500  
  24859978.609 5      -880.483 5  -1523179.921 5  -4165454.69045  24859970.26645
        41.750          18.500  
  24727252.383 2      2440.649 2   -914648.311 2  -5599069.79145  24727244.21545
        35.000          18.500  
  24069443.734 6      2813.965 6  -3178747.429 6  -9106705.17747  24069435.74247
        43.000          28.500  
  24890652.023 6      3330.843 6   -913456.258 6  -2442755.75756  24890645.43856
        43.000          22.750  
  21861785.938 7      2404.010 7 -13447590.350 7 -10450264.89947  21861775.95347
        49.000          33.500  
  20912497.461 6       -84.081 6 -24088678.193 6 -18736982.85348  20912488.12148
        47.500          40.000  
  21061723.414 6     -2052.744 6 -21498178.559 6 -19409145.47548  21061714.83648
        47.000          39.500  
  20310176.305 7       907.832 7 -22196680.176 7 -23475411.82449  20310164.27049
        50.250          42.000  
  21219746.461 7     -1458.614 7 -24747047.555 7 -19259083.45748  21219737.59048
        51.000          37.250  
  24774016.172 4     -3013.907 4  -4021662.185 4  -3117911.37246  24774010.75846
        37.500          23.500  
 11  3 24  0 10  0.0000000  0 11G03G04G06G07G10G13G16G20G23G30G31   
  24535568.281 5      3006.741 5  -9204880.736 5  -7565631.33046  24535561.75446
        40.000          19.750  
  24862512.570 5      -887.983 5  -1509860.170 5  -4155075.66145  24862505.57445
        40.250          18.500  
  24720285.617 1      2439.168 1   -951235.824 1  -5627579.41145  24720282.07845
        32.000          17.250  
  24061418.453 5      2811.359 5  -3220917.807 5  -9139565.17647  24061411.16447
        42.000          29.750  
  24881154.680 5      3327.339 5   -963366.342 5  -2481646.64846  24881147.39146
        42.250          21.500  
  21854930.555 7      2401.672 7 -13483615.423 7 -10478336.37947  21854921.21547
        49.500          33.500  
  20912768.391 7       -94.669 7 -24087258.157 7 -18735876.32348  20912758.34848
        47.750          39.750  
  21067606.297 6     -2060.812 6 -21467266.374 6 -19385058.06748  21067597.19148
        47.000          39.250  
  20307599.453 7       902.662 7 -22210220.109 7 -23485962.41848  20307587.53548
        49.250          41.250  
  21223938.180 7     -1468.529 7 -24725019.613 7 -19241918.83048  21223929.54348
        51.000          38.000  
  24782617.039 3     -3013.234 3  -3976463.672 3  -3082691.60245  24782608.63745
        37.000          18.500  
 11  3 24  0 10 15.0000000  0 11G03G04G06G07G10G13G16G20G23G30G31   
  24526985.266 5      3006.867 5  -9249983.745 5  -7600776.55245  24526979.03145
        40.250          18.500  
  24865068.883 5      -895.447 5  -1496428.471 5  -4144609.46745  24865061.18445
        41.000          17.750  
  24713328.180 2      2437.664 2   -987800.790 2  -5656071.53945  24713324.75845
        34.250          17.750  
  24053401.320 6      2808.766 6  -3263049.295 6  -9172394.85647  24053393.68047
        43.000          29.250  
  24871667.883 6      3323.824 6  -1013223.703 6  -2520496.54446  24871659.53946
        42.500          22.000  
  21848081.602 7      2399.334 7 -13519605.425 7 -10506380.51648  21848072.20348
        49.250          33.750  
  20913068.430 7      -105.246 7 -24085679.469 7 -18734646.17348  20913059.03148
        48.250          39.250  
  21073511.648 6     -2068.848 6 -21436233.659 6 -19360876.74548  21073502.48448
        47.000          39.500  
  20305037.648 7       897.496 7 -22223682.553 7 -23496452.62948  20305026.08248
        49.500          41.250  
  21228158.133 7     -1478.414 7 -24702843.398 7 -19224638.65748  21228149.55548
        51.250          38.000  
  24791217.172 5     -3012.540 5  -3931275.565 5  -3047480.27546  24791210.41046
        39.500          22.750  
 11  3 24  0 10 30.0000000  0 11G03G04G06G07G10G13G16G20G23G30G31   
  24518399.680 5      3007.032 5  -9295089.228 5  -7635923.71046  24518395.67246
        39.250          19.000  
  24867646.008 5      -902.838 5  -1482885.898 5  -4134056.78845  24867638.13345
        40.750          18.250  
  24706378.063 4      2436.183 4  -1024343.538 4  -5684546.24445  24706370.59845
        38.250          17.750  
  24045391.023 6      2806.212 6  -3305142.472 6  -9205194.69847  24045383.50047
        43.000          29.500  
  24862190.828 6      3320.354 6  -1063029.011 6  -2559305.87646  24862182.01646
        42.500          22.500  
  21841239.703 7      2397.048 7 -13555561.151 7 -10534397.95647  21841230.12947
        48.750          33.000  
  20913398.578 6      -115.763 6 -24083943.025 6 -18733293.09248  20913388.94548
        47.500          39.750  
  21079439.961 6     -2076.813 6 -21405081.468 6 -19336602.32548  21079430.50448
        47.000          39.500  
  20302490.688 7       892.373 7 -22237068.156 7 -23506882.96849  20302479.18049
        50.000          41.750  
  21232406.180 7     -1488.231 7 -24680519.931 7 -19207243.74848  21232397.54348
        50.750          37.250  
  24799811.383 2     -3011.781 2  -3886098.853 2  -3012277.66846  24799805.38346
        35.000          20.250  
 11  3 24  0 10 45.0000000  0 11G03G04G06G07G10G13G16G20G23G30G31   
  24509817.148 5      3007.162 5  -9340196.663 5  -7671072.34745  24509811.96945
        40.000          18.500  
  24870242.859 5      -910.219 5  -1469232.610 5  -4123417.83145  24870236.09845
        40.000          15.500  
  24699426.734 3      2434.698 3  -1060864.004 3  -5713003.75345  24699420.38345
        36.250          17.750  
  24037388.516 6      2803.666 6  -3347197.460 6  -9237964.76647  24037380.81647
        43.000          29.750  
  24852723.367 5      3316.860 5  -1112781.912 5  -2598074.32446  24852713.85246
        41.500          22.250  
  21834403.711 7      2394.753 7 -13591482.439 7 -10562388.55647  21834394.25447
        49.500          33.500  
  20913759.148 7      -126.269 7 -24082048.990 7 -18731817.20948  20913749.51648
        48.000          39.500  
  21085390.781 6     -2084.755 6 -21373810.140 6 -19312235.07548  21085381.20748
        46.750          39.000  
  20299958.008 7       887.249 7 -22250376.890 7 -23517253.39949  20299946.44149
        49.500          41.500  
  21236682.273 7     -1498.031 7 -24658049.471 7 -19189734.30348  21236673.40248
        51.500          37.250  
  24808409.664 5     -3011.014 5  -3840933.636 5  -2977083.95946  24808401.02746
        41.250          26.000  
 11  3 24  0 11  0.0000000  0 11G03G04G06G07G10G13G16G20G23G30G31   
  24501232.414 5      3007.241 5  -9385305.280 5  -7706221.90945  24501227.58645
        39.500          18.500  
  24872863.031 5      -917.607 5  -1455468.511 5  -4112692.65845  24872855.03945
        39.500          17.250  
  24692480.547 1      2433.140 1  -1097361.109 1  -5741443.05745  24692475.30945
        31.500          17.750  
  24029392.344 6      2801.084 6  -3389213.720 6  -9270704.66847  24029385.23047
        42.750          30.000  
  24843266.375 5      3313.311 5  -1162481.577 5  -2636801.31046  24843256.09846
        41.250          22.250  
  21827574.922 7      2392.412 7 -13627368.612 7 -10590351.79847  21827565.64147
        49.000          33.500  
  20914149.500 6      -136.809 6 -24079996.861 6 -18730218.13848  20914139.92648
        47.500          39.500  
  21091363.633 6     -2092.716 6 -21342419.405 6 -19287774.77448  21091354.41048
        47.000          39.000  
  20297440.359 7       882.075 7 -22263608.013 7 -23527563.36549  20297428.55949
        48.750          41.750  
  21240986.227 7     -1507.851 7 -24635431.702 7 -19172110.06848  21240977.64848
        51.000          37.500  
  24816998.898 3     -3010.287 3  -3795779.332 3  -2941898.91646  24816992.66446
        36.500          19.750  
 11  3 24  0 11 15.0000000  0 11G03G04G06G07G10G13G16G20G23G30G31   
  24492649.508 5      3007.286 5  -9430414.576 5  -7741372.01945  24492643.85945
        41.000          18.500  
  24875503.406 5      -924.981 5  -1441593.803 5  -4101881.14445  24875495.29745
        39.750          15.500  
  24685540.117 2      2431.565 2  -1133834.581 2  -5769863.84045  24685534.35245
        34.000          17.250  
  24021404.180 5      2798.499 5  -3431191.206 5  -9303414.35447  24021397.12547
        42.000          29.750  
  24833818.734 5      3309.737 5  -1212127.632 5  -2675486.50246  24833809.16046
        40.750          21.250  
  21820752.656 7      2390.066 7 -13663219.604 7 -10618287.62148  21820743.19948
        49.750          34.000  
  20914570.484 7      -147.346 7 -24077786.673 7 -18728495.91048  20914560.61748
        47.750          40.000  
  21097360.180 6     -2100.656 6 -21310909.571 6 -19263221.67048  21097350.66448
        47.000          39.000  
  20294937.242 7       876.891 7 -22276761.382 7 -23537812.73548  20294925.26648
        49.000          41.250  
  21245318.328 7     -1517.645 7 -24612667.022 7 -19154371.35648  21245309.39848
        51.250          37.000  
  24825591.852 5     -3009.511 5  -3750636.672 5  -2906722.70846  24825584.03546
        41.000          25.750  
 11  3 24  0 11 30.0000000  0 11G03G04G06G07G10G13G16G20G23G30G31   
  24484067.023 5      3007.278 5  -9475523.744 5  -7776522.02445  24484059.55945
        42.000          18.500  
  24878164.734 5      -932.390 5  -1427607.951 5  -4090983.09445  24878157.38745
        39.250          15.500  
  24678603.938 1      2429.936 1  -1170283.624 1  -5798265.65046  24678598.34846
        33.000          19.500  
  24013424.211 5      2795.874 5  -3473129.310 5  -9336093.36047  24013417.15647
        42.000          30.500  
  24824381.102 4      3306.098 4  -1261719.102 4  -2714129.16646  24824372.64146
        39.000          21.500  
  21813937.414 7      2387.666 7 -13699034.602 7 -10646195.40148  21813927.84048
        48.750          34.000  
  20915020.969 6      -157.912 6 -24075417.994 6 -18726650.18148  20915011.16048
        47.250          39.500  
  21103378.484 6     -2108.617 6 -21279280.317 6 -19238575.51648  21103369.73048
        47.250          38.500  
  20292449.289 7       871.666 7 -22289836.366 7 -23548001.03149  20292437.60549
        48.750          41.500  
  21249677.570 7     -1527.466 7 -24589755.038 7 -19136517.86648  21249669.16848
        50.250          37.000  
  24834178.773 4     -3008.809 4  -3705504.531 4  -2871554.95246  24834171.48446
        39.000          19.750  
 11  3 24  0 11 45.0000000  0 11G03G04G06G07G10G13G16G20G23G30G31   
  24475482.313 5      3007.303 5  -9520633.295 5  -7811672.37946  24475475.31646
        41.500          19.000  
  24880846.953 4      -939.714 4  -1413512.237 4  -4079999.40645  24880839.02045
        39.000          15.500  
  24671671.391 2      2428.333 2  -1206708.624 2  -5826648.65446  24671666.73846
        34.500          19.000  
  24005450.852 6      2793.300 6  -3515028.813 6  -9368742.28247  24005443.56347
        42.500          29.750  
  24814953.930 4      3302.499 4  -1311256.592 4  -2752729.78946  24814945.93846
        37.500          21.500  
  21807128.727 7      2385.315 7 -13734814.322 7 -10674075.69147  21807119.50447
        48.750          33.250  
  20915501.953 6      -168.425 6 -24072891.620 6 -18724681.56548  20915492.32048
        47.500          39.750  
  21109420.016 7     -2116.512 7 -21247532.642 7 -19213837.08748  21109410.91048
        47.750          39.000  
  20289976.008 7       866.475 7 -22302833.486 7 -23558128.65749  20289964.20749
        49.000          41.750  
  21254065.828 7     -1537.215 7 -24566696.809 7 -19118550.41848  21254057.07448
        50.250          36.750  
  24842764.852 4     -3008.022 4  -3660384.196 4  -2836396.14746  24842757.27046
        38.000          22.500  
 11  3 24  0 12  0.0000000  0 11G03G04G06G07G10G13G16G20G23G30G31   
  24466898.609 5      3007.243 5  -9565741.934 5  -7846822.01345  24466891.32045
        40.500          17.750  
  24883550.484 4      -947.087 4  -1399305.932 4  -4068929.54645  24883542.72745
        38.000          16.250  
  24664744.320 2      2426.653 2  -1243108.412 2  -5855012.03946  24664740.25446
        34.250          19.750  
  23997485.141 5      2790.669 5  -3556888.853 5  -9401360.45047  23997477.61747
        41.750          30.250  
  24805536.156 3      3298.826 3  -1360738.979 3  -2791287.45046  24805530.03946
        36.500          21.000  
  21800327.078 7      2382.888 7 -13770557.635 7 -10701927.60948  21800318.09048
        48.750          34.500  
  20916012.891 7      -178.998 7 -24070206.644 7 -18722589.37348  20916002.96548
        48.250          39.250  
  21115484.445 6     -2124.444 6 -21215665.981 6 -19189005.93848  21115475.10548
        47.250          39.500  
  20287517.594 7       861.214 7 -22315751.696 7 -23568194.78749  20287506.14549
        49.500          41.500  
  21258481.508 7     -1547.012 7 -24543491.634 7 -19100468.46548  21258473.22348
        50.000          37.250  
  24851350.930 5     -3007.297 5  -3615274.738 5  -2801246.03246  24851340.82846
        42.250          21.500  
 11  3 24  0 12 15.0000000  0 11G03G04G06G07G10G13G16G20G23G30G31   
  24458313.297 5      3007.206 5  -9610850.031 5  -7881971.12845  24458307.47345
        39.500          18.500  
  24886274.836 4      -954.413 4  -1384989.737 4  -4057774.08745  24886267.07845
        39.000          16.750  
  24657823.117 2      2424.972 2  -1279482.985 2  -5883355.80745  24657818.23045
        34.250          18.250  
  23989527.227 5      2788.066 5  -3598709.843 5  -9433948.19147  23989519.29347
        42.250          30.000  
  24796131.039 3      3295.160 3  -1410166.374 3  -2829802.25646  24796124.10246
        37.250          19.500  
  21793532.180 6      2380.496 6 -13806265.073 6 -10729751.57748  21793522.66448
        47.500          34.250  
  20916553.664 6      -189.522 6 -24067363.809 6 -18720374.17448  20916543.85548
        47.500          40.250  
  21121570.406 6     -2132.312 6 -21183681.297 6 -19164082.82048  21121561.94548
        47.000          38.500  
  20285074.133 7       855.989 7 -22328591.530 7 -23578199.84949  20285062.50849
        50.250          41.750  
  21262925.531 7     -1556.750 7 -24520140.377 7 -19082272.68848  21262916.95348
        49.500          37.000  
  24859929.102 4     -3006.525 4  -3570176.865 4  -2766104.78546  24859922.98446
        38.500          22.500  
 11  3 24  0 12 30.0000000  0 11G03G04G06G07G10G13G16G20G23G30G31   
  24449729.133 5      3007.205 5  -9655958.104 5  -7917120.31045  24449723.89545
        39.250          18.500  
  24889019.813 3      -961.621 3  -1370565.417 3  -4046534.40545  24889010.94145
        37.250          15.500  
  24650904.95311      2422.17211                  -8366880.79155  24650901.35555
        33.250          18.500  
  23981575.453 5      2785.538 5  -3640492.915 5  -9466506.38447  23981568.57447
        41.000          29.250  
  24786734.891 4      3291.568 4  -1459539.900 4  -2868275.13346  24786728.53946
        38.000          21.000  
  21786743.883 6      2378.185 6 -13841937.842 6 -10757548.52348  21786734.30948
        47.000          34.250  
  20917124.531 7      -199.958 7 -24064364.446 7 -18718037.00348  20917114.95748
        48.500          40.000  
  21127679.070 7     -2140.084 7 -21151580.036 7 -19139068.86848  21127670.19948
        47.750          38.500  
  20282645.820 7       850.832 7 -22341354.011 7 -23588144.62948  20282634.25448
        50.000          41.250  
  21267396.664 7     -1566.384 7 -24496644.613 7 -19063964.29648  21267387.91048
        49.000          37.750  
  24868512.477 6     -3005.658 6  -3525092.000 6  -2730973.80146  24868503.31346
        42.500          23.000  
 11  3 24  0 12 45.0000000  0 11G03G04G06G07G10G13G16G20G23G30G31   
  24441148.125 5      3006.907 5  -9701061.713 5  -7952265.96646  24441141.07046
        41.250          19.000  
  24891785.867 4      -969.107 4  -1356028.814 4  -4035207.18745  24891777.81645
        37.500          16.250  
  24643993.84412      2420.50012  -4502995.13312  -8395183.24456  24643989.30956
        34.250          19.000  
  23973632.281 5      2782.734 5  -3682233.931 5  -9499031.80647  23973625.05147
        41.500          29.250  
  24777351.953 4      3287.674 4  -1508855.012 4  -2906702.48246  24777344.07846
        39.000          21.250  
  21779962.805 6      2375.580 6 -13877571.545 6 -10785315.04048  21779953.69948
        47.250          34.500  
  20917725.742 6      -210.665 6 -24061204.478 6 -18715574.68248  20917715.75848
        47.500          39.500  
  21133810.922 7     -2148.126 7 -21119358.151 7 -19113960.91948  21133801.93448
        48.500          39.250  
  20280232.602 7       845.385 7 -22354034.779 7 -23598025.74549  20280220.97749
        49.500          41.500  
  21271895.836 7     -1576.297 7 -24473000.161 7 -19045540.05048  21271887.08248
        49.000          37.500  
  24877087.273 4     -3005.069 4  -3480015.958 4  -2695849.59646  24877079.63346
        39.000          20.250  
 11  3 24  0 13  0.0000000  0 11G03G04G06G07G10G13G16G20G23G30G31   
  24432564.891 5      3006.908 5  -9746165.332 5  -7987411.59646  24432558.01246
        39.500          19.250  
  24894572.945 4      -976.259 4  -1341384.936 4  -4023796.39045  24894564.54345
        37.500          17.250  
  24637089.336 3      2419.814 3  -4539292.341 3  -8423466.74046  24637081.69546
        36.750          19.250  
  23965696.414 5      2780.229 5  -3723937.364 5  -9531527.94647  23965688.94947
        41.500          29.000  
  24767978.125 5      3284.067 5  -1558116.013 5  -2945087.67946  24767969.31346
        40.750          20.250  
  21773188.961 6      2373.271 6 -13913170.609 6 -10813054.54848  21773179.32848
        47.000          34.250  
  20918356.898 6      -221.075 6 -24057888.356 6 -18712990.68248  20918346.68048
        47.500          40.250  
  21139964.609 7     -2155.830 7 -21087020.698 7 -19088762.91648  21139955.62148
        48.500          39.000  
  20277834.438 7       840.245 7 -22366638.460 7 -23607846.79649  20277822.28549
        49.000          41.500  
  21276422.602 7     -1585.874 7 -24449212.048 7 -19027003.86748  21276413.61348
        49.000          37.000  
  24885664.125 5     -3004.141 5  -3434953.844 5  -2660736.27346  24885656.83646
        41.250          24.500  
 11  3 24  0 13 15.0000000  0 11G03G04G06G07G10G13G16G20G23G30G31   
  24423982.070 5      3006.774 5  -9791266.944 5  -8022555.70546  24423975.36746
        39.500          19.000  
  24897379.578 4      -983.513 4  -1326632.238 4  -4012300.77045  24897372.23045
        37.500          16.250  
  24630183.984 1      2418.059 1  -4575563.229 1  -8451729.72546  24630179.68446
        33.750          19.000  
  23957767.930 5      2777.629 5  -3765601.797 5  -9563993.69347  23957760.17247
        40.500          28.750  
  24758613.875 5      3280.330 5  -1607320.960 5  -2983429.16146  24758604.77046
        41.500          20.500  
  21766421.633 6      2370.840 6 -13948733.213 6 -10840765.66648  21766411.70748
        47.000          34.000  
  20919017.750 7      -231.574 7 -24054414.751 7 -18710283.97948  20919007.82448
        49.250          39.750  
  21146140.305 7     -2163.629 7 -21054566.258 7 -19063473.75448  21146131.31648
        48.250          39.500  
  20275450.781 7       834.981 7 -22379163.181 7 -23617606.31949  20275439.09849
        51.500          41.750  
  21280976.734 7     -1595.536 7 -24425279.002 7 -19008354.74748  21280968.03948
        48.250          36.250  
  24894237.734 6     -3003.340 6  -3389903.737 6  -2625632.31446  24894227.16446
        42.500          21.750  
 11  3 24  0 13 30.0000000  0 11G03G04G06G07G10G13G16G20G23G30G31   
  24415399.859 5      3006.611 5  -9836366.114 5  -8057697.86346  24415393.50846
        39.750          19.250  
  24900208.055 4      -990.740 4  -1311771.135 4  -4000720.69145  24900199.77045
        38.000          14.750  
  24623287.578 3      2416.279 3  -4611807.414 3  -8479971.84746  24623282.75046
        35.750          20.250  
  23949847.156 5      2775.025 5  -3807227.179 5  -9596429.02347  23949839.63347
        40.500          28.250  
  24749262.117 6      3276.565 6  -1656469.442 6  -3021726.67646  24749252.36746
        42.750          22.250  
  21759660.719 6      2368.412 6 -13984259.387 6 -10868448.38348  21759651.37948
        47.000          34.750  
  20919708.688 7      -242.061 7 -24050783.837 7 -18707454.68848  20919698.70348
        47.750          40.000  
  21152338.680 7     -2171.410 7 -21021995.111 7 -19038093.65548  21152329.34048
        49.000          38.500  
  20273082.305 7       829.713 7 -22391608.883 7 -23627304.26249  20273070.62149
        50.500          41.500  
  21285558.766 7     -1605.185 7 -24401201.230 7 -18989592.85548  21285549.89548
        48.750          37.000  
  24902806.477 5     -3002.509 5  -3344866.096 5  -2590538.05946  24902799.77346
        41.500          25.500  
 11  3 24  0 13 45.0000000  0 11G03G04G06G07G10G13G16G20G23G30G31   
  24406817.758 4      3006.359 4  -9881461.493 4  -8092837.09646  24406812.40246
        38.750          19.750  
  24903055.617 4      -998.020 4  -1296800.830 4  -3989055.53845  24903048.15245
        37.500          16.250  
  24616396.469 3      2414.409 3  -4648023.554 3  -8508192.08446  24616390.93846
        36.750          20.250  
  23941933.875 5      2772.354 5  -3848812.493 5  -9628833.11147  23941925.82447
        40.250          27.250  
  24739920.211 6      3272.735 6  -1705560.465 6  -3059979.41846  24739911.10546
        42.750          22.500  
  21752907.469 7      2365.901 7 -14019747.899 7 -10896101.75448  21752898.30548
        48.000          34.750  
  20920429.641 7      -252.610 7 -24046994.692 7 -18704502.10548  20920419.89148
        48.750          39.500  
  21158558.789 7     -2179.222 7 -20989306.774 7 -19012622.23348  21158549.91848
        49.000          38.500  
  20270729.469 7       824.368 7 -22403974.398 7 -23636939.72949  20270717.66849
        50.500          42.250  
  21290168.125 7     -1614.874 7 -24376978.116 7 -18970717.70648  21290159.60548
        49.500          37.250  
  24911374.992 5     -3001.755 5  -3299839.776 5  -2555452.64946  24911365.53546
        41.000          21.500  
 11  3 24  0 14  0.0000000  0 11G03G04G06G07G10G13G16G20G23G30G31   
  24398236.773 3      3006.162 3  -9926553.920 3  -8127974.01245  24398231.82845
        37.250          18.250  
  24905925.875 3     -1005.201 3  -1281722.820 3  -3977306.45545  24905918.05945
        36.750          14.750  
  24609509.688 3      2412.601 3  -4684212.570 3  -8536391.29346  24609504.33246
        35.750          20.500  
  23934027.742 5      2769.764 5  -3890358.960 5  -9661206.96147  23934019.80947
        40.750          28.250  
  24730589.891 6      3268.960 6  -1754594.860 6  -3098188.02746  24730580.55146
        43.000          21.500  
  21746161.273 7      2363.464 7 -14055199.862 7 -10923726.64748  21746152.22748
        49.000          34.250  
  20921180.992 7      -263.074 7 -24043048.587 7 -18701427.21348  20921171.00848
        49.500          39.750  
  21164801.586 7     -2186.946 7 -20956502.591 7 -18987060.54948  21164792.53948
        48.500          39.000  
  20268391.508 7       819.090 7 -22416260.752 7 -23646513.51249  20268379.76649
        51.250          42.000  
  21294805.109 7     -1624.468 7 -24352611.102 7 -18951730.42048  21294796.53148
        50.250          36.500  
  24919941.117 5     -3000.893 5  -3254826.387 5  -2520377.24147  24919933.82847
        41.500          27.000  
 11  3 24  0 14 15.0000000  0 11G03G04G06G07G10G13G16G20G23G30G31   
  24389657.125 4      3005.916 4  -9971642.655 4  -8163108.02645  24389650.89145
        38.500          18.500  
  24908815.594 3     -1012.394 3  -1266536.911 3  -3965473.25645  24908807.77745
        36.250          15.500  
  24602630.680 3      2410.725 3  -4720373.441 3  -8564568.53346  24602623.33246
        36.750          21.250  
  23926129.000 5      2767.128 5  -3931865.877 5  -9693549.98347  23926121.18447
        40.500          27.750  
  24721268.844 6      3265.110 6  -1803571.513 6  -3136351.67946  24721261.32046
        42.500          21.000  
  21739422.328 7      2360.969 7 -14090614.394 7 -10951322.38448  21739413.39848
        49.750          34.000  
  20921961.492 7      -273.561 7 -24038945.173 7 -18698229.74548  20921951.33248
        49.750          39.750  
  21171065.859 7     -2194.680 7 -20923582.389 7 -18961408.45248  21171056.87148
        49.000          39.000  
  20266068.578 7       813.766 7 -22428467.241 7 -23656025.06149  20266056.54349
        50.750          41.500  
  21299469.359 7     -1634.083 7 -24328099.857 7 -18932630.76048  21299460.72348
        50.500          36.750  
  24928504.867 6     -3000.077 6  -3209825.236 6  -2485311.51846  24928496.75846
        43.250          22.750  
 11  3 24  0 14 30.0000000  0 11G03G04G06G07G10G13G16G20G23G30G31   
  24381079.281 4      3005.610 4 -10016726.810 4  -8198238.44746  24381071.87546
        38.500          19.000  
  24911726.133 3     -1019.585 3  -1251243.141 3  -3953556.09245  24911718.02345
        36.000          16.750  
  24595752.453 4      2408.818 4  -4756505.716 4  -8592723.43046  24595748.03546
        38.000          20.750  
  23918237.516 5      2764.486 5  -3973333.174 5  -9725862.12347  23918230.16847
        40.500          27.000  
  24711959.727 5      3261.242 5  -1852490.148 5  -3174470.15246  24711952.96546
        41.500          21.000  
  21732690.164 7      2358.467 7 -14125991.393 7 -10978888.86448  21732681.05948
        49.500          35.500  
  20922772.391 7      -284.076 7 -24034684.040 7 -18694909.37448  20922762.40648
        50.000          40.000  
  21177352.234 7     -2202.409 7 -20890546.247 7 -18935666.01948  21177343.48048
        48.000          38.500  
  20263761.078 7       808.413 7 -22440593.436 7 -23665474.04049  20263749.39549
        51.500          42.000  
  21304161.156 7     -1643.696 7 -24303444.423 7 -18913418.74148  21304152.57848
        50.000          37.000  
  24937065.688 5     -2999.252 5  -3164836.453 5  -2450255.24047  24937057.10947
        42.250          26.500  
 11  3 24  0 14 45.0000000  0 11G03G04G06G07G10G13G16G20G23G30G31   
  24372499.500 4      3005.319 4 -10061806.596 4  -8233365.49446  24372493.38346
        38.000          19.000  
  24914656.414 3     -1026.754 3  -1235841.832 3  -3941555.04845  24914649.47745
        36.250          17.750  
  24588883.375 4      2406.897 4  -4792609.178 4  -8620855.92346  24588877.72746
        39.000          21.750  
  23910354.641 5      2761.845 5  -4014760.849 5  -9758143.40247  23910346.82447
        40.500          27.250  
  24702662.445 5      3257.365 5  -1901350.631 5  -3212543.24846  24702654.86346
        41.000          21.000  
  21725965.508 7      2355.977 7 -14161331.056 7 -11006426.24948  21725955.81648
        48.750          35.500  
  20923613.164 7      -294.560 7 -24030265.636 7 -18691466.45948  20923603.59048
        49.000          39.750  
  21183661.063 7     -2210.110 7 -20857394.593 7 -18909833.57748  21183651.84048
        48.250          38.500  
  20261468.758 7       803.076 7 -22452639.572 7 -23674860.64049  20261457.01649
        50.000          42.000  
  21308880.258 7     -1653.273 7 -24278645.328 7 -18894094.77248  21308871.15248
        50.000          37.000  
  24945623.500 5     -2998.407 5  -3119860.342 5  -2415209.00447  24945616.91447
        42.000          27.000  
 11  3 24  0 15  0.0000000  0 11G03G04G06G07G10G13G16G20G23G30G31   
  24363921.992 3      3004.949 3 -10106880.839 3  -8268488.18446  24363916.10946
        37.000          19.250  
  24917608.508 2     -1033.934 2  -1220332.822 2  -3929470.16345  24917600.98445
        35.250          16.250  
  24582015.352 4      2404.929 4  -4828683.115 4  -8648965.40646  24582012.34046
        38.500          21.000  
  23902478.875 5      2759.173 5  -4056148.441 5  -9790393.44847  23902471.17647
        41.750          27.250  
  24693378.242 5      3253.425 5  -1950152.002 5  -3250570.33946  24693368.60946
        41.000          21.250  
  21719247.914 7      2353.436 7 -14196632.591 7 -11033933.93248  21719238.22348
        47.750          35.750  
  20924483.898 7      -305.076 7 -24025689.493 7 -18687900.62848  20924473.85548
        49.750          39.750  
  21189991.648 6     -2217.834 6 -20824127.079 6 -18883910.84848  21189982.66048
        47.250          38.000  
  20259191.914 7       797.694 7 -22464604.975 7 -23684184.33049  20259180.52349
        49.250          42.500  
  21313627.391 7     -1662.868 7 -24253702.303 7 -18874658.65348  21313618.10948
        48.250          37.250  
  24954179.844 5     -2997.599 5  -3074896.350 5  -2380172.10546  24954171.73446
        41.500          22.500  
 11  3 24  0 15 15.0000000  0 11G03G04G06G07G10G13G16G20G23G30G31   
  24355345.695 4      3004.628 4 -10151950.260 4  -8303607.10646  24355340.63346
        37.500          19.250  
  24920579.883 2     -1041.043 2  -1204717.172 2  -3917302.14945  24920572.35945
        35.250          16.750  
  24575157.930 2      2402.981 2  -4864727.834 2  -8677052.11346  24575153.74646
        35.500          21.750  
  23894610.109 5      2756.553 5  -4097496.736 5  -9822612.87847  23894602.64547
        41.250          26.500  
  24684101.586 5      3249.531 5  -1998894.971 5  -3288551.84146  24684092.59846
        40.500          21.500  
  21712536.914 7      2350.935 7 -14231896.616 7 -11061412.38248  21712527.28148
        48.000          36.000  
  20925384.656 7      -315.531 7 -24020956.534 7 -18684212.60748  20925374.61348
        49.750          40.000  
  21196344.336 7     -2225.493 7 -20790744.686 7 -18857898.60948  21196335.17248
        48.500          38.000  
  20256930.344 7       792.354 7 -22476490.278 7 -23693445.60449  20256918.71949
        50.500          42.500  
  21318400.680 7     -1672.392 7 -24228616.423 7 -18855111.21048  21318391.39848
        49.000          37.000  
  24962735.430 6     -2996.718 6  -3029945.580 6  -2345145.53147  24962727.61347
        44.250          29.250  
 11  3 24  0 15 30.0000000  0 11G03G04G06G07G10G13G16G20G23G30G31   
  24346769.391 2      3004.239 2 -10197013.850 2  -8338721.50946  24346764.44546
        35.250          19.500  
  24923571.375 2     -1048.162 2  -1188994.749 2  -3905050.94245  24923564.43845
        34.250          16.250  
  24568305.281 4      2400.975 4  -4900742.462 4  -8705115.36846  24568300.62946
        38.250          21.750  
  23886749.453 5      2753.890 5  -4138805.086 5  -9854801.18746  23886741.40246
        41.500          25.500  
  24674836.422 4      3245.576 4  -2047578.617 4  -3326487.14045  24674827.60945
        37.500          18.500  
  21705833.820 6      2348.387 6 -14267122.422 6 -11088861.05248  21705824.53948
        46.750          35.000  
  20926315.242 7      -326.024 7 -24016066.177 7 -18680401.93148  20926305.02348
        49.750          39.500  
  21202718.375 7     -2233.142 7 -20757247.559 7 -18831796.96448  21202709.03548
        48.500          38.250  
  20254683.664 7       786.957 7 -22488294.639 7 -23702643.80949  20254672.27349
        51.250          42.500  
  21323201.414 7     -1681.935 7 -24203387.398 7 -18835452.23048  21323192.54348
        48.000          36.750  
  24971285.953 5     -2995.883 5  -2985007.338 5  -2310128.86046  24971278.43046
        41.500          25.750  
 11  3 24  0 15 45.0000000  0 11G03G04G06G07G10G13G16G20G23G30G31   
  24338195.859 3      3003.828 3 -10242071.278 3  -8373831.05545  24338189.91845
        37.000          18.250  
  24926583.688 3     -1055.283 3  -1173165.507 3  -3892716.47945  24926576.45745
        37.250          17.250  
  24561456.531 4      2398.958 4  -4936726.827 4  -8733155.07846  24561452.40646
        37.500          22.250  
  23878896.391 5      2751.233 5  -4180073.578 5  -9886958.44647  23878888.28147
        41.500          26.500  
  24665582.445 2      3241.605 2  -2096202.698 2  -3364375.97845  24665574.57045
        35.000          16.750  
  21699137.813 6      2345.838 6 -14302309.987 6 -11116279.91248  21699128.76648
        47.500          36.000  
  20927275.242 7      -336.490 7 -24011018.831 7 -18676468.93448  20927265.90248
        49.000          39.250  
  21209114.461 7     -2240.775 7 -20723635.934 7 -18805606.10848  21209105.06348
        48.500          38.000  
  20252452.984 7       781.554 7 -22500017.944 7 -23711778.85349  20252441.06649
        50.250          42.500  
  21328029.711 7     -1691.457 7 -24178015.544 7 -18815681.95648  21328020.48848
        49.000          37.250  
  24979835.523 5     -2995.016 5  -2940082.105 5  -2275122.00046  24979825.18846
        42.000          24.750  
 11  3 24  0 16  0.0000000  0 11G03G04G06G07G10G13G16G20G23G30G31   
  24329621.672 2      3003.376 2 -10287121.913 2  -8408935.32046  24329616.66846
        35.000          19.000  
  24929616.922 4     -1062.396 4  -1157229.571 4  -3880298.88545  24929608.75445
        37.500          16.750  
  24554615.703 4      2396.885 4  -4972680.099 4  -8761170.57146  24554610.69946
        37.500          23.000  
  23871050.906 5      2748.545 5  -4221301.747 5  -9919084.27547  23871042.56347
        42.000          27.500  
  24656340.656 1      3237.589 1  -2144766.533 1  -3402217.96545  24656331.96145
        30.000          16.750  
  21692449.250 6      2343.252 6 -14337458.764 6 -11143668.56548  21692440.08648
        47.000          35.500  
  20928265.922 7      -346.965 7 -24005814.352 7 -18672413.48948  20928255.99648
        50.000          39.000  
  21215532.586 7     -2248.408 7 -20689909.810 7 -18779326.02248  21215523.12948
        48.000          38.250  
  20250237.477 7       776.137 7 -22511660.000 7 -23720850.57749  20250225.73449
        50.250          42.500  
  21332884.664 7     -1700.984 7 -24152500.780 7 -18795800.32848  21332876.02748
        48.000          36.500  
  24988380.227 3     -2994.178 3  -2895169.428 3  -2240125.26346  24988374.52046
        36.500          25.000  
 11  3 24  0 16 15.0000000  0 10G03G04G06G07G13G16G20G23G30G31      
  24321052.227 2      3002.683 2 -10332162.156 2  -8444031.51246  24321046.40246
        35.250          19.500  
  24932669.797 3     -1069.703 3  -1141184.033 3  -3867795.88245  24932661.57045
        36.500          16.750  
  24547780.086 5      2394.589 5  -5008598.928 5  -8789159.19346  24547775.19946
        39.500          22.250  
  23863214.117 6      2745.650 6  -4262486.492 6  -9951176.26147  23863205.83247
        42.500          27.500  
  21685768.555 7      2340.444 7 -14372565.422 7 -11171024.39648  21685759.15648
        48.000          35.000  
  20929286.727 7      -357.661 7 -24000449.432 7 -18668233.02248  20929276.62548
        50.000          39.250  
  21221972.883 6     -2256.242 6 -20656066.174 6 -18752954.37948  21221963.42648
        47.500          37.750  
  20248038.094 7       770.488 7 -22523217.324 7 -23729856.27949  20248026.87949
        49.750          42.250  
  21337768.039 7     -1710.701 7 -24126840.270 7 -18775805.13048  21337758.87548
        48.750          36.250  
  24996927.438 5     -2993.528 5  -2850266.511 5  -2205135.95947  24996918.21547
        41.750          27.000  
 11  3 24  0 16 30.0000000  0 10G03G04G06G07G13G16G20G23G30G31      
  24312483.688 4      3002.472 4 -10377199.242 4  -8479125.24945  24312476.04745
        38.000          18.500  
  24935742.148 2     -1076.466 2  -1125037.041 2  -3855213.84145  24935734.85945
        35.000          14.750  
  24540952.109 5      2392.778 5  -5044490.600 5  -8817126.64146  24540945.11346
        41.750          22.500  
  23855383.477 5      2743.272 5  -4303635.573 5  -9983240.46747  23855375.48447
        41.500          27.500  
  21679094.938 7      2338.148 7 -14407637.643 7 -11198353.39248  21679085.07048
        49.250          34.750  
  20930336.453 7      -367.830 7 -23994931.987 7 -18663933.70948  20930326.99648
        50.000          39.250  
  21228433.828 7     -2263.531 7 -20622113.213 7 -18726497.54548  21228424.48848
        47.750          38.250  
  20245853.672 7       765.350 7 -22534697.581 7 -23738801.93549  20245842.34049
        49.750          42.000  
  21342677.297 7     -1719.871 7 -24101042.212 7 -18755702.75148  21342668.66048
        49.750          37.000  
  25005467.336 5     -2992.365 5  -2805381.042 5  -2170160.27046  25005458.58246
        39.500          22.250  
 11  3 24  0 16 45.0000000  0 10G03G04G06G07G13G16G20G23G30G31      
  24303915.883 4      3001.981 4 -10422228.962 4  -8514213.24246  24303907.59846
        38.750          19.250  
  24938834.609 2     -1083.491 2  -1108784.679 2  -3842549.66645  24938827.96545
        35.250          16.250  
  24534127.984 5      2390.681 5  -5080350.813 5  -8845069.61146  24534121.39846
        42.000          22.500  
  23847561.047 5      2740.624 5  -4344744.929 5 -10015273.72747  23847552.41047
        41.500          27.500  
  21672427.633 7      2335.575 7 -14442671.275 7 -11225652.30448  21672418.46948
        49.000          35.000  
  20931416.492 7      -378.262 7 -23989258.060 7 -18659512.45748  20931406.68448
        49.000          39.500  
  21234916.172 6     -2271.076 6 -20588047.069 6 -18699952.51648  21234907.24248
        47.250          38.750  
  20243684.375 7       759.915 7 -22546096.300 7 -23747684.04749  20243672.80949
        50.000          42.500  
  21347612.672 7     -1729.295 7 -24075102.789 7 -18735490.21848  21347604.15248
        49.500          36.500  
  25014007.586 5     -2991.458 5  -2760509.175 5  -2135195.19747  25013999.00847
        42.250          27.000  
 11  3 24  0 17  0.0000000  0 11G03G04G06G07G10G13G16G20G23G30G31   
  24295346.602 2      3001.425 2 -10467250.339 2  -8549294.73546  24295340.07446
        35.500          20.000  
  24941948.219 3     -1090.538 3  -1092426.615 3  -3829803.12945  24941940.69545
        36.000          15.500  
  24527311.234 6      2388.526 6  -5116178.698 6  -8872987.35946  24527302.89146
        43.000          22.000  
  23839745.250 5      2737.945 5  -4385814.098 5 -10047275.64347  23839737.72747
        42.000          26.500  
  24619491.67212      3219.25012                                
        34.000  
  21665768.781 7      2332.955 7 -14477665.595 7 -11252920.59248  21665759.44148
        49.500          34.500  
  20932526.297 7      -388.717 7 -23983427.302 7 -18654968.99948  20932516.19548
        49.500          39.500  
  21241420.523 7     -2278.637 7 -20553867.520 7 -18673319.10748  21241411.35948
        48.000          38.750  
  20241530.945 7       754.466 7 -22557413.298 7 -23756502.48849  20241519.84849
        50.000          42.250  
  21352576.320 7     -1738.740 7 -24049021.687 7 -18715167.28348  21352567.56648
        49.750          36.750  
  25022543.617 6     -2990.586 6  -2715650.391 6  -2100240.33547  25022535.03947
        42.750          27.750  
 11  3 24  0 17 15.0000000  0 11G03G04G06G07G10G13G16G20G23G30G31   
  24286775.906 2      3001.182 2 -10512268.064 2  -8584373.33446  24286773.12946
        35.500          20.000  
  24945079.828 3     -1097.226 3  -1075968.223 3  -3816978.44345  24945072.12945
        36.750          16.250  
  24520497.602 5      2386.663 5  -5151978.649 5  -8900883.38046  24520490.60546
        42.000          21.250  
  23831937.094 5      2735.577 5  -4426847.747 5 -10079249.90847  23831929.21947
        41.500          27.250  
  24610307.961 3      3215.078 3   -154118.006 3  -4558573.21356  24610299.67656
        36.000          21.000  
  21659116.328 7      2330.648 7 -14512625.313 7 -11280161.91948  21659106.87148
        49.500          35.500  
  20933664.656 7      -398.845 7 -23977444.622 7 -18650307.17048  20933654.90648
        49.250          39.500  
  21247945.125 6     -2285.852 6 -20519579.741 6 -18646601.37548  21247936.37148
        47.500          38.500  
  20239392.039 7       749.320 7 -22568653.100 7 -23765260.77349  20239380.53149
        49.750          41.750  
  21357565.242 7     -1747.840 7 -24022804.089 7 -18694737.98148  21357556.78148
        49.750          36.500  
  25031074.852 5     -2989.374 5  -2670809.783 5  -2065299.55046  25031068.09046
        40.500          25.750  
 11  3 24  0 17 30.0000000  0 11G03G04G06G07G10G13G16G20G23G30G31   
  24278213.047 3      3000.270 3 -10557272.119 3  -8619441.29646  24278209.50846
        36.500          21.500  
  24948233.367 4     -1104.551 4  -1059399.962 4  -3804068.15945  24948225.25845
        37.500          16.250  
  24513692.219 5      2384.136 5  -5187740.693 5  -8928749.86246  24513685.10546
        41.250          22.000  
  23824137.523 5      2732.556 5  -4467836.083 5 -10111188.82847  23824129.35547
        41.250          27.000  
  24601136.906 5      3213.235 5   -202316.532 5  -4596130.45246  24601127.09846
        39.500          23.000  
  21652471.633 7      2327.686 7 -14547540.597 7 -11307368.62148  21652462.58648
        49.000          34.750  
  20934834.109 7      -409.616 7 -23971300.383 7 -18645519.43548  20934824.00848
        49.500          39.500  
  21254492.164 6     -2293.693 6 -20485174.351 6 -18619791.99548  21254483.41048
        47.500          38.000  
  20237269.992 7       743.510 7 -22579805.745 7 -23773951.14349  20237258.01649
        50.000          41.750  
  21362581.906 7     -1757.572 7 -23996440.514 7 -18674194.94148  21362573.15248
        50.250          36.500  
  25039606.977 5     -2988.827 5  -2625977.384 5  -2030365.28946  25039598.75046
        41.250          22.250  
 11  3 24  0 17 45.0000000  0 11G03G04G06G07G10G13G16G20G23G30G31   
  24269652.406 4      2999.665 4 -10602267.093 4  -8654502.21846  24269646.93446
        38.000          21.500  
  24951405.133 4     -1111.506 4  -1042727.379 4  -3791076.47745  24951397.78545
        37.500          16.250  
  24506891.516 5      2381.942 5  -5223469.824 5  -8956590.65646  24506886.68846
        40.500          21.750  
  23816344.430 5      2729.894 5  -4508784.486 5 -10143096.64346  23816336.67246
        40.750          26.000  
  24591976.477 5      3209.108 5   -250453.145 5  -4633639.45646  24591967.37146
        39.750          23.000  
  21645835.180 7      2325.069 7 -14582416.627 7 -11334544.74148  21645825.54748
        49.750          34.750  
  20936032.883 7      -420.036 7 -23964999.840 7 -18640609.91948  20936023.25048
        49.750          39.000  
  21261061.047 6     -2301.162 6 -20450656.919 6 -18592895.30148  21261051.70748
        47.500          37.500  
  20235162.867 7       738.055 7 -22590876.571 7 -23782577.76449  20235151.24249
        49.500          42.000  
  21367625.703 7     -1766.928 7 -23969936.592 7 -18653542.53848  21367617.18448
        50.750          36.500  
  25048136.836 6     -2987.875 6  -2581159.262 6  -1995442.02747  25048128.66847
        43.250          27.500  
 11  3 24  0 18  0.0000000  0 11G03G04G06G07G10G13G16G20G23G30G31   
  24261092.992 5      2998.984 5 -10647251.859 5  -8689555.16946  24261086.58246
        40.250          22.500  
  24954598.125 3     -1118.487 3  -1025950.076 3  -3778003.28945  24954590.30945
        36.750          16.750  
  24500099.070 5      2379.670 5  -5259164.879 5  -8984404.88646  24500094.35946
        41.250          22.500  
  23808560.070 5      2727.177 5  -4549692.146 5 -10174972.72046  23808552.31346
        40.000          25.250  
  24582826.547 4      3204.909 4   -298526.781 4  -4671099.42646  24582819.37546
        38.750          23.000  
  21639205.836 7      2322.385 7 -14617252.407 7 -11361689.49848  21639196.61348
        49.250          34.750  
  20937261.625 7      -430.474 7 -23958542.730 7 -18635578.39348  20937251.52348
        50.000          39.750  
  21267650.891 6     -2308.661 6 -20416026.999 6 -18565910.95748  21267641.66848
        46.500          38.000  
  20233072.359 7       732.534 7 -22601864.575 7 -23791139.83949  20233060.38349
        48.750          41.750  
  21372695.805 7     -1776.319 7 -23943291.813 7 -18632780.37148  21372687.34448
        50.000          36.750  
  25056658.898 3     -2986.997 3  -2536354.304 3  -1960529.20046  25056654.18846
        36.000          21.250  
 11  3 24  0 18 15.0000000  0 11G03G04G06G07G10G13G16G20G23G30G31   
  24252533.656 5      2998.310 5 -10692226.515 5  -8724600.27946  24252527.77346
        39.500          21.750  
  24957810.773 3     -1125.438 3  -1009068.506 3  -3764848.84245  24957802.66445
        37.000          17.750  
  24493313.391 5      2377.402 5  -5294825.902 5  -9012192.60246  24493308.03546
        40.000          21.500  
  23800783.242 5      2724.483 5  -4590559.398 5 -10206817.28547  23800775.30947
        39.500          26.750  
  24573689.250 4      3200.711 4   -346537.443 4  -4708510.33046  24573683.19146
        38.250          24.000  
  21632584.953 7      2319.719 7 -14652048.185 7 -11388803.08348  21632575.32048
        49.750          35.500  
  20938520.273 7      -440.899 7 -23951929.245 7 -18630425.01848  20938510.46548
        49.750          39.750  
  21274261.773 6     -2316.120 6 -20381285.205 6 -18538839.43648  21274253.02048
        47.500          38.500  
  20230996.859 7       727.017 7 -22612769.825 7 -23799637.43749  20230985.00049
        50.000          42.000  
  21377792.961 7     -1785.667 7 -23916506.812 7 -18611908.94548  21377784.50048
        49.750          36.500  
  25065186.695 6     -2986.076 6  -2491563.168 6  -1925626.91147  25065176.18447
        43.750          26.750  
