     2.11           OBSERVATION DATA    GPS(GPS)            RINEX VERSION / TYPE
cnvtToRINEX 2.11.0  Stan Thomas         26-Mar-11 14:09 UTC PGM / RUN BY / DATE 
----------------------------------------------------------- COMMENT             
LR1                                                         MARKER NAME         
LR1                                                         MARKER NUMBER       
Stan Thomas         University of Utah                      OBSERVER / AGENCY   
4644124574          NetRS               1.12                REC # / TYPE / VERS 
12532422            TRM41249.00                             ANT # / TYPE        
 -1943694.2885 -4552382.8658  4011197.9895                  APPROX POSITION XYZ 
        1.2740        0.0000        0.0000                  ANTENNA: DELTA H/E/N
     1     1     0                                          WAVELENGTH FACT L1/2
     7    C1    D1    L1    L2    P2    S1    S2            # / TYPES OF OBSERV 
  2011     3    23    15    51   45.0000000     GPS         TIME OF FIRST OBS   
  2011     3    23    23    59   45.0000000     GPS         TIME OF LAST OBS    
     0                                                      RCV CLOCK OFFS APPL 
    15                                                      LEAP SECONDS        
    25                                                      # OF SATELLITES     
   G03  1020  1020  1012   987   987  1020   987            PRN / # OF OBS      
   G04   296   296   292   260   260   296   260            PRN / # OF OBS      
   G06  1003  1003   999   957   957  1003   957            PRN / # OF OBS      
   G07   109   109   108   102   102   109   102            PRN / # OF OBS      
   G09   879   879   877   864   864   879   864            PRN / # OF OBS      
   G10     1     1     1     1     1     1     1            PRN / # OF OBS      
   G11  1193  1193  1188  1147  1147  1193  1147            PRN / # OF OBS      
   G12   388   388   379   336   336   388   336            PRN / # OF OBS      
   G13   302   302   302   275   275   302   275            PRN / # OF OBS      
   G14  1691  1691  1687  1641  1641  1691  1641            PRN / # OF OBS      
   G15   578   578   576   570   570   578   570            PRN / # OF OBS      
   G16   854   854   845   780   780   854   780            PRN / # OF OBS      
   G18  1158  1158  1153  1144  1144  1158  1144            PRN / # OF OBS      
   G19  1003  1003  1001   995   995  1003   995            PRN / # OF OBS      
   G20   921   921   919   898   898   921   898            PRN / # OF OBS      
   G21   781   781   780   770   770   781   770            PRN / # OF OBS      
   G22  1498  1498  1497  1491  1491  1498  1491            PRN / # OF OBS      
   G23   786   786   784   772   772   786   772            PRN / # OF OBS      
   G24  1276  1276  1271  1238  1238  1276  1238            PRN / # OF OBS      
   G25   789   789   784   774   774   789   774            PRN / # OF OBS      
   G26   144   144   144   144   144   144   144            PRN / # OF OBS      
   G27   772   772   769   769   769   772   769            PRN / # OF OBS      
   G29   260   260   260   260   260   260   260            PRN / # OF OBS      
   G30   863   863   862   861   861   863   861            PRN / # OF OBS      
   G31  1361  1361  1361  1345  1345  1361  1345            PRN / # OF OBS      
CARRIER PHASE MEASUREMENTS: PHASE SHIFTS REMOVED            COMMENT             
                                                            END OF HEADER       
 11  3 23 15 51 45.0000000  0 12G03G06G09G15G16G18G21G22G26G27G29G30
  23195352.46116      2766.60916  -1157282.61116   -860728.46857  23195344.00057
        43.750          27.000  
  22875862.46116      2335.82816   -958274.06416   -715546.38157  22875854.46957
        44.500          30.000  
  25645019.51615      3017.93815    564387.34915                
        39.750  
  21399347.21117      -738.28117    382808.80817    299754.52258  21399338.45758
        49.000          40.000  
  24146148.26615     -1507.78115    742454.96815    572565.12056  24146139.21956
        40.500          22.000  
  20794368.56317       843.54717   -290583.61717   -211909.73258  20794358.98858
        50.000          40.500  
  20575255.86717       253.40617    -23169.23417     -9193.25958  20575246.11758
        48.000          41.000  
  22349780.49216      2356.32816   -954956.41416   -713280.53558  22349770.80158
        47.000          34.000  
  23205889.98416     -2874.76616   1342916.70916   1026087.52157  23205882.57857
        42.500          26.500  
  24830972.71115      2015.46915     81943.88115   -540186.34455  24830967.88355
        41.500          16.750  
  22914203.43816     -3432.96916   1620427.14916   1235358.43457  22914196.26657
        46.000          32.500  
  24276130.27315     -2573.12515   1217962.38515    942135.56456  24276124.39156
        41.000          22.750  
 11  3 23 15 52  0.0000000  0 12G03G06G09G15G16G18G21G22G26G27G29G30
  23187464.500 6      2763.307 6  -1198732.212 6   -893026.86647  23187456.50847
        44.000          27.000  
  22869204.242 6      2332.523 6   -993261.916 6   -742809.63547  22869196.25047
        45.250          30.500  
  25636401.906 1      3018.289 1    519113.020 1                
        32.500  
  21401468.672 7      -743.324 7    393958.661 7    308442.71848  21401460.21148
        49.250          39.750  
  24150462.008 5     -1511.230 5    765123.411 5    590228.77846  24150452.55146
        40.000          22.500  
  20791968.867 7       840.718 7   -303194.394 7   -221736.31248  20791959.05948
        49.750          40.500  
  20574539.320 7       250.915 7    -26932.959 7    -12126.04048  20574530.39148
        48.250          40.750  
  22343061.117 6      2354.052 6   -990267.195 6   -740795.42448  22343050.78148
        47.250          34.750  
  23214107.828 6     -2878.926 6   1386100.595 6   1059737.27147  23214100.48047
        43.000          26.500  
  24825223.867 4      2013.880 4     51735.683 4   -563725.01845  24825220.27045
        39.000          17.750  
  22924008.391 6     -3434.994 6   1671952.053 6   1275507.64547  22924001.45347
        46.500          32.000  
  24283480.641 5     -2575.031 5   1256587.855 5    972233.29146  24283474.52346
        41.000          22.000  
 11  3 23 15 52 15.0000000  0 12G03G06G09G15G16G18G21G22G26G27G29G30
  23179595.219 6      2756.886 6  -1240085.497 6   -925250.20047  23179587.81347
        43.500          26.750  
  22862564.742 6      2326.192 6  -1028154.788 6   -769998.89947  22862556.34047
        44.250          30.250  
  25627785.90614      3018.64014    473824.36214   -681821.33255  25627781.95755
        39.000          13.750  
  21403618.453 7      -753.218 7    405256.927 7    317246.55848  21403610.40248
        49.500          39.750  
  24154794.469 5     -1517.903 5    787891.954 5    607970.49146  24154785.24646
        40.500          21.750  
  20789584.484 7       835.304 7   -315723.957 7   -231499.60248  20789574.44148
        49.750          40.250  
  20573837.008 7       246.155 7    -30625.287 7    -15003.18848  20573827.25848
        49.000          41.000  
  22336353.688 6      2349.761 6  -1025513.617 6   -768260.16448  22336343.46948
        47.500          34.500  
  23222349.328 6     -2887.039 6   1429406.175 6   1093481.83347  23222341.57047
        43.250          27.250  
  24819482.711 5      2010.960 5     21571.288 5   -587229.80445  24819477.94145
        39.250          15.500  
  22933823.844 6     -3438.716 6   1723532.800 6   1315700.37547  22933817.02347
        46.000          31.750  
  24290841.477 5     -2578.557 5   1295266.214 5   1002372.23746  24290834.59846
        40.250          21.750  
 11  3 23 15 52 30.0000000  0 12G03G06G09G15G16G18G21G22G26G27G29G30
  23171744.461 6      2750.472 6  -1281342.572 6   -957398.58946  23171736.82046
        44.500          26.000  
  22855942.891 6      2319.870 6  -1062952.841 6   -797114.26547  22855934.54747
        44.500          31.500  
  25619165.180 5      3020.165 5    428521.888 5   -717122.05945  25619160.05945
        39.750          17.750  
  21405796.758 7      -763.083 7    416703.174 7    326165.70748  21405788.35548
        49.500          39.000  
  24159145.953 5     -1524.517 5    810759.716 5    625789.49346  24159136.84846
        40.750          22.000  
  20787215.883 7       829.921 7   -328172.771 7   -241199.97548  20787205.95748
        50.500          40.500  
  20573147.938 7       241.401 7    -34246.299 7    -17824.76548  20573138.42248
        48.000          41.000  
  22329658.648 6      2345.510 6  -1060696.266 6   -795675.21748  22329648.54748
        47.500          34.750  
  23230612.500 6     -2895.090 6   1472832.531 6   1127320.52447  23230605.56347
        42.500          27.000  
  24813751.047 5      2008.046 5     -8549.407 5   -610700.32845  24813746.98045
        39.250          18.250  
  22943649.805 6     -3442.407 6   1775168.909 6   1355936.24247  22943643.04347
        46.750          32.000  
  24298211.047 5     -2582.031 5   1333996.678 5   1032551.77246  24298204.81346
        39.500          22.250  
 11  3 23 15 52 45.0000000  0 11G03G06G15G16G18G21G22G26G27G29G30   
  23163912.398 6      2743.876 6  -1322500.717 6   -989469.86846  23163904.23046
        44.000          26.000  
  22849340.109 6      2313.380 6  -1097653.539 6   -824153.77847  22849331.47347
        44.750          30.750  
  21408003.688 7      -773.084 7    428299.427 7    335201.74048  21407994.99248
        49.250          39.500  
  24163516.656 5     -1531.273 5    833728.804 5    643687.43046  24163508.07846
        40.000          20.750  
  20784862.469 7       824.396 7   -340538.718 7   -250835.77648  20784852.60248
        50.250          40.750  
  20572472.680 7       236.497 7    -37793.754 7    -20589.02148  20572462.87148
        48.750          40.750  
  22322976.117 7      2341.097 7  -1095812.725 7   -823038.67848  22322965.78148
        47.750          34.750  
  23238899.992 6     -2903.279 6   1516381.711 6   1161254.90347  23238892.58647
        43.500          28.000  
  24808027.844 4      2004.960 4    -38623.811 4   -634134.87845  24808023.77745
        39.000          18.250  
  22953486.523 6     -3446.222 6   1826862.236 6   1396216.69547  22953480.17247
        45.750          31.750  
  24305592.039 4     -2585.629 4   1372781.114 4   1062773.35646  24305585.27746
        38.750          22.500  
 11  3 23 15 53  0.0000000  0 11G03G06G15G16G18G21G22G26G27G29G30   
  23156098.922 6      2737.576 6  -1363564.361 6  -1021467.52047  23156089.87547
        45.250          26.500  
  22842754.086 6      2307.174 6  -1132261.153 6   -851120.74047  22842745.80147
        44.000          31.000  
  21410237.781 7      -782.778 7    440041.103 7    344351.09048  21410229.08648
        48.750          39.500  
  24167906.086 5     -1537.715 5    856794.531 5    661660.70046  24167897.68446
        40.500          22.500  
  20782523.930 7       819.167 7   -352826.218 7   -260410.45148  20782514.64848
        50.250          40.500  
  20571810.930 7       231.889 7    -41272.093 7    -23299.41748  20571801.23848
        49.000          41.000  
  22316305.172 6      2336.979 6  -1130867.412 6   -850354.01348  22316295.24648
        47.500          34.750  
  23247208.914 6     -2911.137 6   1560048.759 6   1195281.14747  23247202.38747
        43.500          27.750  
  24802314.039 5      2002.148 5    -68656.029 5   -657536.59145  24802308.15645
        40.000          18.250  
  22963334.000 6     -3449.713 6   1878607.932 6   1436537.95147  22963327.29747
        46.500          32.750  
  24312981.203 3     -2588.886 3   1411614.399 3   1093033.00346  24312975.08646
        36.500          20.750  
 11  3 23 15 53 15.0000000  0 11G03G06G15G16G18G21G22G26G27G29G30   
  23148302.969 6      2731.096 6  -1404530.800 6  -1053389.42347  23148293.80547
        44.500          27.250  
  22836186.695 6      2300.797 6  -1166773.102 6   -878013.18247  22836178.29347
        45.500          30.500  
  21412500.313 7      -792.613 7    451930.293 7    353615.39348  21412491.67648
        48.750          39.500  
  24172313.719 5     -1544.270 5    879958.584 5    679710.59046  24172306.02046
        40.000          21.500  
  20780200.992 7       813.790 7   -365033.072 7   -269922.27948  20780191.77048
        50.500          40.750  
  20571162.805 7       227.111 7    -44678.751 7    -25953.96148  20571152.87948
        48.000          41.000  
  22309646.633 7      2332.711 7  -1165858.082 7   -877619.44748  22309636.59048
        48.500          35.000  
  23255541.430 6     -2919.121 6   1603835.571 6   1229400.69547  23255533.84847
        43.000          27.500  
  24796606.938 5      1999.168 5    -98643.546 5   -680903.37545  24796601.75845
        39.500          17.250  
  22973191.383 6     -3453.338 6   1930408.001 6   1476901.56547  22973184.21147
        46.000          32.250  
  24320381.109 2     -2592.276 2   1450498.538 2   1123332.30246  24320374.75846
        35.250          19.500  
 11  3 23 15 53 30.0000000  0 12G03G06G14G15G16G18G21G22G26G27G29G30
  23140525.133 6      2724.674 6  -1445400.915 6  -1085236.25847  23140516.78947
        44.000          27.000  
  22829637.344 6      2294.481 6  -1201190.320 6   -904831.79247  22829629.11747
        45.500          30.750  
  25404560.22711      3736.62511    602419.11011                
        31.750  
  21414790.406 6      -802.361 6    463965.706 6    362993.63448  21414782.12148
        46.250          40.250  
  24176740.375 5     -1550.742 5    903219.720 5    697836.10946  24176732.67646
        39.750          21.750  
  20777893.461 7       808.501 7   -377160.581 7   -279372.29748  20777883.35948
        50.250          40.000  
  20570528.000 6       222.420 6    -48015.056 6    -28553.68048  20570518.19148
        46.250          41.000  
  22303000.930 7      2328.516 7  -1200785.817 7   -904835.84848  22302990.47748
        48.250          35.000  
  23263896.336 6     -2926.990 6   1647740.425 6   1263612.22647  23263889.57447
        43.000          26.500  
  24790909.906 4      1996.233 4   -128587.040 4   -704235.98645  24790903.37945
        38.750          16.250  
  22983058.469 6     -3456.866 6   1982260.995 6   1517306.43747  22983051.88347
        46.750          32.750  
  24327789.789 1     -2595.553 1   1489431.838 1   1153669.88245  24327782.96945
        31.750          16.250  
 11  3 23 15 53 45.0000000  0 12G03G06G14G15G16G18G21G22G26G27G29G30
  23132767.031 6      2718.147 6  -1486173.123 6  -1117006.80247  23132758.51247
        44.500          26.750  
  22823106.164 6      2288.065 6  -1235511.294 6   -931575.40247  22823097.76247
        44.250          30.750  
  25393892.56311         0.00011  -1029055.81911                
        32.250  
  21417108.805 6      -812.184 6    476148.462 6    372486.68048  21417100.05148
        47.250          39.500  
  24181185.297 5     -1557.274 5    926578.832 5    716037.97146  24181177.07046
        40.000          21.500  
  20775600.969 7       803.136 7   -389207.622 7   -288759.59548  20775591.33648
        50.000          40.250  
  20569906.742 6       217.622 6    -51279.391 6    -31097.32848  20569896.93448
        46.500          41.000  
  22296366.719 7      2324.226 7  -1235649.207 7   -932002.12348  22296355.68048
        47.750          35.500  
  23272273.945 6     -2934.921 6   1691764.234 6   1297916.44647  23272266.94947
        43.000          27.000  
  24785220.641 5      1993.197 5   -158484.997 5   -727533.05045  24785214.28945
        39.500          16.750  
  22992936.383 6     -3460.464 6   2034167.959 6   1557753.35347  22992929.79747
        46.750          33.250  
  24335206.70311     -2600.31311                    -43553.49855  24335201.64155
        27.500          16.750  
 11  3 23 15 54  0.0000000  0 11G03G06G14G15G16G18G21G22G26G27G29   
  23125027.336 6      2711.541 6  -1526846.244 6  -1148700.14347  23125018.46547
        44.500          26.500  
  22816593.664 6      2281.569 6  -1269734.831 6   -958243.09547  22816585.67247
        43.500          31.000  
  25383223.594 1      3737.968 1  -1085125.340 1                
        31.500  
  21419455.102 7      -822.062 7    488479.386 7    382095.18748  21419446.99248
        48.000          39.500  
  24185649.422 5     -1563.835 5    950036.362 5    734316.55146  24185641.25446
        40.500          21.750  
  20773323.750 7       797.710 7   -401173.273 7   -298083.47948  20773314.41048
        50.500          40.500  
  20569299.500 6       212.761 6    -54470.799 6    -33584.14548  20569289.63348
        47.500          41.000  
  22289744.430 7      2319.888 7  -1270447.526 7   -959117.68448  22289733.50848
        48.250          35.000  
  23280673.883 6     -2942.898 6   1735907.700 6   1332313.91547  23280666.77047
        42.750          27.750  
  24779539.656 4      1990.076 4   -188336.137 4   -750793.68545  24779533.89145
        38.500          16.750  
  23002824.055 6     -3464.096 6   2086129.397 6   1598242.72247  23002817.58647
        46.500          33.000  
 11  3 23 15 54 15.0000000  0 11G03G06G14G15G16G18G21G22G26G27G29   
  23117305.906 6      2704.987 6  -1567421.046 6  -1180316.86347  23117297.15247
        43.500          26.500  
  22810099.656 6      2275.131 6  -1303861.803 6   -984835.53847  22810091.60547
        44.750          31.500  
  25372551.625 1      3738.999 1  -1141210.331 1                
        32.250  
  21421829.766 7      -831.853 7    500957.180 7    391818.14048  21421821.24648
        47.750          39.500  
  24190131.336 5     -1570.308 5    973590.980 5    752670.78046  24190123.05146
        40.000          21.000  
  20771062.211 7       792.366 7   -413058.761 7   -307344.89548  20771052.46148
        49.750          40.500  
  20568706.047 6       207.959 6    -57590.178 6    -36014.84048  20568695.82848
        47.250          41.000  
  22283134.234 6      2315.618 6  -1305181.799 6   -986183.33848  22283123.60548
        47.500          34.500  
  23289097.031 6     -2950.768 6   1780169.215 6   1366803.37647  23289089.33247
        43.250          26.500  
  24773867.195 4      1987.008 4   -218141.251 4   -774018.42545  24773861.72345
        38.500          17.250  
  23012722.203 6     -3467.633 6   2138143.891 6   1638773.43047  23012715.73447
        46.000          32.500  
 11  3 23 15 54 30.0000000  0 11G03G06G14G15G16G18G21G22G26G27G29   
  23109603.445 6      2698.376 6  -1607896.683 6  -1211856.31647  23109594.45747
        43.500          26.750  
  22803623.578 6      2268.646 6  -1337891.497 6  -1011352.19547  22803615.52747
        43.750          31.500  
  25361876.000 1      3739.965 1  -1197309.813 1                
        33.000  
  21424232.273 7      -841.666 7    513582.177 7    401655.79648  21424223.57848
        49.250          39.500  
  24194632.273 5     -1576.792 5    997242.857 5    771100.78346  24194623.98846
        39.500          21.500  
  20768815.563 7       786.991 7   -424863.627 7   -316543.49748  20768806.34048
        49.500          40.000  
  20568126.109 6       203.120 6    -60636.978 6    -38388.98348  20568116.00848
        47.500          41.250  
  22276536.875 6      2311.312 6  -1339851.477 6  -1013198.65948  22276526.42248
        47.500          34.250  
  23297542.266 6     -2958.641 6   1824548.836 6   1401384.83847  23297534.74247
        43.500          27.000  
  24768203.227 3      1983.889 3   -247899.590 3   -797206.77345  24768199.98045
        37.000          17.750  
  23022631.141 6     -3471.188 6   2190211.706 6   1679345.69447  23022624.26247
        46.750          32.500  
 11  3 23 15 54 45.0000000  0 11G03G06G14G15G16G18G21G22G26G27G29   
  23101920.148 6      2691.755 6  -1648273.002 6  -1243318.37447  23101911.57047
        44.250          27.000  
  22797166.320 6      2262.145 6  -1371823.677 6  -1037792.85547  22797158.79747
        44.750          30.500  
  25351197.680 1      3740.927 1  -1253423.716 1                
        33.500  
  21426662.813 6      -851.462 6    526354.105 6    411607.94448  21426654.05948
        46.500          39.500  
  24199151.758 5     -1583.240 5   1020991.454 5    789606.12246  24199143.47346
        39.750          21.500  
  20766584.969 7       781.623 7   -436587.968 7   -325679.34548  20766575.45348
        50.250          40.500  
  20567560.352 6       198.277 6    -63611.135 6    -40706.51348  20567550.13348
        46.250          41.250  
  22269951.914 7      2307.007 7  -1374456.580 7  -1040163.66348  22269940.75848
        47.750          35.000  
  23306009.531 6     -2966.469 6   1869045.868 6   1436057.82747  23306002.53547
        42.500          27.750  
  24762548.477 3      1980.753 3   -277610.881 3   -820358.41045  24762546.22745
        36.750          16.750  
  23032548.852 6     -3474.713 6   2242332.405 6   1719959.16147  23032541.62147
        46.000          33.000  
 11  3 23 15 55  0.0000000  0 12G03G06G14G15G16G18G21G22G26G27G29G30
  23094256.063 6      2685.077 6  -1688549.157 6  -1274702.40346  23094247.30946
        44.500          26.250  
  22790728.227 6      2255.593 6  -1405657.572 6  -1064156.92047  22790719.82447
        43.000          31.500  
  25340516.219 2      3741.833 2  -1309551.203 2                
        34.250  
  21429121.547 7      -861.291 7    539273.467 7    421674.97348  21429112.67648
        48.250          39.750  
  24203689.492 5     -1589.722 5   1044837.277 5    808187.24446  24203681.20746
        39.750          21.250  
  20764369.219 7       776.228 7   -448231.383 7   -334752.14448  20764359.46948
        50.000          40.250  
  20567008.141 7       193.391 7    -66512.000 7    -42966.93248  20566998.21548
        48.750          41.000  
  22263379.273 7      2302.660 7  -1408996.479 7  -1067077.85848  22263368.93848
        48.500          34.750  
  23314499.297 6     -2974.327 6   1913660.779 6   1470822.66147  23314492.06647
        42.500          27.750  
  24756905.039 4      1977.556 4   -307274.223 4   -843472.70245  24756901.14845
        37.750          16.750  
  23042477.016 6     -3478.247 6   2294506.116 6   1760613.94547  23042470.02047
        46.250          32.500  
  24372440.11711     -2616.62511   -634653.39511                
        33.250  
 11  3 23 15 55 15.0000000  0 12G03G06G14G15G16G18G21G22G26G27G29G30
  23086610.094 6      2678.480 6  -1728726.351 6  -1306009.30247  23086602.04347
        43.750          27.500  
  22784308.773 6      2249.127 6  -1439394.483 6  -1090445.42947  22784300.13747
        44.000          30.750  
  25329833.32011      3742.73811  -1365693.60511                
        32.250  
  21431607.305 7      -871.009 7    552338.602 7    431855.59348  21431598.96148
        48.250          39.250  
  24208244.578 5     -1596.080 5   1068778.471 5    826842.70646  24208236.82046
        41.000          21.250  
  20762168.477 7       770.931 7   -459795.353 7   -343763.02548  20762159.07848
        50.250          40.750  
  20566469.727 7       188.602 7    -69341.025 7    -45171.36948  20566459.56648
        48.750          41.250  
  22256818.984 7      2298.413 7  -1443472.667 7  -1093942.41048  22256808.53148
        48.000          35.250  
  23323011.609 6     -2982.051 6   1958391.545 6   1505677.75447  23323004.20347
        42.500          27.000  
  24751269.781 3      1974.435 3   -336890.748 3   -866550.53945  24751265.48045
        36.500          18.250  
  23052415.391 6     -3481.668 6   2346731.140 6   1801308.71147  23052408.74647
        46.750          33.000  
  24379914.773 2     -2618.410 2   -595377.243 2     85840.63256  24379908.24656
        34.000          20.000  
 11  3 23 15 55 30.0000000  0 12G03G06G14G15G16G18G21G22G26G27G29G30
  23078983.758 6      2671.836 6  -1768803.897 6  -1337238.53946  23078975.82446
        43.750          26.000  
  22777907.055 6      2242.607 6  -1473033.582 6  -1116657.71447  22777898.94547
        44.750          30.250  
  25319146.797 2      3743.762 2  -1421850.035 2                
        34.750  
  21434121.500 7      -880.754 7    565549.911 7    442150.11248  21434112.86348
        48.000          39.250  
  24212819.648 5     -1602.441 5   1092815.082 5    845572.49546  24212811.07046
        40.750          22.000  
  20759983.336 7       765.603 7   -471279.402 7   -352711.63048  20759973.70348
        50.000          40.750  
  20565945.305 7       183.769 7    -72097.559 7    -47319.32848  20565935.78948
        48.000          41.250  
  22250269.945 7      2294.127 7  -1477884.575 7  -1120756.87448  22250259.66848
        47.750          34.500  
  23331545.750 6     -2989.778 6   2003238.219 6   1540623.18147  23331538.34447
        42.500          27.250  
  24745645.063 4      1971.254 4   -366459.563 4   -889591.22646  24745638.18446
        38.000          19.000  
  23062363.453 6     -3485.101 6   2399007.653 6   1842043.59247  23062356.34047
        46.250          32.000  
  24387397.781 3     -2621.523 3   -556054.405 3    116481.72146  24387391.37146
        36.250          19.750  
 11  3 23 15 55 45.0000000  0 12G03G06G14G15G16G18G21G22G26G27G29G30
  23071376.266 6      2665.148 6  -1808781.118 6  -1368389.62247  23071368.39147
        43.500          28.000  
  22771524.430 6      2236.041 6  -1506574.203 6  -1142793.27047  22771516.26247
        44.500          30.750  
  25308458.53112      3744.78612  -1478019.74812                
        35.000  
  21436663.023 7      -890.508 7    578907.534 7    452558.64248  21436654.79748
        48.750          39.500  
  24217411.531 5     -1608.797 5   1116947.038 5    864376.58646  24217403.89146
        41.750          22.750  
  20757813.063 7       760.264 7   -482683.356 7   -361597.83448  20757803.43048
        50.500          40.500  
  20565434.359 7       178.896 7    -74781.001 7    -49410.32448  20565424.25848
        48.750          41.000  
  22243734.211 7      2289.825 7  -1512231.946 7  -1147521.04448  22243723.75848
        47.750          35.250  
  23340102.773 6     -2997.509 6   2048200.856 6   1575658.96547  23340094.31347
        44.000          27.250  
  24740025.211 2      1968.030 2   -395980.017 2   -912594.18045  24740021.49645
        35.000          18.250  
  23072321.063 6     -3488.539 6   2451335.743 6   1882818.67447  23072314.59447
        46.500          33.000  
  24394889.523 4     -2624.644 4   -516684.746 4    147159.32046  24394883.52346
        37.500          20.500  
 11  3 23 15 56  0.0000000  0 12G03G06G14G15G16G18G21G22G26G27G29G30
  23063788.094 6      2658.453 6  -1848657.910 6  -1399462.44047  23063780.98047
        43.750          26.750  
  22765160.570 6      2229.486 6  -1540016.497 6  -1168852.20247  22765152.52047
        44.000          31.500  
  25297766.586 2      3745.553 2  -1534203.035 2                
        35.250  
  21439232.938 7      -900.233 7    592411.035 7    463080.84648  21439224.47748
        48.500          39.000  
  24222021.656 5     -1615.112 5   1141173.715 5    883254.47746  24222014.07446
        41.000          23.250  
  20755658.164 7       754.957 7   -494007.713 7   -370422.00848  20755648.53148
        50.000          40.750  
  20564937.625 7       174.040 7    -77391.597 7    -51444.56748  20564927.46548
        49.500          41.000  
  22237210.086 6      2285.536 6  -1546514.990 6  -1174235.08948  22237200.51248
        46.500          35.500  
  23348680.828 6     -3005.186 6   2093278.640 6   1610784.47046  23348672.71946
        43.000          26.250  
  24734416.023 2      1964.800 2   -425452.023 2   -935559.42046  24734412.95346
        35.500          19.250  
  23082288.625 6     -3491.939 6   2503714.835 6   1923633.48647  23082281.92247
        47.000          31.000  
  24402390.391 4     -2627.709 4   -477269.106 4    177872.75046  24402384.39146
        38.000          22.500  
 11  3 23 15 56 15.0000000  0 12G03G06G14G15G16G18G21G22G26G27G29G30
  23056219.094 6      2651.685 6  -1888433.186 6  -1430456.15246  23056211.62946
        43.500          25.000  
  22758815.789 5      2222.862 5  -1573359.431 5  -1194833.71547  22758807.38747
        42.000          31.000  
  25287074.070 2      3746.367 2  -1590398.541 2                
        35.500  
  21441830.375 7      -909.995 7    606060.958 7    473717.14048  21441822.20748
        49.000          39.250  
  24226650.680 5     -1621.466 5   1165495.709 5    902206.66146  24226642.21946
        41.000          24.750  
  20753518.445 7       749.593 7   -505251.613 7   -379183.49148  20753508.75448
        50.750          40.750  
  20564454.813 7       169.120 7    -79928.403 7    -53421.30248  20564445.06348
        48.500          41.000  
  22230698.813 6      2281.190 6  -1580732.842 6  -1200898.32948  22230688.35948
        45.000          35.500  
  23357280.453 6     -3012.886 6   2138471.936 6   1646000.00047  23357272.16847
        44.000          26.500  
  24728818.344 2      1961.507 2   -454874.626 2   -958486.13745  24728813.28145
        35.500          17.250  
  23092265.445 6     -3495.374 6   2556145.444 6   1964488.44647  23092259.09447
        46.500          30.750  
  24409899.609 5     -2630.806 5   -437807.018 5    208622.36046  24409894.07846
        39.500          22.500  
 11  3 23 15 56 30.0000000  0 12G03G06G14G15G16G18G21G22G26G27G29G30
  23048669.602 6      2644.925 6  -1928107.056 6  -1461370.85446  23048661.60946
        43.000          25.500  
  22752489.641 5      2216.246 5  -1606603.119 5  -1220737.89147  22752481.47347
        41.750          30.000  
  25276377.367 3      3747.198 3  -1646606.504 3                
        36.000  
  21444456.047 7      -919.726 7    619856.849 7    484467.17848  21444447.52748
        48.500          39.500  
  24231296.305 5     -1627.775 5   1189912.328 5    921232.54646  24231288.43046
        41.250          23.750  
  20751394.258 7       744.260 7   -516415.517 7   -387882.64048  20751384.39148
        50.000          41.000  
  20563986.172 7       164.206 7    -82391.495 7    -55340.59848  20563976.12948
        48.750          41.000  
  22224199.531 6      2276.866 6  -1614885.827 6  -1227511.02848  22224189.43048
        45.500          35.500  
  23365901.742 6     -3020.539 6   2183780.017 6   1681304.95246  23365894.74646
        42.500          24.000  
  24723231.664 3      1958.200 3   -484247.619 3   -981374.16445  24723225.19545
        37.250          18.250  
  23102252.391 6     -3498.749 6   2608626.676 6   2005382.85747  23102245.51247
        46.250          31.000  
  24417418.227 5     -2633.849 5   -398299.289 5    239407.59746  24417412.16846
        40.250          25.500  
 11  3 23 15 56 45.0000000  0 12G03G06G14G15G16G18G21G22G26G27G29G30
  23041138.445 6      2638.192 6  -1967679.941 6  -1492206.87646  23041131.03946
        43.250          24.750  
  22746182.094 6      2209.660 6  -1639748.018 6  -1246565.09347  22746173.98447
        43.000          30.000  
  25265679.461 2      3748.060 2  -1702827.400 2                
        35.500  
  21447108.469 7      -929.403 7    633797.897 7    495330.32248  21447100.12548
        48.750          39.750  
  24235960.914 5     -1634.010 5   1214422.474 5    940331.34146  24235952.57046
        41.500          22.750  
  20749284.531 7       738.983 7   -527500.257 7   -396520.10448  20749275.42648
        50.750          41.000  
  20563531.609 7       159.366 7    -84781.981 7    -57203.32248  20563521.74248
        49.000          41.000  
  22217712.594 6      2272.592 6  -1648974.714 6  -1254073.78948  22217702.14148
        46.500          36.250  
  23374545.055 5     -3028.112 5   2229201.699 5   1716698.43647  23374537.94147
        42.000          27.500  
  24717649.172 2      1954.921 2   -513571.433 2  -1004223.97545  24717644.22745
        34.000          17.750  
  23112248.398 6     -3502.064 6   2661157.632 6   2046316.01547  23112242.16447
        46.000          31.000  
  24424944.602 5     -2636.814 5   -358747.080 5    270227.45546  24424938.66046
        41.250          25.250  
 11  3 23 15 57  0.0000000  0 12G03G06G14G15G16G18G21G22G26G27G29G30
  23033628.156 6      2631.382 6  -2007150.676 6  -1522963.29446  23033619.28546
        43.500          25.250  
  22739893.781 6      2203.008 6  -1672793.139 6  -1272314.54347  22739885.78947
        44.250          30.250  
  25254978.016 3      3748.847 3  -1759060.107 3                
        37.000  
  21449789.016 7      -939.120 7    647884.691 7    506307.03848  21449780.67248
        48.000          39.500  
  24240642.523 5     -1640.280 5   1239026.667 5    959503.39746  24240634.70746
        40.500          24.000  
  20747190.289 7       733.651 7   -538505.027 7   -405095.24248  20747180.83248
        50.500          41.000  
  20563090.523 7       154.457 7    -87098.830 7    -59008.66249  20563081.00849
        48.250          41.500  
  22211238.289 6      2268.268 6  -1682998.733 6  -1280586.00048  22211228.07048
        47.500          35.750  
  23383210.219 6     -3035.713 6   2274737.389 6   1752180.75147  23383203.10547
        43.000          27.500  
  24712080.523 2      1951.579 2   -542845.124 2  -1027034.64745  24712073.52745
        35.250          17.250  
  23122254.742 6     -3505.402 6   2713738.666 6   2087288.17947  23122248.21547
        46.000          30.750  
  24432479.617 5     -2639.802 5   -319150.049 5    301082.21846  24432473.32446
        42.000          25.500  
 11  3 23 15 57 15.0000000  0 12G03G06G14G15G16G18G21G22G26G27G29G30
  23026136.078 6      2624.563 6  -2046519.115 6  -1553640.00846  23026127.38346
        43.500          24.500  
  22733624.656 6      2196.335 6  -1705738.169 6  -1297986.00047  22733616.31347
        44.500          30.500  
  25244274.781 3      3749.622 3  -1815304.430 3                
        36.000  
  21452497.547 6      -948.822 6    662117.020 6    517397.16148  21452489.26248
        47.000          39.750  
  24245342.563 5     -1646.526 5   1263724.557 5    978748.46546  24245334.33646
        41.250          22.750  
  20745111.773 7       728.336 7   -549430.074 7   -413608.26648  20745102.14148
        50.500          40.500  
  20562663.898 7       149.534 7    -89341.838 7    -60756.46948  20562654.14848
        49.000          41.250  
  22204776.016 7      2263.929 7  -1716957.662 7  -1307047.48448  22204765.62148
        48.000          35.750  
  23391896.977 5     -3043.289 5   2320386.721 5   1787751.61646  23391889.51246
        42.250          25.750  
  24706518.477 3      1948.200 3   -572068.120 3  -1049805.78345  24706513.59045
        37.000          16.250  
  23132270.039 6     -3508.725 6   2766369.540 6   2128299.18747  23132263.27747
        45.250          31.000  
  24440022.852 6     -2642.766 6   -279508.558 6    331971.65346  24440016.79346
        43.000          25.250  
 11  3 23 15 57 30.0000000  0 12G03G06G14G15G16G18G21G22G26G27G29G30
  23018664.492 6      2617.719 6  -2085784.897 6  -1584236.71546  23018654.97746
        43.500          23.000  
  22727374.484 6      2189.653 6  -1738582.965 6  -1323579.35647  22727366.55147
        44.500          31.500  
  25233571.359 3      3750.369 3  -1871559.961 3                
        36.750  
  21455233.492 7      -958.520 7    676494.818 7    528600.62748  21455225.14848
        48.000          39.500  
  24250061.273 5     -1652.751 5   1288515.817 5    998066.29046  24250052.34446
        41.250          24.750  
  20743047.891 7       723.025 7   -560275.445 7   -422059.20948  20743037.90648
        50.500          40.500  
  20562251.078 7       144.594 7    -91510.741 7    -62446.53248  20562241.38748
        49.000          41.000  
  22198326.188 7      2259.596 7  -1750851.606 7  -1333458.34448  22198315.61748
        48.250          36.000  
  23400606.117 5     -3050.826 5   2366149.118 5   1823410.59446  23400598.12546
        42.250          25.750  
  24700965.953 2      1944.806 2   -601240.217 2  -1072537.26045  24700961.65245
        34.750          16.250  
  23142295.023 6     -3512.021 6   2819049.848 6   2169348.70247  23142288.14547
        46.000          29.500  
  24447575.281 6     -2645.693 6   -239823.164 6    362895.29147  24447568.81347
        43.750          26.750  
 11  3 23 15 57 45.0000000  0 12G03G06G14G15G16G18G21G22G26G27G29G30
  23011211.750 6      2610.845 6  -2124947.567 6  -1614753.09546  23011202.52746
        43.500          22.750  
  22721143.734 6      2182.930 6  -1771326.910 6  -1349094.11647  22721135.85947
        45.250          31.250  
  25222863.570 2      3751.084 2  -1927826.223 2                
        35.250  
  21457997.406 6      -968.216 6    691018.056 6    539917.42848  21457989.12148
        47.500          39.250  
  24254796.055 5     -1658.971 5   1313400.384 5   1017456.83246  24254787.30146
        41.250          24.000  
  20740999.438 7       717.695 7   -571040.877 7   -430447.85548  20740989.51248
        50.500          40.750  
  20561852.531 7       139.647 7    -93605.446 7    -64078.77548  20561842.78148
        49.000          40.750  
  22191888.313 6      2255.251 6  -1784680.367 6  -1359818.40048  22191878.38748
        47.500          35.750  
  23409335.672 6     -3058.354 6   2412024.435 6   1859157.54846  23409327.91446
        43.000          24.000  
  24695422.352 2      1941.377 2   -630360.874 2  -1095228.72245  24695420.80545
        34.000          17.750  
  23152329.164 6     -3515.313 6   2871779.537 6   2210436.71247  23152322.52047
        45.750          30.750  
  24455135.406 6     -2648.614 6   -200093.948 6    393853.07647  24455129.40647
        43.250          26.500  
 11  3 23 15 58  0.0000000  0 12G03G06G14G15G16G18G21G22G26G27G29G30
  23003778.813 6      2603.974 6  -2164007.175 6  -1645189.14346  23003770.05946
        43.250          23.250  
  22714932.031 6      2176.225 6  -1803970.290 6  -1374530.51647  22714923.80547
        45.500          30.750  
  25212154.492 3      3751.818 3  -1984103.496 3                
        36.000  
  21460788.453 7      -977.877 7    705686.212 7    551347.14248  21460780.05148
        48.750          39.750  
  24259549.320 5     -1665.137 5   1338377.443 5   1036919.44846  24259540.91846
        41.500          22.250  
  20738965.594 7       712.398 7   -581726.839 7   -438774.58148  20738956.25448
        50.250          41.000  
  20561467.938 7       134.712 7    -95626.132 7    -65653.34248  20561458.01248
        49.000          40.750  
  22185463.859 6      2250.924 6  -1818444.227 6  -1386127.88248  22185453.46548
        47.250          35.500  
  23418086.281 5     -3065.835 5   2458011.967 5   1894991.96146  23418078.87546
        42.250          25.750  
  24689890.83612      1937.94812  -2234850.09712  -2345480.08355  24689888.76255
        34.000          17.250  
  23162371.875 6     -3518.568 6   2924558.049 6   2251562.76147  23162366.10947
        45.500          30.500  
  24462704.203 6     -2651.486 6   -160321.665 6    424844.39947  24462697.55947
        43.750          26.750  
 11  3 23 15 58 15.0000000  0 12G03G06G14G15G16G18G21G22G26G27G29G30
  22996365.805 6      2597.056 6  -2202963.022 6  -1675544.34146  22996357.28546
        42.750          24.500  
  22708739.484 6      2169.476 6  -1836512.436 6  -1399888.03947  22708731.31647
        44.500          31.500  
  25201443.344 3      3752.492 3  -2040390.872 3                
        37.000  
  21463607.563 7      -987.544 7    720499.366 7    562889.85048  21463598.80948
        49.250          39.000  
  24264319.906 5     -1671.303 5   1363446.985 5   1056454.12146  24264311.15246
        41.500          23.750  
  20736947.258 7       707.087 7   -592333.147 7   -447039.23449  20736938.03549
        50.250          41.500  
  20561097.445 7       129.748 7    -97572.350 7    -67169.88148  20561087.87148
        48.750          41.250  
  22179051.141 7      2246.579 7  -1852142.916 7  -1412386.58548  22179041.09848
        47.750          35.750  
  23426859.719 6     -3073.313 6   2504111.658 6   1930913.75646  23426852.02046
        43.500          24.500  
  24684370.078 3      1934.485 3  -2263867.373 3  -2368090.90245  24684366.83245
        35.750          18.500  
  23172425.211 6     -3521.819 6   2977385.338 6   2292726.82347  23172418.68447
        45.500          30.750  
  24470280.531 6     -2654.341 6   -120506.552 6    455869.10846  24470274.23846
        43.250          25.750  
 11  3 23 15 58 30.0000000  0 12G03G06G14G15G16G18G21G22G26G27G29G30
  22988972.102 6      2590.175 6  -2241815.654 6  -1705819.09746  22988964.34446
        43.000          25.500  
  22702566.352 6      2162.764 6  -1868953.898 6  -1425167.11247  22702557.94947
        44.250          31.750  
  25190729.914 4      3753.207 4  -2096688.981 4                
        38.000  
  21466454.016 7      -997.156 7    735456.699 7    574544.91948  21466445.08648
        49.000          39.000  
  24269107.148 5     -1677.400 5   1388607.980 5   1076060.05746  24269099.03946
        40.250          25.250  
  20734944.125 7       701.838 7   -602860.712 7   -455242.53748  20734934.31648
        50.000          40.750  
  20560740.953 7       124.819 7    -99444.642 7    -68628.82049  20560731.32049
        48.750          41.500  
  22172650.875 6      2242.272 6  -1885776.998 6  -1438594.94748  22172640.53948
        47.500          35.000  
  23435652.367 6     -3080.697 6   2550322.106 6   1966921.86846  23435644.90246
        43.500          25.500  
  24678858.438 2      1931.044 2  -2292833.038 2  -2390661.50245  24678854.78145
        35.000          17.250  
  23182487.359 6     -3524.998 6   3030260.303 6   2333928.03547  23182480.59847
        45.250          30.000  
  24477864.969 6     -2657.117 6    -80649.794 6    486926.27046  24477858.61746
        43.500          25.250  
 11  3 23 15 58 45.0000000  0 12G03G06G14G15G16G18G21G22G26G27G29G30
  22981599.273 6      2583.220 6  -2280563.953 6  -1736012.58446  22981590.81346
        43.500          25.250  
  22696412.078 6      2155.984 6  -1901293.664 6  -1450366.93247  22696403.50047
        44.000          31.500  
  25180014.867 3      3753.853 3  -2152996.769 3                
        36.750  
  21469327.375 7     -1006.809 7    750558.831 7    586312.79548  21469319.09048
        49.500          39.000  
  24273912.547 5     -1683.522 5   1413860.816 5   1095737.53846  24273904.90646
        39.250          23.750  
  20732955.961 7       696.530 7   -613308.655 7   -463383.79248  20732946.38748
        50.000          41.000  
  20560399.164 6       119.838 6   -101242.206 6    -70029.53048  20560389.18048
        47.500          41.000  
  22166263.102 6      2237.923 6  -1919345.849 6  -1464752.48148  22166252.35548
        47.500          36.000  
  23444467.938 6     -3088.118 6   2596643.876 6   2003016.69346  23444460.00446
        43.000          25.500  
  24673358.148 3      1927.534 3  -2321746.042 3  -2413191.06345  24673353.08645
        37.250          18.500  
  23192557.922 6     -3528.207 6   3083183.405 6   2375166.74547  23192551.51247
        45.000          31.000  
  24485457.250 6     -2659.924 6    -40750.929 6    518016.26046  24485451.01646
        44.250          25.500  
 11  3 23 15 59  0.0000000  0 12G03G06G14G15G16G18G21G22G26G27G29G30
  22974244.883 6      2576.268 6  -2319207.980 6  -1766124.82046  22974237.00846
        43.500          24.000  
  22690276.953 6      2149.205 6  -1933531.737 6  -1475487.51647  22690268.66847
        44.500          30.000  
  25169298.008 4      3754.502 4  -2209314.293 4                
        38.000  
  21472228.938 7     -1016.438 7    765805.398 7    598193.22348  21472220.41848
        48.500          39.250  
  24278735.703 5     -1689.605 5   1439204.888 5   1115486.12246  24278728.23846
        40.000          24.500  
  20730982.898 7       691.255 7   -623677.479 7   -471463.39648  20730973.14848
        50.000          40.500  
  20560071.156 7       114.862 7   -102965.132 7    -71372.07048  20560061.52348
        48.500          41.250  
  22159886.969 7      2233.587 7  -1952849.648 7  -1490859.33048  22159876.86748
        48.000          36.500  
  23453303.211 6     -3095.490 6   2643076.229 6   2039197.71946  23453295.80546
        42.500          24.000  
  24667865.578 3      1924.008 3  -2350606.166 3  -2435679.43245  24667861.21945
        36.000          17.750  
  23202638.398 6     -3531.379 6   3136154.087 6   2416442.53147  23202631.22747
        45.250          30.500  
  24493058.125 6     -2662.680 6      -810.727 6    549138.44646  24493051.42246
        44.500          25.500  
 11  3 23 15 59 15.0000000  0 12G03G06G14G15G16G18G21G22G26G27G29G30
  22966911.617 6      2569.291 6  -2357747.342 6  -1796155.50646  22966903.21546
        43.250          23.750  
  22684162.344 6      2142.398 6  -1965667.714 6  -1500528.54847  22684153.35547
        44.500          31.000  
  25158579.570 4      3755.108 4  -2265640.917 4  -1752646.40556  25158574.97756
        38.000          19.000  
  21475157.820 7     -1026.056 7    781196.231 7    610186.07548  21475149.00848
        47.750          39.500  
  24283576.656 5     -1695.668 5   1464639.907 5   1135305.59246  24283568.13746
        39.250          24.500  
  20729024.594 7       685.973 7   -633967.079 7   -479481.26848  20729015.37148
        50.000          40.250  
  20559757.391 7       109.868 7   -104613.151 7    -72656.24948  20559747.69948
        48.250          41.250  
  22153523.977 6      2229.234 6  -1986288.155 6  -1516915.29448  22153513.87548
        47.000          37.000  
  23462160.047 5     -3102.846 5   2689618.916 5   2075464.70446  23462152.69946
        42.000          24.750  
  24662382.164 1      1920.458 1  -2379413.041 1  -2458126.34145  24662378.91845
        33.750          18.500  
  23212727.273 6     -3534.525 6   3189171.962 6   2457755.10947  23212720.57047
        45.000          30.500  
  24500666.367 6     -2665.420 6     39170.571 6    580292.67346  24500660.48446
        45.000          25.750  
 11  3 23 15 59 30.0000000  0 12G03G06G14G15G16G18G21G22G26G27G29G30
  22959598.125 6      2562.262 6  -2396181.267 6  -1826104.03746  22959589.43046
        43.000          22.750  
  22678065.961 6      2135.563 6  -1997701.165 6  -1525489.68147  22678057.79347
        45.250          30.750  
  25147858.758 4      3755.687 4  -2321976.228 4  -1796544.06445  25147853.87145
        39.000          18.250  
  21478114.070 7     -1035.683 7    796731.474 7    622291.44348  21478105.31648
        49.250          39.500  
  24288433.109 5     -1701.735 5   1490165.929 5   1155195.97446  24288425.35246
        39.750          25.250  
  20727081.859 7       680.679 7   -644177.266 7   -487437.25748  20727072.05148
        50.250          41.000  
  20559458.250 7       104.855 7   -106185.974 7    -73881.83948  20559448.61748
        48.500          41.000  
  22147173.430 7      2224.867 7  -2019661.160 7  -1542920.22448  22147163.15248
        48.000          36.750  
  23471037.742 6     -3110.189 6   2736271.753 6   2111817.53346  23471029.69146
        42.750          22.500  
  24656912.250 3      1916.867 3  -2408166.050 3  -2480531.19546  24656908.00846
        36.500          19.250  
  23222824.977 6     -3537.682 6   3242237.192 6   2499104.57247  23222818.50847
        45.000          30.000  
  24508282.039 6     -2668.141 6     79192.683 6    611478.68246  24508276.03946
        45.000          25.250  
 11  3 23 15 59 45.0000000  0 12G03G06G14G15G16G18G21G22G26G27G29G30
  22952304.164 6      2555.267 6  -2434510.276 6  -1855970.79246  22952295.41046
        42.750          24.000  
  22671990.094 6      2128.749 6  -2029632.398 6  -1550371.16347  22671981.57447
        45.000          31.250  
  25137137.141 5      3756.295 5  -2378320.647 5  -1840448.81045  25137131.96145
        39.250          17.250  
  21481097.758 7     -1045.256 7    812410.313 7    634508.71048  21481089.12148
        49.000          39.000  
  24293307.703 5     -1707.745 5   1515782.097 5   1175156.56646  24293299.59446
        39.500          22.000  
  20725153.758 7       675.436 7   -654308.801 7   -495331.96048  20725144.41848
        50.000          41.250  
  20559173.328 6        99.874 6   -107684.077 6    -75049.20448  20559163.52048
        47.250          41.250  
  22140835.102 7      2220.542 7  -2052969.283 7  -1568874.59648  22140824.82448
        48.000          36.500  
  23479935.852 5     -3117.463 5   2783033.699 5   2148255.37446  23479929.50046
        41.500          24.750  
  24651451.875 3      1913.288 3  -2436865.373 3  -2502894.24745  24651446.69545
        35.750          18.250  
  23232931.750 6     -3540.790 6   3295349.041 6   2540490.35847  23232924.87147
        44.500          29.750  
  24515905.898 6     -2670.805 6    119254.759 6    642695.83646  24515899.78146
        43.500          24.500  
 11  3 23 16  0  0.0000000  0 12G03G06G14G15G16G18G21G22G26G27G29G30
  22945030.789 6      2548.241 6  -2472733.891 6  -1885755.44546  22945021.62546
        43.750          23.000  
  22665932.500 6      2121.903 6  -2061460.941 6  -1575172.63847  22665924.97747
        44.000          31.500  
  25126413.422 5      3756.856 5  -2434673.484 5  -1884360.09145  25126408.35945
        39.500          18.250  
  21484108.633 7     -1054.838 7    828232.876 7    646837.96648  21484099.58648
        48.750          39.000  
  24298199.867 5     -1713.751 5   1541488.362 5   1195187.38846  24298191.58246
        40.500          22.500  
  20723240.773 7       670.164 7   -664361.261 7   -503165.04848  20723230.96548
        50.000          41.000  
  20558902.625 7        94.855 7   -109106.900 7    -76157.91648  20558892.64148
        48.750          41.250  
  22134509.258 7      2216.191 7  -2086212.142 7  -1594778.10948  22134498.80548
        48.500          37.250  
  23488855.953 6     -3124.728 6   2829904.615 6   2184778.12246  23488848.25446
        42.750          22.500  
  24645998.672 1      1909.682 1  -2465510.596 1  -2525215.15046  24645995.30946
        33.500          19.000  
  23243047.453 6     -3543.887 6   3348507.345 6   2581912.35547  23243041.16047
        44.250          30.250  
  24523536.570 6     -2673.448 6    159356.475 6    673943.88646  24523531.03946
        44.750          24.250  
 11  3 23 16  0 15.0000000  0 12G03G06G14G15G16G18G21G22G26G27G29G30
  22937776.414 6      2541.171 6  -2510851.449 6  -1915457.42846  22937768.36346
        43.750          25.250  
  22659896.070 6      2115.010 6  -2093186.092 6  -1599893.52447  22659888.13747
        45.000          32.750  
  25115688.055 5      3757.378 5  -2491034.151 5  -1928277.45646  25115683.40246
        39.500          19.250  
  21487146.906 7     -1064.429 7    844199.313 7    659279.33048  21487138.27048
        49.750          39.250  
  24303109.250 5     -1719.744 5   1567284.527 5   1215288.26846  24303100.61346
        40.250          22.500  
  20721343.242 7       664.881 7   -674334.475 7   -510936.38848  20721333.55148
        50.000          41.000  
  20558645.953 7        89.817 7   -110454.162 7    -77207.73949  20558636.43849
        48.750          41.500  
  22128195.648 7      2211.815 7  -2119389.362 7  -1620630.48248  22128185.48848
        47.750          37.000  
  23497796.367 6     -3131.989 6   2876884.444 6   2221385.76346  23497787.43846
        43.000          23.500  
  24640558.336 2      1906.021 2  -2494100.914 2  -2547493.23846  24640554.91446
        35.000          20.500  
  23253172.602 6     -3546.980 6   3401712.050 6   2623370.48747  23253166.07447
        45.000          30.500  
  24531175.500 6     -2676.093 6    199497.876 6    705222.84846  24531168.97346
        45.250          22.500  
 11  3 23 16  0 30.0000000  0 12G03G06G14G15G16G18G21G22G26G27G29G30
  22930543.852 6      2534.085 6  -2548862.719 6  -1945076.59046  22930535.39146
        43.750          24.250  
  22653878.852 6      2108.130 6  -2124808.047 6  -1624534.02247  22653870.68447
        43.500          32.250  
  25104962.070 5      3757.906 5  -2547402.735 5  -1972201.01546  25104956.48046
        39.750          20.000  
  21490212.328 7     -1073.985 7    860309.082 7    671832.38648  21490203.75048
        49.250          39.500  
  24308034.555 5     -1725.689 5   1593169.868 5   1235458.64446  24308026.21146
        39.250          22.500  
  20719460.328 7       659.632 7   -684228.951 7   -518646.37248  20719450.57848
        50.750          41.000  
  20558404.313 6        84.789 6   -111725.994 6    -78198.78448  20558394.15248
        47.500          40.750  
  22121894.695 7      2207.466 7  -2152501.351 7  -1646432.01948  22121884.35948
        48.250          36.250  
  23506756.820 5     -3139.201 5   2923972.464 5   2258077.68246  23506749.12146
        41.500          22.750  
  24635126.852 2      1902.368 2  -2522636.431 2  -2569728.64946  24635124.42646
        34.250          19.250  
  23263305.320 6     -3550.026 6   3454962.446 6   2664864.24147  23263299.32047
        44.500          30.250  
  24538821.633 6     -2678.688 6    239678.199 6    736532.15146  24538814.98846
        43.250          22.750  
 11  3 23 16  0 45.0000000  0 12G03G06G14G15G16G18G21G22G26G27G29G30
  22923330.805 6      2526.974 6  -2586767.331 6  -1974612.64347  22923321.75847
        44.000          26.500  
  22647880.461 6      2101.216 6  -2156326.294 6  -1649093.69847  22647872.70347
        44.500          31.250  
  25094234.016 5      3758.400 5  -2603778.741 5  -2016130.35645  25094228.77745
        40.000          18.500  
  21493305.164 7     -1083.546 7    876562.270 7    684497.20148  21493296.76248
        49.500          39.500  
  24312977.555 5     -1731.635 5   1619144.389 5   1255698.48746  24312968.68446
        39.750          22.500  
  20717592.609 7       654.366 7   -694044.442 7   -526294.80248  20717582.97748
        50.500          41.000  
  20558176.664 7        79.742 7   -112922.122 7    -79130.84648  20558167.09048
        48.000          41.000  
  22115606.117 7      2203.088 7  -2185547.675 7  -1672182.39348  22115595.54748
        49.000          36.500  
  23515736.313 5     -3146.390 5   2971168.320 5   2294853.65146  23515729.43446
        41.000          22.750  
  24629709.617 3      1898.665 3  -2551116.400 3  -2591920.76546  24629704.61346
        36.750          19.500  
  23273447.961 6     -3553.066 6   3508258.433 6   2706393.50947  23273440.67247
        44.750          29.500  
  24546475.328 6     -2681.269 6    279897.229 6    767871.60046  24546469.21146
        42.500          22.000  
 11  3 23 16  1  0.0000000  0 12G03G06G14G15G16G18G21G22G26G27G29G30
  22916138.086 6      2519.869 6  -2624565.370 6  -2004065.67446  22916128.80546
        44.250          25.250  
  22641902.594 6      2094.307 6  -2187740.902 6  -1673572.61247  22641894.36747
        44.500          31.500  
  25083504.594 5      3758.900 5  -2660162.235 5  -2060065.52946  25083499.64846
        40.250          20.250  
  21496425.508 7     -1093.069 7    892958.307 7    697273.31448  21496416.69548
        49.000          39.250  
  24317936.516 5     -1737.555 5   1645207.710 5   1276007.53446  24317928.40646
        40.500          22.500  
  20715739.563 7       649.129 7   -703781.384 7   -533882.02649  20715730.28149
        50.000          41.500  
  20557963.133 7        74.715 7   -114042.850 7    -80004.15048  20557953.03148
        47.750          41.000  
  22109330.063 7      2198.735 7  -2218528.704 7  -1697881.87748  22109319.60948
        47.750          36.750  
  23524738.547 5     -3153.544 5   3018471.484 5   2331713.22846  23524730.43846
        41.500          22.500  
  24624301.617 3      1894.974 3  -2579541.011 3  -2614069.73746  24624295.61746
        36.500          21.000  
  23283597.867 6     -3556.074 6   3561599.547 6   2747957.94047  23283591.10547
        44.250          30.750  
  24554136.070 6     -2683.798 6    320154.204 6    799240.63246  24554129.42646
        44.500          21.500  
 11  3 23 16  1 15.0000000  0 12G03G06G14G15G16G18G21G22G26G27G29G30
  22908965.539 6      2512.723 6  -2662256.215 6  -2033435.16346  22908957.02046
        43.500          26.000  
  22635944.703 6      2087.353 6  -2219051.198 6  -1697970.26347  22635936.12547
        45.000          31.000  
  25072772.766 5      3759.332 5  -2716552.211 5  -2104005.76246  25072768.99246
        40.000          20.000  
  21499572.891 7     -1102.623 7    909497.656 7    710161.11248  21499564.25448
        49.500          39.000  
  24322913.781 5     -1743.463 5   1671359.658 5   1296385.64846  24322905.02746
        40.250          22.250  
  20713901.992 7       643.877 7   -713439.537 7   -541407.86148  20713891.89148
        50.500          41.000  
  20557764.258 7        69.651 7   -115087.617 7    -80818.26148  20557754.85948
        48.250          41.000  
  22103066.383 7      2194.356 7  -2251444.038 7  -1723530.18248  22103056.10548
        48.250          36.750  
  23533759.742 5     -3160.698 5   3065881.959 5   2368656.38946  23533753.62546
        40.000          22.000  
  24618902.156 3      1891.233 3  -2607909.502 3  -2636174.96746  24618897.50446
        36.250          20.000  
  23293756.688 6     -3559.081 6   3614985.762 6   2789557.52647  23293750.92247
        44.250          31.000  
  24561803.875 6     -2686.335 6    360449.224 6    830639.29846  24561797.28946
        44.500          20.750  
 11  3 23 16  1 30.0000000  0 12G03G06G14G15G16G18G21G22G26G27G29G30
  22901813.531 6      2505.547 6  -2699839.421 6  -2062720.78547  22901804.71947
        44.500          26.750  
  22630006.211 6      2080.391 6  -2250257.064 6  -1722286.53047  22629998.51247
        43.500          31.250  
  25062041.477 5      3759.761 5  -2772948.622 5  -2147951.00346  25062036.35546
        40.000          21.500  
  21502747.109 7     -1112.154 7    926179.966 7    723160.29648  21502738.59048
        49.500          39.500  
  24327906.930 5     -1749.352 5   1697599.936 5   1316832.57546  24327898.58646
        40.250          22.750  
  20712078.852 7       638.615 7   -723018.767 7   -548872.19548  20712069.21948
        50.500          40.750  
  20557580.383 7        64.562 7   -116056.047 7    -81572.89948  20557570.39848
        48.000          41.000  
  22096815.570 7      2189.969 7  -2284293.573 7  -1749127.21048  22096805.11748
        47.750          36.500  
  23542802.602 5     -3167.824 5   3113399.314 5   2405682.86246  23542795.78146
        40.750          22.500  
  24613512.664 3      1887.463 3  -2636221.441 3  -2658236.17546  24613510.00446
        36.750          20.500  
  23303924.984 6     -3562.071 6   3668416.826 6   2831192.04247  23303918.80947
        44.500          30.500  
  24569479.141 6     -2688.841 6    400781.844 6    862067.27746  24569471.85246
        42.500          19.750  
 11  3 23 16  1 45.0000000  0 12G03G06G14G15G16G18G21G22G26G27G29G30
  22894681.906 6      2498.345 6  -2737314.597 6  -2091922.22546  22894673.27046
        43.750          25.500  
  22624088.039 6      2073.411 6  -2281358.226 6  -1746521.20147  22624079.81347
        44.500          31.750  
  25051309.031 5      3760.174 5  -2829351.233 5  -2191901.08146  25051303.09046
        40.500          20.750  
  21505948.836 7     -1121.678 7    943005.140 7    736270.80848  21505940.25848
        49.500          39.500  
  24332917.172 5     -1755.211 5   1723928.108 5   1337347.97446  24332908.35946
        40.500          23.250  
  20710270.898 7       633.373 7   -732519.361 7   -556275.25448  20710261.38348
        50.500          41.000  
  20557410.313 7        59.486 7   -116948.337 7    -82268.19948  20557400.73848
        49.500          41.000  
  22090577.336 7      2185.593 7  -2317077.465 7  -1774673.09548  22090566.41448
        48.500          36.500  
  23551865.273 5     -3174.906 5   3161022.898 5   2442792.12046  23551857.69146
        40.250          22.000  
  24608136.266 3      1883.680 3  -2664476.645 3  -2680253.23546  24608132.78546
        36.750          20.500  
  23314101.211 6     -3565.035 6   3721892.346 6   2872861.21347  23314094.56647
        44.500          30.250  
  24577161.102 6     -2691.317 6    441151.595 6    893524.18446  24577154.75046
        45.000          19.500  
 11  3 23 16  2  0.0000000  0 12G03G06G14G15G16G18G21G22G26G27G29G30
  22887571.398 6      2491.167 6  -2774682.106 6  -2121039.76246  22887562.64546
        43.250          25.500  
  22618189.469 6      2066.447 6  -2312354.933 6  -1770674.48947  22618181.35947
        44.500          32.000  
  25040574.773 5      3760.609 5  -2885760.368 5  -2235856.24546  25040569.77046
        40.000          21.500  
  21509177.742 7     -1131.150 7    959972.394 7    749492.02948  21509169.04748
        48.750          39.500  
  24337943.445 5     -1761.018 5   1750343.373 5   1357931.28646  24337935.21946
        40.750          22.500  
  20708477.688 7       628.172 7   -741941.949 7   -563617.53248  20708468.23048
        50.000          41.250  
  20557255.133 7        54.419 7   -117764.628 7    -82904.28049  20557245.09049
        49.000          41.500  
  22084350.742 7      2181.253 7  -2349796.259 7  -1800168.24548  22084340.87548
        47.750          36.000  
  23560948.578 5     -3181.941 5   3208752.013 5   2479983.58746  23560940.99646
        41.000          22.500  
  24602770.469 3      1879.904 3  -2692675.210 3  -2702226.07646  24602766.63746
        36.250          20.750  
  23324284.789 6     -3567.943 6   3775411.490 6   2914564.37147  23324279.19947
        45.000          30.750  
  24584849.797 5     -2693.731 5    481557.561 5    925009.28246  24584843.15246
        42.000          19.250  
 11  3 23 16  2 15.0000000  0 12G03G06G14G15G16G18G21G22G26G27G29G30
  22880480.789 6      2483.928 6  -2811941.019 6  -2150072.69146  22880472.79746
        43.250          25.500  
  22612311.273 6      2059.416 6  -2343246.180 6  -1794745.59547  22612302.63747
        44.500          31.750  
  25029838.523 5      3760.965 5  -2942174.840 5  -2279815.58546  25029833.81346
        40.000          19.750  
  21512433.898 7     -1140.662 7    977082.331 7    762824.44248  21512425.37948
        49.750          38.750  
  24342987.414 5     -1766.852 5   1776846.159 5   1378582.76146  24342978.66046
        39.750          23.000  
  20706699.844 7       622.915 7   -751285.674 7   -570898.36548  20706690.32848
        50.250          41.000  
  20557114.094 7        49.307 7   -118504.236 7    -83480.61248  20557104.40248
        49.500          40.750  
  22078137.102 7      2176.852 7  -2382449.044 7  -1825611.95948  22078126.76648
        48.250          37.000  
  23570050.930 5     -3188.990 5   3256586.856 5   2517257.45346  23570043.64146
        41.250          22.250  
  24597416.500 3      1876.054 3  -2720816.014 3  -2724153.94646  24597412.02346
        36.500          20.750  
  23334477.555 6     -3570.885 6   3828974.761 6   2956301.91247  23334472.14147
        44.500          29.500  
  24592545.523 6     -2696.165 6    522000.037 6    956522.93845  24592538.87945
        43.000          18.250  
 11  3 23 16  2 30.0000000  0 12G03G06G14G15G16G18G21G22G26G27G29G30
  22873411.594 6      2476.726 6  -2849091.910 6  -2179021.45946  22873403.25046
        43.750          26.250  
  22606452.383 6      2052.424 6  -2374032.546 6  -1818734.97447  22606444.56647
        44.750          32.000  
  25019102.734 5      3761.354 5  -2998595.150 5  -2323779.47546  25019097.43846
        40.000          21.000  
  21515716.625 7     -1150.112 7    994334.014 7    776267.29648  21515707.69548
        49.500          39.250  
  24348047.039 5     -1772.604 5   1803435.212 5   1399301.46846  24348038.57846
        40.500          21.750  
  20704936.719 7       617.714 7   -760551.386 7   -578118.39748  20704926.91048
        50.500          40.500  
  20556987.992 7        44.246 7   -119167.933 7    -83997.79548  20556978.30148
        49.750          41.000  
  22071935.555 7      2172.506 7  -2415036.631 7  -1851004.87948  22071925.33648
        48.250          36.250  
  23579174.359 5     -3195.957 5   3304526.209 5   2554612.76746  23579165.95746
        41.250          22.750  
  24592072.961 4      1872.242 4  -2748899.649 4  -2746037.25646  24592067.66446
        37.750          21.000  
  23344679.023 6     -3573.759 6   3882581.139 6   2998073.03847  23344673.37547
        44.500          31.000  
  24600248.578 6     -2698.519 6    562477.822 6    988063.99745  24600241.69945
        43.500          16.750  
 11  3 23 16  2 45.0000000  0 12G03G06G14G15G16G18G21G22G26G27G29G30
  22866362.688 6      2469.455 6  -2886133.738 6  -2207885.22847  22866354.40247
        44.500          26.500  
  22600614.289 6      2045.374 6  -2404713.162 6  -1842641.95447  22600606.35547
        44.000          32.000  
  25008365.438 5      3761.684 5  -3055020.408 5  -2367747.23246  25008360.49246
        40.500          22.250  
  21519026.297 7     -1159.587 7   1011727.820 7    789820.89248  21519017.95348
        49.500          38.750  
  24353123.148 5     -1778.384 5   1830110.970 5   1420087.73246  24353114.57046
        39.500          22.000  
  20703188.266 7       612.492 7   -769738.765 7   -585277.39348  20703178.45748
        50.500          41.250  
  20556876.422 7        39.128 7   -119754.860 7    -84455.15048  20556866.55548
        49.000          40.750  
  22065747.227 7      2168.106 7  -2447558.225 7  -1876346.36648  22065736.94948
        48.500          36.000  
  23588315.422 5     -3202.941 5   3352570.320 5   2592049.66846  23588308.83646
        39.500          21.750  
  24586739.523 4      1868.359 4  -2776925.029 4  -2767875.20746  24586734.69546
        37.500          21.500  
  23354888.680 6     -3576.641 6   3936230.749 6   3039877.85347  23354882.03547
        44.250          31.000  
  24607957.914 6     -2700.881 6    602991.035 6   1019632.72445  24607950.62545
        43.000          15.500  
 11  3 23 16  3  0.0000000  0 12G03G06G14G15G16G18G21G22G26G27G29G30
  22859334.883 6      2462.161 6  -2923066.150 6  -2236663.73247  22859327.06647
        44.250          27.000  
  22594796.438 6      2038.300 6  -2435287.666 6  -1866466.25747  22594788.32847
        44.500          32.250  
  24997627.195 5      3761.985 5  -3111450.175 5  -2411718.52646  24997622.42646
        40.000          21.500  
  21522363.359 7     -1169.057 7   1029263.678 7    803485.18448  21522354.78148
        49.500          38.500  
  24358216.086 4     -1784.139 4   1856873.053 4   1440941.25646  24358207.85946
        39.000          22.000  
  20701454.828 7       607.259 7   -778847.650 7   -592375.22448  20701445.07848
        50.000          40.750  
  20556779.547 7        33.987 7   -120264.667 7    -84852.41348  20556769.56348
        48.250          41.000  
  22059571.320 7      2163.703 7  -2480013.767 7  -1901636.39048  22059560.63348
        48.500          36.500  
  23597477.555 5     -3209.903 5   3400718.867 5   2629568.01546  23597470.38346
        40.250          21.500  
  24581416.859 4      1864.449 4  -2804891.759 4  -2789667.43746  24581412.91046
        38.000          21.250  
  23365106.313 6     -3579.516 6   3989923.493 6   3081716.27847  23365099.55147
        44.500          31.500  
  24615674.266 6     -2703.225 6    643539.417 6   1051228.83145  24615667.21145
        42.750          15.500  
 11  3 23 16  3 15.0000000  0 12G03G06G14G15G16G18G21G22G26G27G29G30
  22852328.531 6      2454.846 6  -2959888.834 6  -2265356.73646  22852320.07046
        44.500          26.250  
  22588998.164 6      2031.213 6  -2465755.860 6  -1890207.70347  22588990.28947
        44.250          32.000  
  24986888.539 5      3762.276 5  -3167884.312 5  -2455693.24146  24986883.12546
        39.500          21.250  
  21525727.398 7     -1178.508 7   1046941.303 7    817259.93248  21525718.70348
        49.500          39.000  
  24363325.266 5     -1789.872 5   1883721.134 5   1461861.82146  24363315.80946
        39.750          21.500  
  20699736.523 7       602.031 7   -787878.111 7   -599411.94148  20699727.18448
        50.750          41.000  
  20556697.117 7        28.845 7   -120697.344 7    -85189.57448  20556687.19148
        49.750          41.250  
  22053407.484 7      2159.295 7  -2512403.197 7  -1926874.89648  22053397.03148
        48.000          36.000  
  23606660.172 5     -3216.839 5   3448971.446 5   2667167.36446  23606653.11746
        40.000          22.000  
  24576105.992 4      1860.515 4  -2832799.482 4  -2811413.68246  24576102.21946
        38.500          21.750  
  23375330.898 6     -3582.366 6   4043658.985 6   3123588.01747  23375324.66447
        45.000          30.250  
  24623396.945 6     -2705.544 6    684122.574 6   1082852.06445  24623389.59845
        42.500          14.750  
 11  3 23 16  3 30.0000000  0 12G03G06G14G15G16G18G21G22G26G27G29G30
  22845341.484 6      2447.535 6  -2996601.852 6  -2293964.29247  22845334.07847
        44.500          27.500  
  22583220.594 6      2024.128 6  -2496117.782 6  -1913866.35047  22583211.89847
        45.000          32.000  
  24976148.289 4      3762.551 4  -3224322.579 4  -2499671.14546  24976143.28546
        39.000          21.500  
  21529118.242 7     -1187.939 7   1064760.387 7    831144.91948  21529109.60548
        49.250          39.000  
  24368450.453 5     -1795.580 5   1910654.835 5   1482849.05946  24368441.69946
        40.250          21.500  
  20698033.172 7       596.828 7   -796830.527 7   -606387.85448  20698023.12948
        50.500          41.000  
  20556629.641 7        23.711 7   -121053.003 7    -85466.72848  20556619.59848
        48.500          40.500  
  22047257.078 7      2154.911 7  -2544726.856 7  -1952062.15948  22047245.62948
        48.500          36.000  
  23615862.211 5     -3223.730 5   3497327.402 5   2704847.30846  23615855.09846
        39.750          22.250  
  24570806.125 4      1856.576 4  -2860648.118 4  -2833113.87446  24570802.87946
        38.000          20.750  
  23385565.734 6     -3585.181 6   4097436.694 6   3165492.64847  23385559.20747
        44.500          29.750  
  24631126.875 6     -2707.822 6    724739.906 6   1114501.90145  24631118.82445
        42.500          15.500  
 11  3 23 16  3 45.0000000  0 12G03G06G14G15G16G18G21G22G26G27G29G30
  22838376.984 6      2440.213 6  -3033205.050 6  -2322486.25947  22838367.99647
        44.750          28.000  
  22577463.539 6      2017.034 6  -2526373.288 6  -1937442.06747  22577454.96147
        44.500          32.250  
  24965407.859 5      3762.828 5  -3280765.003 5  -2543652.32246  24965402.44546
        39.250          21.500  
  21532535.969 7     -1197.338 7   1082720.455 7    845139.75348  21532527.50848
        49.000          38.750  
  24373591.633 4     -1801.241 4   1937673.454 4   1503902.53546  24373583.58246
        39.000          22.000  
  20696344.211 7       591.644 7   -805705.186 7   -613303.17848  20696334.28548
        50.000          40.750  
  20556576.469 7        18.583 7   -121331.753 7    -85683.94248  20556566.36748
        49.000          40.750  
  22041118.023 7      2150.543 7  -2576985.007 7  -1977198.37548  22041107.16048
        48.250          36.250  
  23625083.805 5     -3230.573 5   3545785.990 5   2742607.19346  23625075.57846
        40.500          22.500  
  24565519.422 5      1852.629 5  -2888437.559 5  -2854767.96846  24565514.71146
        40.000          21.250  
  23395806.258 6     -3587.959 6   4151256.078 6   3207429.75247  23395801.25447
        45.000          31.500  
  24638861.859 5     -2710.060 5    765390.799 5   1146177.89845  24638855.21545
        41.500          16.250  
 11  3 23 16  4  0.0000000  0 12G03G06G14G15G16G18G21G22G26G27G29G30
  22831432.531 6      2432.834 6  -3069697.556 6  -2350921.97947  22831423.48447
        44.500          28.000  
  22571726.352 6      2009.901 6  -2556521.800 6  -1960934.42147  22571717.42247
        45.000          31.750  
  24954666.641 5      3763.062 5  -3337210.930 5  -2587636.22146  24954661.28546
        39.250          21.250  
  21535980.711 7     -1206.760 7   1100821.854 7    859244.73248  21535972.01648
        49.500          39.000  
  24378749.375 4     -1806.911 4   1964777.112 4   1525022.19946  24378740.73846
        38.250          21.000  
  20694670.352 7       586.434 7   -814501.693 7   -620157.58848  20694660.71948
        50.750          41.000  
  20556538.352 7        13.425 7   -121533.136 7    -85840.87448  20556527.89848
        50.250          41.000  
  22034992.063 7      2146.136 7  -2609177.049 7  -2002283.07148  22034981.31648
        48.500          36.000  
  23634324.844 5     -3237.424 5   3594347.344 5   2780447.16446  23634317.32046
        40.750          22.000  
  24560241.117 4      1848.631 4  -2916167.019 4  -2876375.32846  24560237.46146
        39.000          20.750  
  23406054.984 6     -3590.745 6   4205117.255 6   3249399.42347  23406050.91847
        45.000          31.250  
  24646603.445 5     -2712.288 5    806075.122 5   1177879.90345  24646597.62145
        40.500          16.250  
 11  3 23 16  4 15.0000000  0 12G03G06G14G15G16G18G21G22G26G27G29G30
  22824509.328 6      2425.470 6  -3106079.600 6  -2379271.63247  22824500.45747
        44.750          28.250  
  22566009.672 6      2002.784 6  -2586563.558 6  -1984343.58347  22566001.15247
        45.000          32.500  
  24943924.539 4      3763.295 4  -3393660.351 4  -2631622.85046  24943919.24246
        38.250          21.250  
  21539452.086 7     -1216.129 7   1119063.791 7    873459.21248  21539443.44948
        50.000          39.000  
  24383923.078 5     -1812.513 5   1991964.813 5   1546207.38346  24383914.38346
        40.250          21.250  
  20693010.867 7       581.257 7   -823220.546 7   -626951.50149  20693001.41049
        50.250          41.500  
  20556514.594 7         8.285 7   -121657.403 7    -85937.71948  20556504.90248
        49.250          40.500  
  22028878.102 7      2141.775 7  -2641303.675 7  -2027316.80148  22028867.59048
        48.000          35.000  
  23643585.008 5     -3244.216 5   3643010.578 5   2818366.55046  23643577.66046
        41.250          22.000  
  24554977.523 5      1844.645 5  -2943836.700 5  -2897936.05446  24554972.22746
        40.750          20.750  
  23416312.914 6     -3593.482 6   4259019.480 6   3291401.09447  23416308.08647
        45.000          31.000  
  24654353.078 4     -2714.460 4    846792.025 4   1209607.34345  24654346.25845
        39.000          18.250  
 11  3 23 16  4 30.0000000  0 12G03G06G14G15G16G18G21G22G26G27G29G30
  22817606.320 6      2418.067 6  -3142350.605 6  -2407534.75147  22817598.50447
        45.000          28.000  
  22560313.047 6      1995.614 6  -2616497.760 6  -2007668.94247  22560304.93847
        44.500          32.250  
  24933182.922 4      3763.484 4  -3450112.616 4  -2675611.69946  24933177.33246
        39.000          21.500  
  21542949.969 7     -1225.526 7   1137446.675 7    887783.51848  21542941.33248
        49.750          39.250  
  24389113.031 5     -1818.129 5   2019236.744 5   1567458.20246  24389104.57046
        40.000          20.500  
  20691367.039 7       576.056 7   -831861.383 7   -633684.62648  20691357.52348
        50.250          40.750  
  20556505.672 7         3.100 7   -121703.906 7    -85973.96148  20556495.57048
        49.750          40.750  
  22022777.570 7      2137.356 7  -2673364.020 7  -2052298.87748  22022767.11748
        48.250          36.000  
  23652864.742 5     -3251.004 5   3691775.632 5   2856365.24746  23652856.80946
        40.500          22.000  
  24549724.641 5      1840.606 5  -2971445.784 5  -2919449.59846  24549718.11346
        41.250          20.000  
  23426577.445 6     -3596.233 6   4312962.982 6   3333434.91547  23426572.09047
        46.500          30.500  
  24662106.438 4     -2716.642 4    887541.649 4   1241360.26545  24662100.49645
        39.000          17.750  
 11  3 23 16  4 45.0000000  0 12G03G06G14G15G16G18G21G22G26G27G29G30
  22810725.727 6      2410.635 6  -3178510.131 6  -2435711.00247  22810717.50047
        45.500          28.000  
  22554637.367 6      1988.427 6  -2646324.160 6  -2030910.30347  22554629.19947
        45.500          32.250  
  24922439.766 4      3763.641 4  -3506567.234 4  -2719602.37546  24922434.52746
        39.000          21.500  
  21546475.219 7     -1234.917 7   1155970.430 7    902217.59248  21546466.58248
        49.750          39.250  
  24394318.305 5     -1823.739 5   2046592.830 5   1588774.60446  24394310.43046
        40.000          21.250  
  20689737.258 7       570.858 7   -840424.253 7   -640356.99248  20689727.56648
        50.000          41.000  
  20556511.375 7        -2.102 7   -121672.370 7    -85949.40448  20556501.80148
        50.000          40.750  
  22016689.422 7      2132.930 7  -2705357.975 7  -2077229.22448  22016679.43848
        48.250          37.000  
  23662163.445 5     -3257.782 5   3740642.367 5   2894443.13646  23662157.09446
        39.750          22.750  
  24544481.047 5      1836.530 5  -2998993.740 5  -2940915.51146  24544475.75046
        40.000          20.750  
  23436852.797 6     -3598.973 6   4366947.577 6   3375500.75047  23436846.15247
        45.500          29.500  
  24669867.320 5     -2718.803 5    928323.695 5   1273138.42345  24669860.91045
        39.750          17.250  
 11  3 23 16  5  0.0000000  0 12G03G06G14G15G16G18G21G22G26G27G29G30
  22803866.328 6      2403.208 6  -3214558.246 6  -2463800.44847  22803857.39847
        45.500          27.500  
  22548982.188 6      1981.249 6  -2676042.895 6  -2054067.76547  22548973.90247
        44.750          33.250  
  24911696.469 4      3763.807 4  -3563024.342 4  -2763594.98746  24911690.87946
        38.000          20.500  
  21550026.813 7     -1244.262 7   1174634.353 7    916760.89948  21550018.11748
        50.000          39.000  
  24399539.898 4     -1829.302 4   2074032.358 4   1610156.01946  24399532.08246
        39.000          20.250  
  20688122.578 7       565.693 7   -848909.646 7   -646968.98748  20688113.00448
        50.500          41.000  
  20556532.438 7        -7.281 7   -121563.158 7    -85864.31548  20556522.51248
        50.000          41.000  
  22010613.898 7      2128.544 7  -2737286.141 7  -2102108.30248  22010603.38748
        47.750          37.250  
  23671480.930 5     -3264.494 5   3789609.772 5   2932599.55346  23671474.98846
        39.750          22.750  
  24539248.898 5      1832.465 5  -3026480.711 5  -2962333.85846  24539245.59446
        39.500          19.750  
  23447133.070 6     -3601.658 6   4420972.449 6   3417597.98047  23447126.42647
        46.000          30.250  
  24677633.500 4     -2720.901 4    969137.206 4   1304941.12445  24677627.61745
        39.000          17.250  
 11  3 23 16  5 15.0000000  0 12G03G06G14G15G16G18G21G22G26G27G29G30
  22797028.609 6      2395.729 6  -3250494.180 6  -2491802.48047  22797018.97747
        46.000          28.500  
  22543347.273 6      1974.023 6  -2705653.234 6  -2077140.75647  22543339.45747
        43.750          32.250  
  24900952.352 4      3763.914 4  -3619483.052 4  -2807588.82646  24900947.17246
        38.500          19.750  
  21553605.156 7     -1253.625 7   1193438.730 7    931413.64048  21553596.52048
        49.250          39.000  
  24404777.602 4     -1834.875 4   2101555.485 4   1631602.56946  24404769.49246
        38.750          19.750  
  20686522.703 7       560.501 7   -857317.166 7   -653520.30649  20686513.01249
        50.750          41.500  
  20556568.227 7       -12.493 7   -121375.758 7    -85718.30148  20556558.00848
        50.000          41.250  
  22004550.563 7      2124.118 7  -2769147.907 7  -2126935.64248  22004539.99248
        48.500          36.500  
  23680819.469 5     -3271.224 5   3838678.138 5   2970834.57546  23680811.94546
        41.000          22.750  
  24534028.250 4      1828.340 4  -3053905.813 4  -2983704.02546  24534026.17646
        38.000          20.500  
  23457420.375 6     -3604.355 6   4475037.776 6   3459726.74147  23457414.72747
        45.500          29.500  
  24685406.531 4     -2723.013 4   1009982.401 4   1336768.49745  24685399.41845
        38.500          15.500  
 11  3 23 16  5 30.0000000  0 12G03G06G14G15G16G18G21G22G26G27G29G30
  22790210.516 6      2388.244 6  -3286317.834 6  -2519717.00547  22790202.17247
        45.750          28.750  
  22537733.563 6      1966.798 6  -2735155.199 6  -2100129.30147  22537725.45347
        45.000          33.000  
  24890208.242 3      3764.032 3  -3675943.539 3  -2851584.05246  24890203.41446
        37.000          19.250  
  21557209.984 7     -1262.962 7   1212383.160 7    946175.52148  21557201.52348
        49.250          39.000  
  24410030.969 4     -1840.399 4   2129161.474 4   1653113.68646  24410022.39146
        38.750          19.500  
  20684937.422 7       555.325 7   -865647.039 7   -660011.12648  20684927.84848
        50.000          40.750  
  20556618.414 7       -17.700 7   -121110.257 7    -85511.42148  20556608.66448
        50.500          41.250  
  21998500.414 7      2119.707 7  -2800943.510 7  -2151711.42748  21998489.72748
        48.250          36.750  
  23690175.453 5     -3277.895 5   3887846.562 5   3009147.58046  23690168.80946
        40.500          22.250  
  24528821.203 4      1824.219 4  -3081269.104 4  -3005026.01746  24528818.54346
        38.500          20.000  
  23467716.578 6     -3607.016 6   4529143.019 6   3501886.59947  23467710.28547
        45.000          30.250  
  24693185.531 4     -2725.075 4   1050858.530 4   1368619.97145  24693178.00845
        37.500          16.250  
 11  3 23 16  5 45.0000000  0 12G03G06G14G15G16G18G21G22G26G27G29G30
  22783414.781 6      2380.785 6  -3322029.613 6  -2547544.37747  22783406.84847
        45.500          27.500  
  22532140.352 6      1959.593 6  -2764549.101 6  -2123033.64747  22532131.42247
        44.750          32.500  
  24879464.375 4      3764.160 4  -3732405.932 4  -2895580.76646  24879459.02046
        37.500          19.250  
  21560841.594 7     -1272.248 7   1231466.876 7    961045.93348  21560833.19148
        49.500          39.000  
  24415299.539 4     -1845.866 4   2156849.462 4   1674688.72546  24415291.37146
        38.000          19.500  
  20683366.891 7       550.196 7   -873899.982 7   -666441.98848  20683357.43448
        50.250          40.750  
  20556684.242 7       -22.882 7   -120767.025 7    -85243.98548  20556674.08248
        50.000          41.000  
  21992461.680 7      2115.326 7  -2832673.405 7  -2176436.01248  21992451.34448
        47.750          36.000  
  23699551.852 5     -3284.510 5   3937114.212 5   3047537.93846  23699543.80146
        42.000          25.000  
  24523629.063 5      1820.101 5  -3108570.618 5  -3026299.87246  24523623.82446
        40.750          20.250  
  23478019.406 6     -3609.625 6   4583287.400 6   3544076.95347  23478013.99247
        45.250          30.000  
  24700968.586 3     -2727.082 3   1091764.764 3   1400494.83145  24700961.88345
        37.000          16.750  
 11  3 23 16  6  0.0000000  0 12G03G06G14G15G16G18G21G22G26G27G29G30
  22776640.813 6      2373.267 6  -3357628.620 6  -2575283.86147  22776632.23447
        44.750          28.500  
  22526566.992 6      1952.343 6  -2793834.252 6  -2145853.24947  22526559.17647
        44.750          33.000  
  24868719.398 4      3764.236 4  -3788869.471 4  -2939578.33346  24868713.86746
        37.750          19.250  
  21564499.750 7     -1281.562 7   1250690.301 7    976025.20248  21564491.11348
        50.000          39.000  
  24420584.234 4     -1851.341 4   2184619.582 4   1696327.72246  24420575.83246
        38.500          19.750  
  20681811.258 7       545.021 7   -882075.294 7   -672812.36148  20681801.74248
        50.250          41.000  
  20556763.984 7       -28.102 7   -120345.498 7    -84915.53348  20556754.29348
        49.500          41.000  
  21986436.953 7      2110.913 7  -2864337.107 7  -2201109.01548  21986426.03148
        48.250          36.250  
  23708945.273 5     -3291.132 5   3986481.196 5   3086005.67546  23708938.39546
        40.750          23.000  
  24518446.172 5      1815.938 5  -3135809.687 5  -3047525.02646  24518440.58246
        40.250          20.500  
  23488330.141 6     -3612.235 6   4637470.923 6   3586297.81247  23488325.19547
        44.250          28.750  
  24708759.352 3     -2729.090 3   1132701.117 3   1432393.23245  24708752.29745
        37.000          16.250  
 11  3 23 16  6 15.0000000  0 12G03G06G14G15G16G18G21G22G26G27G29G30
  22769887.359 6      2365.711 6  -3393114.285 6  -2602935.03047  22769879.71947
        43.750          28.500  
  22521015.211 6      1945.053 6  -2823010.048 6  -2168587.63547  22521007.21947
        44.250          32.500  
  24857973.609 3      3764.271 3  -3845333.542 3  -2983576.33346  24857969.01646
        37.250          19.000  
  21568184.539 7     -1290.866 7   1270053.286 7    991113.22648  21568175.78548
        49.750          39.250  
  24425884.469 4     -1856.819 4   2212471.868 4   1718030.74846  24425875.77346
        38.000          19.250  
  20680270.734 7       539.849 7   -890173.026 7   -679122.28648  20680260.98448
        50.000          40.750  
  20556859.586 7       -33.356 7   -119845.165 7    -84525.67248  20556849.36748
        49.250          41.250  
  21980424.031 7      2106.484 7  -2895934.369 7  -2225730.25348  21980413.22748
        48.000          36.000  
  23718359.094 6     -3297.749 6   4035947.428 6   3124550.77446  23718351.39546
        42.750          25.000  
  24513273.773 5      1811.727 5  -3162985.599 5  -3068700.99546  24513268.88746
        40.000          19.750  
  23498649.031 6     -3614.852 6   4691693.710 6   3628549.26747  23498642.03547
        44.750          28.500  
  24716554.438 3     -2731.085 3   1173667.398 3   1464314.96445  24716548.26245
        36.000          16.250  
 11  3 23 16  6 30.0000000  0 12G03G06G14G15G16G18G21G22G26G27G29G30
  22763156.445 6      2358.157 6  -3428486.636 6  -2630497.90747  22763148.57047
        44.500          28.500  
  22515484.148 6      1937.755 6  -2852076.367 6  -2191236.72047  22515476.03947
        46.000          33.000  
  24847229.789 3      3764.294 3  -3901797.956 3  -3027574.57446  24847224.49246
        36.750          19.250  
  21571895.414 7     -1300.167 7   1289555.784 7   1006309.96548  21571887.07048
        49.750          39.000  
  24431200.258 4     -1862.259 4   2240405.753 4   1739797.39546  24431191.68046
        38.500          19.000  
  20678744.211 7       534.691 7   -898193.397 7   -685371.93048  20678734.81348
        50.500          41.000  
  20556969.742 7       -38.605 7   -119266.083 7    -84074.44848  20556959.58248
        50.250          41.250  
  21974424.039 7      2102.063 7  -2927465.309 7  -2250299.80848  21974413.29348
        48.500          36.500  
  23727790.695 5     -3304.315 5   4085512.158 5   3163172.57546  23727783.58246
        41.250          23.250  
  24508113.898 5      1807.504 5  -3190098.160 5  -3089827.57346  24508109.77346
        40.250          21.000  
  23508975.125 6     -3617.444 6   4745955.366 6   3670831.01047  23508968.48047
        44.250          28.250  
  24724355.461 3     -2733.052 3   1214663.184 3   1496259.73445  24724348.87545
        36.250          17.250  
 11  3 23 16  6 45.0000000  0 12G03G06G14G15G16G18G21G22G26G27G29G30
  22756446.727 6      2350.602 6  -3463745.667 6  -2657972.47247  22756439.02747
        44.500          28.500  
  22509973.633 6      1930.469 6  -2881033.403 6  -2213800.65647  22509965.64147
        45.000          33.500  
  24836484.977 4      3764.323 4  -3958262.794 4  -3071573.16746  24836479.79746
        37.500          19.250  
  21575633.367 7     -1309.413 7   1309196.978 7   1021614.77148  21575624.14548
        50.250          39.250  
  24436531.641 4     -1867.652 4   2268420.529 4   1761627.06245  24436523.00445
        38.500          18.250  
  20677232.625 7       529.560 7   -906136.803 7   -691561.59548  20677222.99248
        50.000          41.000  
  20557095.148 7       -43.836 7   -118608.545 7    -83562.09249  20557085.10549
        49.500          41.750  
  21968436.242 7      2097.658 7  -2958930.187 7  -2274817.88348  21968425.61348
        48.750          36.500  
  23737240.750 5     -3310.835 5   4135174.681 5   3201870.60746  23737233.52046
        42.000          24.750  
  24502967.039 5      1803.285 5  -3217147.433 5  -3110904.88946  24502961.91846
        40.250          19.500  
  23519307.250 6     -3619.980 6   4800255.072 6   3713142.40247  23519301.89547
        44.250          28.000  
  24732163.211 3     -2734.959 3   1255687.573 3   1528226.72645  24732156.21545
        37.000          17.750  
 11  3 23 16  7  0.0000000  0 12G03G06G14G15G16G18G21G22G26G27G29G30
  22749759.477 6      2342.996 6  -3498890.614 6  -2685358.14047  22749750.95747
        44.250          29.500  
  22504484.414 6      1923.143 6  -2909880.548 6  -2236278.95147  22504476.59847
        45.500          32.500  
  24825740.391 3      3764.305 3  -4014727.369 3  -3115571.54745  24825734.39145
        37.000          18.250  
  21579397.477 7     -1318.691 7   1328977.337 7   1037028.01848  21579388.72348
        50.000          38.750  
  24441877.883 4     -1873.052 4   2296516.307 4   1783519.83546  24441869.12946
        37.500          19.000  
  20675735.961 7       524.404 7   -914002.867 7   -697691.00348  20675726.15248
        50.500          41.000  
  20557235.109 7       -49.107 7   -117871.942 7    -82988.12149  20557225.00849
        49.500          41.750  
  21962461.586 7      2093.225 7  -2990328.554 7  -2299284.13648  21962450.78148
        48.000          36.250  
  23746710.328 5     -3317.358 5   4184935.053 5   3240644.88546  23746702.51246
        41.250          24.000  
  24497831.664 5      1799.023 5  -3244132.774 5  -3131932.31446  24497826.01646
        40.500          19.750  
  23529648.445 6     -3622.529 6   4854593.011 6   3755483.58547  23529642.32847
        43.500          26.750  
  24739974.805 4     -2736.871 4   1296740.635 4   1560216.08345  24739968.98045
        37.750          18.250  
 11  3 23 16  7 15.0000000  0 12G03G06G14G15G16G18G21G22G26G27G29G30
  22743093.156 6      2335.391 6  -3533921.478 6  -2712654.92247  22743085.28147
        44.750          29.500  
  22499016.203 6      1915.818 6  -2938617.825 6  -2258671.64447  22499007.74247
        46.500          32.750  
  24814994.531 3      3764.289 3  -4071191.705 3  -3159569.70445  24814990.05545
        36.750          18.250  
  21583187.867 7     -1327.928 7   1348896.263 7   1052549.24248  21583178.87948
        50.000          38.500  
  24447239.164 4     -1878.404 4   2324692.366 4   1805475.13946  24447230.64546
        38.250          19.500  
  20674253.609 7       519.277 7   -921792.028 7   -703760.47848  20674243.74248
        50.000          41.000  
  20557389.977 7       -54.356 7   -117056.600 7    -82352.81049  20557380.57849
        49.750          41.500  
  21956499.055 7      2088.816 7  -3021660.796 7  -2323698.85848  21956488.66048
        48.500          36.500  
  23756198.102 6     -3323.825 6   4234792.430 6   3279494.72746  23756191.34046
        43.500          25.750  
  24492708.969 5      1794.758 5  -3271054.145 5  -3152909.93746  24492703.78946
        40.500          20.000  
  23539995.453 6     -3625.028 6   4908968.431 6   3797853.97047  23539988.63347
        43.500          28.000  
  24747791.641 4     -2738.730 4   1337821.584 4   1592227.15946  24747786.40246
        37.500          19.250  
 11  3 23 16  7 30.0000000  0 12G03G06G14G15G16G18G21G22G26G27G29G30
  22736449.047 6      2327.779 6  -3568838.160 6  -2739862.74047  22736440.41047
        45.250          28.000  
  22493568.430 6      1908.488 6  -2967245.147 6  -2280978.65048  22493560.49648
        45.250          33.750  
  24804250.563 3      3764.262 3  -4127655.633 3  -3203567.51845  24804245.50045
        36.500          18.250  
  21587004.961 7     -1337.147 7   1368953.472 7   1068178.21648  21586996.26648
        49.500          38.750  
  24452616.148 4     -1883.726 4   2352948.259 4   1827492.70546  24452607.92246
        37.750          19.000  
  20672785.984 7       514.155 7   -929504.359 7   -709770.08748  20672776.52748
        50.250          40.500  
  20557560.430 7       -59.617 7   -116162.339 7    -81655.99648  20557550.50448
        49.500          41.000  
  21950549.313 7      2084.405 7  -3052926.873 7  -2348062.02148  21950538.85948
        48.250          36.000  
  23765703.055 5     -3330.273 5   4284746.526 5   3318419.96646  23765696.29346
        42.000          24.500  
  24487600.156 5      1790.471 5  -3297911.211 5  -3173837.44446  24487593.16046
        40.750          19.500  
  23550349.945 6     -3627.507 6   4963381.032 6   3840253.33247  23550343.24247
        43.500          27.250  
  24755614.750 4     -2740.562 4   1378930.020 4   1624259.64145  24755608.39845
        37.500          18.250  
 11  3 23 16  7 45.0000000  0 12G03G06G14G15G16G18G21G22G26G27G29G30
  22729826.250 6      2320.081 6  -3603639.375 6  -2766980.57247  22729817.73047
        44.000          28.750  
  22488141.766 6      1901.081 6  -2995761.364 6  -2303199.08947  22488133.89147
        45.500          33.000  
  24793505.766 3      3764.144 3  -4184117.791 3  -3247564.01545  24793500.41045
        37.000          18.500  
  21590847.727 7     -1346.398 7   1389149.438 7   1083915.31248  21590839.20748
        49.500          39.000  
  24458008.492 4     -1889.097 4   2381284.714 4   1849573.01345  24458000.26645
        38.500          17.750  
  20671332.984 7       508.985 7   -937139.133 7   -715719.26148  20671323.17648
        49.750          41.250  
  20557745.859 7       -64.940 7   -115188.243 7    -80896.97048  20557735.87548
        49.500          41.000  
  21944612.336 7      2079.942 7  -3084126.004 7  -2372373.02448  21944601.64848
        48.000          36.500  
  23775229.203 6     -3336.731 6   4334797.493 6   3357420.68647  23775221.68047
        42.500          26.500  
  24482500.398 5      1786.109 5  -3324702.851 5  -3194713.94646  24482494.22346
        41.000          19.500  
  23560711.508 6     -3630.032 6   5017831.515 6   3882682.21347  23560705.03947
        43.000          27.250  
  24763442.609 4     -2742.426 4   1420066.411 4   1656313.89346  24763436.84446
        37.500          20.250  
 11  3 23 16  8  0.0000000  0 12G03G06G14G15G16G18G21G22G26G27G29G30
  22723225.914 6      2312.444 6  -3638326.032 6  -2794009.14047  22723217.33647
        44.750          28.500  
  22482736.258 6      1893.723 6  -3024167.203 6  -2325333.51048  22482728.55948
        45.750          33.750  
  24782761.969 3      3764.078 3  -4240578.965 3  -3291559.68545  24782756.26245
        36.500          18.250  
  21594717.250 7     -1355.579 7   1409483.118 7   1099759.72148  21594708.55548
        50.000          39.000  
  24463416.008 4     -1894.375 4   2409700.340 4   1871715.01945  24463407.02045
        37.750          17.750  
  20669894.813 7       503.891 7   -944697.496 7   -721608.89848  20669885.06348
        50.250          41.000  
  20557945.750 7       -70.205 7   -114135.170 7    -80076.39948  20557936.11748
        47.750          40.750  
  21938687.391 7      2075.536 7  -3115259.038 7  -2396632.52048  21938677.23048
        48.500          37.000  
  23784771.148 5     -3343.114 5   4384944.206 5   3396495.98346  23784763.80146
        41.000          24.500  
  24477413.922 5      1781.783 5  -3351429.600 5  -3215539.93046  24477408.80146
        40.750          19.500  
  23571079.766 6     -3632.463 6   5072318.463 6   3925139.50447  23571073.64847
        44.000          27.750  
  24771275.891 4     -2744.194 4   1461229.323 4   1688388.85945  24771269.89145
        38.000          17.750  
 11  3 23 16  8 15.0000000  0 12G03G06G14G15G16G18G21G22G26G27G29G30
  22716647.094 6      2304.753 6  -3672897.323 6  -2820947.80147  22716638.45747
        45.000          28.000  
  22477351.930 6      1886.317 6  -3052461.962 6  -2347381.37548  22477343.99648
        45.000          34.000  
  24772017.633 3      3763.958 3  -4297038.329 3  -3335553.91945  24772011.86745
        36.500          16.250  
  21598612.969 7     -1364.780 7   1429954.823 7   1115711.67948  21598604.21548
        50.500          38.750  
  24468838.250 4     -1899.659 4   2438195.229 4   1893918.82745  24468829.67245
        37.750          17.250  
  20668471.063 7       498.771 7   -952179.058 7   -727438.68548  20668461.43048
        50.250          41.250  
  20558161.602 7       -75.522 7   -113002.334 7    -79193.68648  20558151.91048
        50.000          41.000  
  21932776.133 6      2071.102 6  -3146325.571 6  -2420840.19448  21932765.21148
        47.500          37.250  
  23794331.719 6     -3349.492 6   4435186.587 6   3435645.90246  23794324.13746
        43.250          25.250  
  24472340.898 5      1777.414 5  -3378090.813 5  -3236314.78146  24472334.54746
        41.250          20.000  
  23581454.914 6     -3634.904 6   5126842.017 6   3967625.32247  23581449.61747
        43.500          26.500  
  24779114.469 4     -2745.975 4   1502418.942 4   1720484.57545  24779108.23445
        38.000          18.500  
 11  3 23 16  8 30.0000000  0 12G03G06G14G15G16G18G21G22G26G27G29G30
  22710090.273 6      2297.023 6  -3707352.663 6  -2847796.12347  22710081.75447
        44.750          28.500  
  22471988.656 6      1878.884 6  -3080645.226 6  -2369342.36248  22471981.01648
        44.750          33.750  
  24761274.508 3      3763.811 3  -4353495.487 3  -3379546.49845  24761268.97745
        36.500          16.750  
  21602534.648 7     -1373.983 7   1450564.562 7   1131771.19948  21602526.42248
        50.500          38.500  
  24474276.297 3     -1904.932 3   2466769.203 3   1916184.18145  24474267.13345
        36.750          18.250  
  20667061.883 7       493.637 7   -959583.616 7   -733208.47048  20667052.36748
        49.750          41.000  
  20558392.234 7       -80.841 7   -111789.722 7    -78248.80648  20558382.48448
        49.500          41.000  
  21926877.063 7      2066.654 7  -3177325.382 7  -2444995.88148  21926866.14148
        47.750          37.000  
  23803909.375 5     -3355.860 5   4485524.491 5   3474870.13246  23803904.07846
        42.000          24.750  
  24467277.828 4      1772.994 4  -3404685.730 4  -3257038.05746  24467273.87946
        38.250          19.250  
  23591838.117 6     -3637.340 6   5181402.121 6   4010139.62147  23591831.70747
        43.000          27.250  
  24786957.023 4     -2747.735 4   1543634.970 4   1752600.92846  24786951.37546
        38.500          20.000  
 11  3 23 16  8 45.0000000  0 12G03G06G14G15G16G18G21G22G26G27G29G30
  22703555.609 6      2289.295 6  -3741692.087 6  -2874554.12347  22703547.61747
        44.500          27.500  
  22466647.477 6      1871.449 6  -3108716.957 6  -2391216.44947  22466639.30947
        45.250          33.500  
  24750531.148 3      3763.661 3  -4409950.408 3  -3423537.34945  24750526.37945
        36.000          16.750  
  21606482.438 7     -1383.146 7   1471311.756 7   1147937.82248  21606474.03548
        50.000          38.250  
  24479727.922 3     -1910.160 3   2495421.598 3   1938510.73245  24479718.75845
        36.500          16.750  
  20665667.641 7       488.521 7   -966911.430 7   -738918.46348  20665657.65648
        50.500          40.750  
  20558638.320 7       -86.165 7   -110497.248 7    -77241.69348  20558628.33648
        50.000          41.000  
  21920990.570 7      2062.220 7  -3208258.675 7  -2469099.73848  21920979.94148
        48.500          37.000  
  23813507.961 6     -3362.174 6   4535957.097 6   3514168.28246  23813499.38346
        43.250          24.000  
  24462230.500 5      1768.579 5  -3431214.418 5  -3277709.71446  24462225.61346
        40.500          19.250  
  23602227.141 6     -3639.745 6   5235998.290 6   4052681.98047  23602221.25847
        43.250          26.500  
  24794806.031 5     -2749.457 5   1584876.829 5   1784737.37646  24794799.38746
        39.500          21.000  
 11  3 23 16  9  0.0000000  0 12G03G06G14G15G16G18G21G22G26G27G29G30
  22697042.977 6      2281.571 6  -3775915.646 6  -2901221.84147  22697035.33647
        44.500          28.000  
  22461326.609 6      1864.016 6  -3136677.194 6  -2413003.64947  22461318.61747
        45.750          33.000  
  24739788.813 3      3763.501 3  -4466402.929 3  -3467526.30445  24739782.75445
        36.500          16.750  
  21610456.938 7     -1392.289 7   1492196.084 7   1164211.31248  21610448.41848
        50.250          39.000  
  24485194.930 3     -1915.357 3   2524151.958 3   1960897.99445  24485186.17645
        36.250          16.250  
  20664287.742 7       483.432 7   -974162.911 7   -744568.96948  20664278.22748
        50.250          41.000  
  20558899.727 7       -91.477 7   -109125.090 7    -76172.48749  20558889.62549
        49.000          41.500  
  21915116.844 6      2057.795 6  -3239125.599 6  -2493151.86948  21915105.86348
        47.500          37.000  
  23823122.789 6     -3368.458 6   4586483.961 6   3553539.76847  23823116.78947
        42.500          26.500  
  24457195.008 5      1764.153 5  -3457676.707 5  -3298329.63746  24457190.12146
        39.750          19.250  
  23612623.594 6     -3642.098 6   5290629.761 6   4095251.93247  23612617.35947
        43.500          26.750  
  24802658.414 5     -2751.120 5   1626143.631 5   1816893.30846  24802652.12146
        39.250          20.750  
 11  3 23 16  9 15.0000000  0 12G03G06G14G15G16G18G21G22G26G27G29G30
  22690552.445 6      2273.822 6  -3810022.983 6  -2927798.98047  22690544.92247
        44.750          28.250  
  22456027.273 6      1856.569 6  -3164525.725 6  -2434703.80948  22456018.81348
        46.250          34.000  
  24729046.344 3      3763.312 3  -4522852.603 3  -3511512.98145  24729041.04745
        36.500          16.250  
  21614457.297 7     -1401.421 7   1513217.403 7   1180591.53748  21614448.77748
        50.000          38.500  
  24490677.555 3     -1920.537 3   2552960.008 3   1983345.72745  24490668.68445
        35.750          17.250  
  20662922.656 7       478.339 7   -981338.002 7   -750159.94549  20662912.78949
        50.500          41.500  
  20559175.664 7       -96.793 7   -107673.198 7    -75041.15449  20559165.73849
        48.500          41.500  
  21909255.547 7      2053.366 7  -3269926.091 7  -2517152.23948  21909245.09448
        48.000          36.750  
  23832756.719 6     -3374.704 6   4637104.523 6   3592984.33446  23832748.25846
        43.750          24.500  
  24452172.711 5      1759.707 5  -3484072.305 5  -3318897.59046  24452166.71146
        39.500          19.750  
  23623025.469 6     -3644.448 6   5345296.481 6   4137849.30147  23623020.34847
        43.250          27.250  
  24810515.586 5     -2752.773 5   1667435.228 5   1849068.50846  24810509.93846
        40.500          22.000  
 11  3 23 16  9 30.0000000  0 12G03G06G14G15G16G18G21G22G26G27G29G30
  22684084.891 6      2266.031 6  -3844013.452 6  -2954285.07547  22684076.48847
        43.750          28.500  
  22450748.953 6      1849.076 6  -3192261.865 6  -2456316.39347  22450741.02047
        46.000          33.000  
  24718305.219 3      3763.077 3  -4579298.759 3  -3555496.93445  24718299.68845
        36.750          16.250  
  21618483.516 7     -1410.559 7   1534375.785 7   1197078.56448  21618475.05548
        50.000          39.000  
  24496173.898 2     -1925.702 2   2581845.533 2   2005853.91245  24496164.79345
        35.000          16.750  
  20661571.719 7       473.229 7   -988436.444 7   -755691.20648  20661562.08648
        50.750          41.000  
  20559467.266 7      -102.151 7   -106140.926 7    -73847.19648  20559457.04748
        48.750          41.250  
  21903407.266 7      2048.906 7  -3300659.675 7  -2541100.47748  21903396.46148
        47.750          36.500  
  23842406.477 6     -3380.959 6   4687818.911 6   3632502.00546  23842398.77746
        43.000          24.000  
  24447163.102 5      1755.216 5  -3510400.538 5  -3339413.00346  24447157.04346
        40.500          20.250  
  23633435.813 6     -3646.801 6   5399998.491 6   4180474.18146  23633429.93046
        43.000          26.000  
  24818378.406 5     -2754.422 5   1708751.565 5   1881263.01346  24818372.52346
        40.250          22.500  
 11  3 23 16  9 45.0000000  0 12G03G06G14G15G16G18G21G22G26G27G29G30
  22677638.273 6      2258.244 6  -3877887.107 6  -2980680.12647  22677630.34047
        43.750          28.000  
  22445492.414 6      1841.594 6  -3219885.776 6  -2477841.52047  22445484.30547
        45.750          33.250  
  24707564.438 3      3762.858 3  -4635741.625 3  -3599478.32345  24707558.90645
        37.000          16.250  
  21622535.773 7     -1419.656 7   1555670.618 7   1213671.92448  21622527.37148
        49.500          38.750  
  24501685.234 2     -1930.837 2   2610808.094 2   2028422.09245  24501676.12945
        35.500          16.750  
  20660235.383 7       468.154 7   -995458.755 7   -761163.14248  20660225.75048
        50.000          40.500  
  20559774.406 7      -107.484 7   -104528.660 7    -72590.89649  20559764.18849
        49.000          41.500  
  21897571.297 6      2044.486 6  -3331326.961 6  -2564997.04548  21897561.31348
        45.750          36.750  
  23852074.727 5     -3387.157 5   4738626.261 5   3672092.10846  23852068.43446
        41.500          25.750  
  24442165.727 5      1750.724 5  -3536661.403 5  -3359875.98546  24442160.13746
        40.250          19.750  
  23643851.773 6     -3649.099 6   5454734.983 6   4223125.90646  23643845.94946
        42.500          25.750  
  24826245.281 5     -2756.012 5   1750091.751 5   1913476.10146  24826238.98846
        40.500          22.500  
 11  3 23 16 10  0.0000000  0 12G03G06G14G15G16G18G21G22G26G27G29G30
  22671214.641 6      2250.415 6  -3911643.332 6  -3006983.68847  22671206.59047
        44.000          28.500  
  22440257.031 6      1834.080 6  -3247396.969 6  -2499278.81748  22440248.92248
        46.500          34.000  
  24696824.914 4      3762.599 4  -4692180.608 4  -3643456.67645  24696818.62145
        37.500          16.250  
  21626614.242 7     -1428.762 7   1577102.045 7   1230371.71848  21626605.60548
        49.500          39.000  
  24507211.492 3     -1935.956 3   2639847.432 3   2051050.15545  24507202.56345
        36.000          14.750  
  20658913.586 7       463.064 7  -1002404.714 7   -766575.57348  20658903.83648
        50.250          41.000  
  20560096.336 7      -112.855 7   -102835.840 7    -71271.82349  20560086.46949
        50.250          41.500  
  21891748.086 6      2040.036 6  -3361927.500 6  -2588841.60948  21891737.39848
        47.000          37.000  
  23861760.164 5     -3393.347 5   4789526.470 5   3711754.56646  23861753.40246
        40.750          22.500  
  24437181.086 5      1746.188 5  -3562854.228 5  -3380285.97446  24437175.26246
        40.500          19.750  
  23654274.172 6     -3651.400 6   5509505.983 6   4265804.55147  23654268.69947
        42.750          28.500  
  24834116.391 5     -2757.595 5   1791455.684 5   1945707.69046  24834110.33246
        40.750          22.250  
 11  3 23 16 10 15.0000000  0 12G03G06G14G15G16G18G21G22G26G27G29G30
  22664814.164 6      2242.569 6  -3945281.872 6  -3033195.53947  22664805.23447
        44.500          27.750  
  22435043.625 6      1826.553 6  -3274795.266 6  -2520628.15347  22435035.51647
        46.000          33.000  
  24686086.125 4      3762.321 4  -4748615.429 4  -3687431.81445  24686079.01245
        37.500          17.250  
  21630718.102 7     -1437.845 7   1598669.719 7   1247177.67748  21630710.16848
        50.500          38.750  
  24512752.914 3     -1941.048 3   2668963.147 3   2073737.62145  24512743.28145
        35.750          14.750  
  20657606.313 7       457.976 7  -1009274.359 7   -771928.54648  20657596.38748
        50.500          41.250  
  20560433.773 7      -118.231 7   -101062.382 7    -69889.92048  20560423.43848
        50.000          41.250  
  21885938.047 6      2035.591 6  -3392461.370 6  -2612634.21848  21885927.24248
        47.500          36.500  
  23871463.352 5     -3399.492 5   4840518.852 5   3751488.86146  23871457.00046
        41.000          24.250  
  24432210.359 5      1741.639 5  -3588978.814 5  -3400642.74346  24432203.07046
        39.500          19.250  
  23664703.766 6     -3653.684 6   5564311.249 6   4308509.87947  23664698.00047
        43.500          28.500  
  24841991.555 5     -2759.158 5   1832843.055 5   1977957.54646  24841986.49246
        40.250          21.250  
 11  3 23 16 10 30.0000000  0 12G03G06G14G15G16G18G21G22G26G27G29G30
  22658434.672 6      2234.725 6  -3978802.742 6  -3059315.69547  22658426.73847
        43.750          28.000  
  22429850.992 6      1819.031 6  -3302080.727 6  -2541889.55748  22429842.88348
        46.000          33.750  
  24675346.766 4      3762.039 4  -4805046.017 4  -3731403.69645  24675340.94145
        38.250          16.750  
  21634848.125 7     -1446.905 7   1620373.292 7   1264089.52448  21634840.01648
        50.250          38.500  
  24518307.508 2     -1946.111 2   2698154.809 2   2096484.35745  24518298.16845
        35.500          15.500  
  20656313.398 7       452.914 7  -1016068.074 7   -777222.34448  20656303.41448
        49.750          41.000  
  20560786.484 7      -123.592 7    -99208.497 7    -68445.34249  20560776.73449
        49.750          41.500  
  21880140.164 6      2031.156 6  -3422928.708 6  -2636374.99248  21880129.59448
        47.250          37.000  
  23881184.695 5     -3405.616 5   4891603.099 5   3791294.67846  23881178.81346
        41.500          24.500  
  24427252.406 5      1737.080 5  -3615035.014 5  -3420946.22546  24427245.93846
        41.000          19.250  
  23675138.547 6     -3655.927 6   5619150.153 6   4351241.41547  23675133.54347
        44.500          30.000  
  24849872.172 5     -2760.673 5   1874253.152 5   2010225.11446  24849866.34846
        40.250          22.750  
 11  3 23 16 10 45.0000000  0 12G03G06G14G15G16G18G21G22G26G27G29G30
  22652078.852 6      2226.851 6  -4012205.501 6  -3085343.81647  22652070.21547
        43.250          28.250  
  22424680.383 6      1811.492 6  -3329253.101 6  -2563062.83947  22424672.62547
        46.500          33.500  
  24664609.242 4      3761.727 4  -4861471.915 4  -3775371.80445  24664603.12545
        38.750          16.250  
  21639004.664 7     -1455.958 7   1642212.655 7   1281107.19448  21638995.61748
        50.000          38.750  
  24523877.172 2     -1951.155 2   2727422.127 2   2119290.02745  24523867.30545
        35.000          15.500  
  20655035.063 7       447.851 7  -1022785.835 7   -782456.96848  20655025.13748
        50.000          41.000  
  20561154.563 7      -128.973 7    -97273.908 7    -66937.88448  20561144.63748
        50.250          41.000  
  21874355.469 7      2026.716 7  -3453329.452 7  -2660063.86648  21874344.54748
        48.000          37.500  
  23890922.813 5     -3411.704 5   4942778.656 5   3831171.70546  23890915.93446
        40.750          22.750  
  24422305.438 4      1732.492 4  -3641022.388 4  -3441196.11545  24422300.25845
        39.000          17.750  
  23685580.602 6     -3658.155 6   5674022.477 6   4393999.00847  23685575.12947
        43.250          29.250  
  24857756.500 5     -2762.172 5   1915685.732 5   2042510.18346  24857750.91046
        40.250          22.750  
 11  3 23 16 11  0.0000000  0 12G03G06G14G15G16G18G21G22G26G27G29G30
  22645744.797 6      2218.972 6  -4045490.081 6  -3111279.85547  22645736.68847
        43.750          28.500  
  22419531.469 6      1803.915 6  -3356311.829 6  -2584147.56748  22419523.41848
        46.000          34.000  
  24653872.508 4      3761.398 4  -4917892.891 4  -3819336.12845  24653866.27345
        39.000          16.750  
  21643186.211 7     -1464.995 7   1664187.583 7   1298230.49548  21643177.45748
        49.750          38.500  
  24529461.023 2     -1956.170 2   2756764.682 2   2142154.34945  24529451.50845
        35.250          16.250  
  20653771.109 7       442.788 7  -1029427.656 7   -787632.41749  20653761.59449
        50.000          41.500  
  20561538.234 7      -134.362 7    -95258.484 7    -65367.44248  20561528.60248
        50.000          40.750  
  21868582.570 7      2022.269 7  -3483663.482 7  -2683700.76148  21868572.23448
        48.500          37.500  
  23900680.344 6     -3417.773 6   4994045.254 6   3871119.65046  23900672.35246
        43.000          24.500  
  24417373.664 5      1727.891 5  -3666940.759 5  -3461392.18545  24417368.25045
        39.500          18.500  
  23696029.758 6     -3660.366 6   5728927.972 6   4436782.43647  23696024.16847
        44.750          29.000  
  24865644.992 5     -2763.639 5   1957140.315 5   2074812.39246  24865639.05146
        40.750          23.000  
 11  3 23 16 11 15.0000000  0 12G03G06G14G15G16G18G21G22G26G27G29G30
  22639434.117 6      2211.045 6  -4078655.763 6  -3137123.24647  22639426.06647
        44.000          28.500  
  22414403.797 6      1796.312 6  -3383256.514 6  -2605143.42847  22414396.09847
        46.000          33.500  
  24643136.820 4      3761.025 4  -4974308.263 4  -3863296.07245  24643131.34845
        39.000          16.750  
  21647393.820 7     -1474.037 7   1686298.130 7   1315459.47748  21647384.83248
        50.000          38.750  
  24535058.820 2     -1961.197 2   2786182.638 2   2165077.37045  24535050.00845
        35.000          14.750  
  20652521.734 7       437.707 7  -1035993.258 7   -792748.46448  20652512.21948
        50.250          40.500  
  20561937.469 7      -139.778 7    -93161.819 7    -63733.68749  20561927.42649
        51.000          41.500  
  21862823.227 7      2017.797 7  -3513930.431 7  -2707285.39048  21862812.53948
        48.500          37.500  
  23910452.266 5     -3423.836 5   5045402.800 5   3911138.48446  23910445.44546
        41.500          22.750  
  24412453.867 5      1723.236 5  -3692789.306 5  -3481533.89246  24412449.09846
        39.750          19.500  
  23706483.680 6     -3662.589 6   5783866.805 6   4479591.86047  23706478.26647
        44.000          29.750  
  24873538.555 5     -2765.110 5   1998616.968 5   2107131.83146  24873532.67246
        40.500          23.500  
 11  3 23 16 11 30.0000000  0 12G03G06G14G15G16G18G21G22G26G27G29G30
  22633145.047 6      2203.118 6  -4111702.537 6  -3162873.97647  22633136.93847
        43.500          28.250  
  22409298.063 6      1788.718 6  -3410087.279 6  -2626050.52347  22409290.24647
        46.500          33.500  
  24632401.953 4      3760.644 4  -5030717.922 4  -3907251.57445  24632396.07045
        38.250          16.750  
  21651626.539 7     -1483.048 7   1708543.844 7   1332793.78348  21651618.25448
        49.500          38.750  
  24540671.102 2     -1966.169 2   2815675.174 2   2188058.53545  24540662.40645
        35.000          14.750  
  20651287.039 7       432.660 7  -1042483.156 7   -797805.53048  20651277.23048
        50.250          40.250  
  20562351.547 7      -145.186 7    -90984.030 7    -62036.72548  20562341.91448
        50.500          40.500  
  21857076.531 7      2013.346 7  -3544130.623 7  -2730817.99448  21857065.66848
        47.750          37.000  
  23920243.320 5     -3429.847 5   5096850.505 5   3951227.57746  23920235.27046
        41.500          21.500  
  24407547.617 4      1718.579 4  -3718567.991 4  -3501621.15346  24407543.37546
        38.250          19.250  
  23716944.367 6     -3664.753 6   5838838.099 6   4522426.56647  23716938.77747
        44.500          29.500  
  24881434.883 5     -2766.529 5   2040114.896 5   2139467.83346  24881429.11746
        40.250          22.500  
 11  3 23 16 11 45.0000000  0 12G03G06G14G15G16G18G21G22G26G27G29G30
  22626878.867 6      2195.187 6  -4144630.336 6  -3188532.00047  22626871.63747
        44.000          28.000  
  22404214.016 6      1781.119 6  -3436804.057 6  -2646868.79947  22404206.19947
        46.750          33.500  
  24621668.813 4      3760.260 4  -5087121.819 4  -3951202.64445  24621663.69145
        38.500          18.250  
  21655885.852 7     -1492.028 7   1730924.272 7   1350233.05248  21655877.21548
        50.000          38.500  
  24546297.188 1     -1971.115 1   2845241.893 1   2211097.50045  24546288.37545
        33.750          15.500  
  20650066.266 7       427.619 7  -1048897.445 7   -802803.68348  20650056.51648
        50.250          41.000  
  20562781.609 7      -150.598 7    -88725.059 7    -60276.49548  20562771.85948
        50.000          40.500  
  21851341.617 7      2008.905 7  -3574264.196 7  -2754298.69048  21851331.39848
        48.750          37.500  
  23930049.352 5     -3435.826 5   5148387.896 5   3991386.53646  23930043.05946
        41.500          22.500  
  24402658.242 5      1713.908 5  -3744276.608 5  -3521653.78246  24402651.36346
        40.750          19.250  
  23727411.258 6     -3666.896 6   5893841.539 6   4565286.31047  23727405.66847
        44.500          29.750  
  24889335.961 5     -2767.914 5   2081633.604 5   2171820.02946  24889329.78546
        40.750          22.750  
 11  3 23 16 12  0.0000000  0 12G03G06G09G14G15G16G18G21G22G26G27G29
  22620635.938 6      2187.295 6  -4177439.753 6  -3214097.77247  22620627.30147
        43.500          28.250  
  22399152.188 6      1773.555 6  -3463407.388 6  -2667598.67448  22399143.78548
        46.750          34.000  
  24944564.35215      3012.25015   -679808.33315                
        39.500  
  24610936.211 4      3759.908 4  -5143520.434 4  -3995149.53545  24610930.91445
        39.000          17.750  
  21660170.133 7     -1500.953 7   1753438.560 7   1367776.64048  21660161.26248
        49.250          38.250  
  24551937.570 2     -1975.976 2   2874881.532 2   2234193.28545  24551928.34845
        35.000          16.250  
  20648860.164 7       422.635 7  -1055236.963 7   -807743.56049  20648850.00449
        49.500          41.500  
  20563226.922 7      -155.952 7    -86385.774 7    -58453.68748  20563216.76248
        49.750          41.000  
  21845620.117 7      2004.524 7  -3604332.056 7  -2777728.17648  21845609.31348
        48.500          37.750  
  23939873.516 5     -3441.709 5   5200013.535 5   4031614.23646  23939866.52046
        40.250          22.500  
  24397777.766 5      1709.281 5  -3769915.820 5  -3541632.35045  24397772.64545
        39.250          17.750  
  23737883.477 6     -3668.960 6   5948875.938 6   4608170.19347  23737878.29747
        44.750          30.250  
 11  3 23 16 12 15.0000000  0 12G03G06G09G14G15G16G18G21G22G26G27G29
  22614415.406 6      2179.245 6  -4210128.435 6  -3239569.47747  22614406.94547
        43.250          29.000  
  22394111.500 6      1765.852 6  -3489895.167 6  -2688238.50547  22394103.39147
        46.500          33.500  
  24935968.563 4      3011.659 4   -724983.218 4   -541997.74056  24935965.31656
        39.000          20.250  
  24600205.609 4      3759.399 4  -5199911.425 4  -4039090.50745  24600200.60545
        38.750          18.500  
  21664479.758 7     -1509.984 7   1776088.327 7   1385425.79648  21664471.53148
        49.250          38.500  
  24557591.438 3     -1980.952 3   2904595.809 3   2257347.23045  24557582.56645
        35.750          16.750  
  20647668.164 7       417.533 7  -1061499.960 7   -812623.82348  20647658.29748
        49.500          40.750  
  20563687.828 7      -161.448 7    -83964.053 7    -56566.64548  20563677.90248
        50.000          41.000  
  21839911.195 7      2000.000 7  -3634332.058 7  -2801104.79548  21839900.85948
        48.500          37.500  
  23949713.703 5     -3447.700 5   5251729.034 5   4071912.01846  23949707.82046
        40.250          22.000  
  24392912.180 5      1704.498 5  -3795483.288 5  -3561554.98346  24392907.35246
        39.500          19.250  
  23748363.180 6     -3671.142 6   6003943.061 6   4651079.57347  23748357.88347
        44.500          29.500  
 11  3 23 16 12 30.0000000  0 12G03G06G09G14G15G16G18G21G22G26G27G29
  22608217.875 6      2171.195 6  -4242696.355 6  -3264947.07347  22608209.47347
        44.250          29.000  
  22389092.680 6      1758.139 6  -3516267.246 6  -2708788.18447  22389084.45347
        46.500          33.250  
  24927373.406 4      3010.421 4   -770139.539 4   -577184.36646  24927371.74246
        38.000          19.000  
  24589476.031 5      3758.889 5  -5256294.756 5  -4083025.50345  24589471.26245
        39.750          17.750  
  21668815.781 7     -1518.992 7   1798873.211 7   1403180.22848  21668807.49648
        49.500          39.000  
  24563260.953 2     -1985.898 2   2934384.281 2   2280558.99845  24563251.61345
        35.000          15.500  
  20646490.563 7       412.451 7  -1067686.722 7   -817444.66948  20646480.87148
        50.000          40.750  
  20564164.023 7      -166.944 7    -81459.895 7    -54615.36949  20564154.03949
        50.250          41.750  
  21834215.320 7      1995.488 7  -3664264.373 7  -2824428.66748  21834204.63348
        48.000          37.250  
  23959573.039 5     -3453.673 5   5303534.128 5   4112279.50346  23959566.45346
        40.750          22.250  
  24388059.852 5      1699.699 5  -3820978.776 5  -3581421.55546  24388055.43446
        39.250          19.000  
  23758848.344 6     -3673.280 6   6059042.263 6   4694013.94847  23758842.52047
        44.250          30.000  
 11  3 23 16 12 45.0000000  0 12G03G06G09G14G15G16G18G21G22G26G27G29
  22602043.047 6      2163.213 6  -4275144.551 6  -3290231.38347  22602034.93847
        44.000          27.750  
  22384096.141 6      1750.510 6  -3542524.901 6  -2729248.70348  22384088.26648
        46.500          33.750  
  24918784.695 4      3009.238 4   -815278.108 4   -612357.23046  24918781.85946
        38.500          19.000  
  24578748.758 4      3758.453 4  -5312671.545 4  -4126955.43246  24578742.75846
        38.750          19.500  
  21673177.328 7     -1527.892 7   1821791.596 7   1421038.69148  21673168.63348
        49.250          39.000  
  24568942.961 1     -1990.710 1   2964244.927 1   2303827.05645  24568934.03145
        33.500          16.750  
  20645327.625 7       407.466 7  -1073798.705 7   -822207.26048  20645318.05148
        49.500          41.250  
  20564656.148 7      -172.334 7    -78874.883 7    -52601.08148  20564646.28148
        50.000          41.250  
  21828532.070 7      1991.078 7  -3694130.537 7  -2847700.99248  21828521.26648
        48.250          37.500  
  23969448.688 5     -3459.496 5   5355426.571 5   4152715.18746  23969440.52046
        41.000          21.750  
  24383221.141 4      1694.972 4  -3846403.363 4  -3601232.83646  24383217.13346
        39.000          19.250  
  23769339.039 6     -3675.314 6   6114171.978 6   4736972.10147  23769333.68447
        44.000          29.750  
 11  3 23 16 13  0.0000000  0 12G03G06G09G14G15G16G18G21G22G26G27G29
  22595891.117 6      2155.144 6  -4307471.708 6  -3315421.37847  22595883.30147
        43.500          28.000  
  22379121.680 6      1742.798 6  -3568666.878 6  -2749619.07947  22379112.92647
        46.750          33.500  
  24910199.547 5      3007.978 5   -860397.782 5   -647515.29846  24910195.36346
        40.250          19.750  
  24568021.797 5      3757.928 5  -5369040.464 5  -4170879.23346  24568015.91446
        40.000          19.750  
  21677563.844 6     -1536.836 6   1844844.141 6   1439001.69648  21677555.67648
        47.250          38.750  
  24574638.688 1     -1995.574 1   2994178.533 1   2327151.83545  24574630.57845
        33.500          13.750  
  20644178.844 7       402.401 7  -1079834.720 7   -826910.64948  20644169.32848
        47.750          40.500  
  20565163.586 7      -177.834 7    -76207.376 7    -50522.52049  20565153.71949
        50.500          41.500  
  21822861.781 7      1986.594 7  -3723929.441 7  -2870920.91348  21822851.15248
        48.500          37.750  
  23979340.516 5     -3465.372 5   5407407.153 5   4193219.45946  23979332.64146
        41.500          21.750  
  24378397.688 5      1690.157 5  -3871755.712 5  -3620987.85846  24378393.03546
        39.750          19.500  
  23779836.008 6     -3677.390 6   6169332.825 6   4779954.50347  23779830.12547
        43.750          29.000  
 11  3 23 16 13 15.0000000  0 12G03G06G09G14G15G16G18G21G22G26G27G29
  22589762.984 6      2147.139 6  -4339678.797 6  -3340517.81847  22589754.64147
        43.750          28.250  
  22374168.563 6      1735.131 6  -3594693.849 6  -2769899.84047  22374160.51247
        47.000          33.000  
  24901617.922 5      3006.743 5   -905498.932 5   -682658.94746  24901612.85946
        40.500          19.750  
  24557296.883 5      3757.449 5  -5425402.201 5  -4214797.42846  24557290.88346
        40.000          19.750  
  21681976.297 7     -1545.703 7   1868029.687 7   1457068.34248  21681967.54348
        49.250          38.750  
  24580349.320 2     -2000.353 2   3024183.832 2   2350532.50245  24580340.27345
        34.000          14.750  
  20643044.523 7       397.426 7  -1085796.112 7   -831555.88948  20643034.53948
        49.750          40.500  
  20565687.063 7      -183.263 7    -73458.430 7    -48380.49049  20565676.72749
        50.250          41.500  
  21817203.211 7      1982.174 7  -3753662.046 7  -2894089.17648  21817193.10948
        48.500          37.750  
  23989248.773 5     -3471.157 5   5459474.507 5   4233791.40546  23989240.95746
        41.500          20.750  
  24373588.219 5      1685.386 5  -3897036.509 5  -3640687.08646  24373582.27746
        39.250          19.750  
  23790337.875 6     -3679.377 6   6224523.479 6   4822960.14447  23790332.63747
        43.500          29.750  
 11  3 23 16 13 30.0000000  0 12G03G06G09G14G15G16G18G21G22G26G27G29
  22583656.508 6      2139.058 6  -4371764.670 6  -3365519.79047  22583648.51647
        43.500          28.500  
  22369237.930 6      1727.396 6  -3620604.795 6  -2790090.19748  22369229.99648
        46.000          34.000  
  24893037.867 4      3005.434 4   -950580.438 4   -717787.34846  24893033.50846
        39.000          19.750  
  24546573.297 4      3756.889 4  -5481755.538 4  -4258709.09646  24546567.23846
        39.000          19.750  
  21686413.453 7     -1554.622 7   1891349.020 7   1475239.23348  21686405.22748
        49.250          38.750  
  24586072.375 1     -2005.152 1   3054261.105 1   2373969.38645  24586063.09445
        32.500          14.750  
  20641924.555 7       392.397 7  -1091682.073 7   -836142.35348  20641914.45348
        49.250          40.500  
  20566225.602 7      -188.751 7    -70627.162 7    -46174.31749  20566215.85249
        50.500          41.750  
  21811558.391 7      1977.689 7  -3783327.375 7  -2917204.99948  21811548.05548
        48.250          37.000  
  23999172.852 5     -3476.962 5   5511628.936 5   4274431.21646  23999165.09446
        40.250          19.750  
  24368789.680 3      1680.538 3  -3922244.582 3  -3660329.62046  24368784.85246
        36.000          20.000  
  23800846.758 6     -3681.410 6   6279744.634 6   4865989.54147  23800841.40247
        43.750          29.250  
 11  3 23 16 13 45.0000000  0 12G03G06G09G14G15G16G18G21G22G26G27G29
  22577573.906 6      2130.967 6  -4403729.169 6  -3390427.18547  22577565.97347
        44.500          28.000  
  22364329.594 6      1719.664 6  -3646399.758 6  -2810190.17147  22364321.07447
        46.000          33.000  
  24884463.828 4      3004.089 4   -995641.774 4   -752900.09646  24884459.05946
        38.500          19.000  
  24535850.688 5      3756.318 5  -5538100.310 5  -4302614.07746  24535845.21546
        40.250          21.000  
  21690876.367 7     -1563.506 7   1914801.616 7   1493513.96448  21690867.90648
        48.000          38.500  
  24591809.57011     -2009.95011    -66429.88111                
        31.000  
  20640818.609 7       387.393 7  -1097492.961 7   -840670.31448  20640808.85948
        48.000          41.000  
  20566779.961 7      -194.240 7    -67713.556 7    -43903.99248  20566769.97748
        50.250          41.000  
  21805925.906 7      1973.217 7  -3812925.632 7  -2940268.57548  21805915.27748
        48.500          38.000  
  24009113.703 5     -3482.737 5   5563869.988 5   4315138.46846  24009106.12146
        41.500          20.250  
  24364007.055 4      1675.673 4  -3947379.683 4  -3679915.29446  24364001.99246
        38.250          20.000  
  23811360.703 6     -3683.405 6   6334995.713 6   4909042.25947  23811355.05547
        43.000          28.750  
 11  3 23 16 14  0.0000000  0 12G03G06G09G14G15G16G18G21G22G26G27G29
  22571514.039 6      2122.857 6  -4435572.023 6  -3415239.79047  22571506.86747
        44.750          28.000  
  22359443.289 6      1711.905 6  -3672078.330 6  -2830199.45747  22359434.71147
        46.000          32.750  
  24875892.008 4      3002.743 4  -1040682.923 4   -787996.97246  24875887.76646
        39.000          19.500  
  24525130.531 4      3755.722 4  -5594436.135 4  -4346512.06546  24525125.00046
        39.000          21.500  
  21695364.570 6     -1572.373 6   1938387.217 6   1511892.34348  21695356.28548
        47.000          38.750  
  24597559.977 1     -2014.673 1    -36209.792 1                
        32.250  
  20639727.766 6       382.376 6  -1103228.599 6   -845139.64548  20639717.43048
        47.500          40.750  
  20567349.945 7      -199.737 7    -64717.495 7    -41569.40448  20567340.02048
        50.500          41.000  
  21800306.648 7      1968.745 7  -3842456.810 7  -2963279.87548  21800295.90248
        49.250          37.750  
  24019069.188 4     -3488.474 4   5616197.104 4   4355912.79846  24019063.94946
        37.750          20.500  
  24359238.805 3      1670.796 3  -3972441.616 3  -3699444.04646  24359232.45346
        37.250          20.500  
  23821880.367 6     -3685.383 6   6390276.465 6   4952118.09047  23821875.24647
        42.750          27.000  
 11  3 23 16 14 15.0000000  0 12G03G06G09G14G15G16G18G21G22G26G27G29
  22565478.773 6      2114.699 6  -4467292.516 6  -3439957.05447  22565470.31347
        44.000          29.250  
  22354579.125 6      1704.123 6  -3697640.181 6  -2850117.78547  22354570.54747
        47.250          33.500  
  24867323.766 3      3001.321 3  -1085702.738 3   -823077.30146  24867321.10546
        36.000          20.000  
  24514411.672 5      3755.092 5  -5650762.517 5  -4390402.70146  24514405.96546
        39.250          21.500  
  21699878.039 7     -1581.245 7   1962105.895 7   1530374.41048  21699869.34448
        49.000          38.750  
  24603326.18811     -2019.39511     -5918.52511                
        31.250  
  20638650.047 7       377.350 7  -1108888.847 7   -849550.22949  20638640.18049
        48.500          41.500  
  20567935.797 7      -205.263 7    -61638.550 7    -39170.24248  20567926.16448
        50.250          40.500  
  21794699.703 7      1964.259 7  -3871920.697 7  -2986238.74348  21794689.36748
        48.000          37.250  
  24029044.938 5     -3494.214 5   5668610.319 5   4396754.23546  24029037.64846
        40.750          20.000  
  24354482.914 5      1665.879 5  -3997429.804 5  -3718915.22746  24354476.97346
        39.750          20.250  
  23832404.734 5     -3687.359 5   6445586.852 5   4995217.01947  23832400.49247
        42.000          28.250  
 11  3 23 16 14 30.0000000  0 12G03G06G09G14G15G16G18G21G22G26G27G29
  22559465.000 6      2106.573 6  -4498891.108 6  -3464579.34747  22559457.18447
        44.750          28.000  
  22349736.781 6      1696.360 6  -3723085.580 6  -2869945.37648  22349728.49648
        47.000          33.750  
  24858761.875 3      2999.923 3  -1130701.583 3   -858141.27946  24858758.16046
        37.250          19.000  
  24503694.664 5      3754.484 5  -5707079.779 5  -4434286.24346  24503689.89546
        39.250          21.250  
  21704416.625 7     -1590.065 7   1985956.867 7   1548959.57448  21704408.57448
        48.500          38.750  
  24609102.14111     -2026.35911                                
        30.000  
  20637587.250 7       372.377 7  -1114474.496 7   -853902.68148  20637577.73448
        49.000          41.000  
  20568537.797 7      -210.751 7    -58477.278 7    -36706.91748  20568528.22348
        50.500          40.750  
  21789105.594 7      1959.808 7  -3901317.811 7  -3009145.57848  21789095.02348
        48.250          37.750  
  24039033.609 4     -3499.878 4   5721108.490 4   4437661.84646  24039027.84446
        38.000          19.750  
  24349742.727 5      1660.973 5  -4022344.396 5  -3738329.09646  24349736.02346
        41.500          20.750  
  23842935.570 5     -3689.274 5   6500925.964 5   5038338.32647  23842931.15247
        42.000          28.000  
 11  3 23 16 14 45.0000000  0 12G03G06G09G14G15G16G18G21G22G26G27G29
  22553475.719 6      2098.442 6  -4530367.734 6  -3489106.58147  22553467.08247
        45.000          29.250  
  22344916.758 7      1688.598 7  -3748414.553 7  -2889682.24848  22344908.70748
        48.000          34.000  
  24850204.289 3      2998.509 3  -1175679.215 3   -893188.74546  24850198.99246
        35.750          19.000  
  24492979.438 4      3753.854 4  -5763387.594 4  -4478162.39946  24492973.78946
        38.500          21.500  
  21708980.563 7     -1598.861 7   2009939.782 7   1567647.53948  21708972.33648
        47.750          38.500  
  24614893.69511     -2030.79711     54874.34911                
        29.750  
  20636538.813 7       367.405 7  -1119985.577 7   -858197.03648  20636528.82848
        48.000          41.000  
  20569155.000 7      -216.246 7    -55233.588 7    -34179.37648  20569145.19148
        50.500          41.000  
  21783523.977 7      1955.360 7  -3930648.214 7  -3032000.43148  21783513.64148
        49.000          37.500  
  24049041.938 5     -3505.509 5   5773691.118 5   4478635.26346  24049033.88746
        42.250          19.250  
  24345014.063 5      1656.064 5  -4047185.359 5  -3757685.58346  24345008.64846
        40.000          20.750  
  23853472.656 5     -3691.164 5   6556293.417 5   5081481.72847  23853466.89147
        41.000          26.750  
 11  3 23 16 15  0.0000000  0 12G03G06G09G14G15G16G18G21G22G26G27G29
  22547509.242 6      2090.261 6  -4561721.656 6  -3513538.22647  22547500.95747
        44.750          28.500  
  22340119.016 6      1680.793 6  -3773626.447 6  -2909327.87947  22340111.02347
        47.500          33.500  
  24841648.867 3      2997.040 3  -1220634.811 3   -928219.05146  24841644.03946
        36.500          19.000  
  24482266.125 4      3753.186 4  -5819685.381 4  -4522030.72346  24482260.94546
        39.000          21.250  
  21713569.531 6     -1607.669 6   2034054.822 6   1586438.46348  21713560.77748
        47.500          38.500  
  24620698.617 1     -2033.403 1     85375.397 1                
        30.750  
  20635503.844 7       362.423 7  -1125421.923 7   -862433.14548  20635494.68048
        48.500          41.000  
  20569788.039 7      -221.776 7    -51906.955 7    -31587.20848  20569777.93848
        50.750          41.000  
  21777955.563 7      1950.889 7  -3959911.546 7  -3054803.01648  21777944.93448
        47.750          38.000  
  24059064.406 5     -3511.139 5   5826358.197 5   4519674.50246  24059056.64846
        42.250          19.750  
  24340301.484 5      1651.098 5  -4071951.824 5  -3776984.03546  24340296.30546
        40.500          20.000  
  23864013.484 5     -3693.052 5   6611689.195 5   5124647.17946  23864008.48046
        40.250          25.750  
 11  3 23 16 15 15.0000000  0 12G03G06G09G14G15G16G18G21G22G26G27G29
  22541566.297 6      2082.048 6  -4592952.369 6  -3537873.84847  22541557.83647
        44.000          29.000  
  22335343.820 7      1672.966 7  -3798720.941 7  -2928882.03847  22335335.88747
        48.000          33.250  
  24833097.375 4      2995.527 4  -1265567.722 4   -963231.68646  24833093.60246
        37.500          19.250  
  24471555.141 4      3752.487 4  -5875972.693 4  -4565890.86846  24471549.96146
        38.000          21.000  
  21718183.836 7     -1616.469 7   2058301.860 7   1605332.24348  21718175.14148
        49.000          38.000  
  24626514.000 1     -2038.051 1    115946.158 1                
        30.500  
  20634483.695 7       357.435 7  -1130783.443 7   -866610.96648  20634473.82848
        48.750          41.250  
  20570436.922 7      -227.320 7    -48497.156 7    -28930.23149  20570426.87949
        50.500          41.500  
  21772399.852 7      1946.402 7  -3989107.574 7  -3077553.16048  21772389.34048
        49.000          38.250  
  24069103.578 6     -3516.749 6   5879109.425 6   4560779.33046  24069095.46946
        42.750          19.500  
  24335601.594 5      1646.101 5  -4096643.334 5  -3796224.09746  24335596.70746
        40.250          20.250  
  23874560.781 5     -3694.937 5   6667113.255 5   5167834.68446  23874555.48446
        39.500          25.250  
 11  3 23 16 15 30.0000000  0 12G03G06G09G14G15G16G18G21G22G26G27G29
  22535646.398 6      2073.876 6  -4624060.509 6  -3562113.95647  22535638.81647
        44.500          29.000  
  22330590.938 6      1665.158 6  -3823698.317 6  -2948344.92948  22330582.77048
        47.000          34.000  
  24824551.906 3      2994.030 3  -1310478.179 3   -998226.81546  24824547.37146
        36.000          19.500  
  24460845.938 4      3751.801 4  -5932249.708 4  -4609742.98746  24460840.93446
        38.250          21.500  
  21722822.688 7     -1625.216 7   2082680.100 7   1624328.25448  21722813.87548
        48.500          38.000  
  24632346.422 1     -2042.633 1    146585.652 1                
        31.500  
  20633477.648 7       352.490 7  -1136070.795 7   -870730.98848  20633467.78148
        48.750          41.000  
  20571101.313 7      -232.835 7    -45004.635 7    -26208.80048  20571091.38748
        50.500          40.750  
  21766856.688 7      1941.962 7  -4018237.006 7  -3100251.41648  21766845.94148
        48.500          37.500  
  24079157.391 6     -3522.287 6   5931943.727 6   4601948.90346  24079149.45746
        42.500          21.000  
  24330917.453 5      1641.129 5  -4121260.274 5  -3815405.98546  24330913.21146
        39.750          21.000  
  23885111.898 5     -3696.758 5   6722564.632 5   5211043.46946  23885107.53946
        40.000          24.500  
 11  3 23 16 15 45.0000000  0 12G03G06G09G14G15G16G18G21G22G26G27G29
  22529750.766 6      2065.615 6  -4655044.730 6  -3586257.51247  22529742.48047
        44.750          28.000  
  22325860.172 7      1657.281 7  -3848557.538 7  -2967715.75248  22325851.88748
        47.750          33.750  
  24816011.797 4      2992.453 4  -1355364.980 4  -1033203.46846  24816006.67646
        38.500          20.000  
  24450139.313 4      3751.037 4  -5988515.270 4  -4653586.15446  24450133.43046
        37.500          20.750  
  21727486.547 7     -1634.001 7   2107190.115 7   1643426.95248  21727478.08648
        49.500          38.250  
  24638188.883 1     -2047.229 1    177294.092 1                
        33.500  
  20632485.820 7       347.496 7  -1141283.241 7   -874792.63648  20632476.24648
        49.000          40.500  
  20571781.938 7      -238.407 7    -41428.524 7    -23422.23348  20571772.07048
        50.750          41.000  
  21761326.391 7      1937.456 7  -4047298.851 7  -3122897.00048  21761315.64548
        49.000          37.500  
  24089225.508 5     -3527.872 5   5984861.811 5   4643183.72446  24089218.39546
        40.500          19.000  
  24326247.852 5      1636.073 5  -4145801.370 5  -3834528.81246  24326242.78946
        40.750          21.000  
  23895669.695 5     -3698.618 5   6778043.896 5   5254273.97546  23895665.04346
        40.250          25.000  
 11  3 23 16 16  0.0000000  0 12G03G06G09G14G15G16G18G21G22G26G27G29
  22523878.320 6      2057.371 6  -4685905.297 6  -3610304.70347  22523869.91847
        45.000          28.500  
  22321151.883 7      1649.422 7  -3873298.862 7  -2986994.71747  22321144.00847
        48.000          33.500  
  24807474.352 4      2990.868 4  -1400228.001 4  -1068161.63246  24807468.99646
        37.750          20.500  
  24439433.781 4      3750.287 4  -6044769.579 4  -4697420.56246  24439428.71946
        38.250          21.250  
  21732176.055 7     -1642.743 7   2131831.259 7   1662627.82648  21732167.35948
        48.500          38.250  
  24644045.461 1     -2051.794 1    208071.003 1                
        32.750  
  20631508.336 7       342.530 7  -1146421.184 7   -878796.22548  20631498.35248
        49.000          40.500  
  20572478.539 7      -243.965 7    -37769.048 7    -20570.70048  20572468.61348
        50.500          41.000  
  21755808.617 7      1932.981 7  -4076293.573 7  -3145490.28748  21755797.87148
        49.500          37.750  
  24099311.836 5     -3533.379 5   6037862.498 5   4684482.90246  24099304.72346
        41.500          20.500  
  24321592.406 5      1631.035 5  -4170266.898 5  -3853592.77846  24321586.81646
        41.500          21.500  
  23906232.641 4     -3700.428 4   6833550.318 4   5297525.65446  23906227.40246
        37.500          22.750  
 11  3 23 16 16 15.0000000  0 12G03G06G09G14G15G16G18G21G22G26G27G29
  22518028.984 6      2049.108 6  -4716641.919 6  -3634255.32347  22518020.93447
        44.750          29.500  
  22316466.445 6      1641.531 6  -3897921.834 6  -3006181.44947  22316458.33647
        47.000          33.250  
  24798940.734 3      2989.247 3  -1445066.710 3  -1103100.82746  24798936.02346
        36.750          19.250  
  24428731.516 3      3749.505 3  -6101012.154 3  -4741245.81746  24428725.45746
        36.250          19.500  
  21736889.781 7     -1651.482 7   2156603.482 7   1681930.84548  21736881.08648
        49.250          38.250  
  24649915.906 1     -2056.338 1    238916.078 1                
        32.000  
  20630544.500 7       337.562 7  -1151484.612 7   -882741.76248  20630534.98448
        49.000          40.500  
  20573190.867 7      -249.538 7    -34025.982 7    -17654.04248  20573180.70748
        50.500          41.000  
  21750303.898 7      1928.494 7  -4105220.986 7  -3168031.12148  21750293.21148
        49.500          37.500  
  24109411.352 5     -3538.881 5   6090945.708 5   4725846.43546  24109405.64546
        39.250          20.000  
  24316950.484 5      1625.957 5  -4194656.250 5  -3872597.35046  24316945.42246
        41.000          21.750  
  23916799.961 4     -3702.228 4   6889083.732 4   5340798.36846  23916794.84046
        38.000          24.500  
 11  3 23 16 16 30.0000000  0 12G03G06G09G14G15G16G18G21G22G26G27G29
  22512203.563 6      2040.827 6  -4747254.331 6  -3658109.15547  22512195.68847
        44.250          28.500  
  22311803.047 7      1633.642 7  -3922426.464 7  -3025275.96947  22311795.11347
        47.750          33.000  
  24790413.539 3      2987.605 3  -1489880.786 3  -1138020.85846  24790408.30146
        37.250          19.750  
  24418030.414 3      3748.710 3  -6157242.800 3  -4785061.78446  24418025.00046
        36.500          20.000  
  21741628.688 7     -1660.197 7   2181506.438 7   1701335.73148  21741620.46148
        48.250          37.750  
  24655798.008 1     -2060.844 1    269828.738 1                
        33.500  
  20629595.023 7       332.607 7  -1156473.717 7   -886629.37848  20629585.56648
        48.750          40.500  
  20573918.773 7      -255.112 7    -30199.300 7    -14672.21648  20573908.96548
        50.250          41.000  
  21744812.063 7      1924.009 7  -4134081.123 7  -3190519.53648  21744801.37548
        49.250          38.000  
  24119529.070 5     -3544.348 5   6144110.921 5   4767273.78446  24119523.18846
        40.750          21.000  
  24312323.648 5      1620.865 5  -4218969.224 5  -3891542.44546  24312318.29346
        40.500          21.500  
  23927372.453 4     -3703.997 4   6944643.688 4   5384091.75446  23927367.33246
        38.250          22.750  
 11  3 23 16 16 45.0000000  0 12G03G06G09G14G15G16G18G21G22G26G27G29
  22506401.484 6      2032.540 6  -4777742.432 6  -3681866.12647  22506393.78547
        43.750          28.000  
  22307163.164 6      1625.738 6  -3946812.532 6  -3044278.10547  22307154.35247
        47.500          33.500  
  24781890.078 3      2985.932 3  -1534669.766 3  -1172921.30546  24781885.36746
        37.250          21.500  
  24407332.352 3      3747.897 3  -6213461.260 3  -4828868.22146  24407326.82046
        36.750          20.500  
  21746392.172 7     -1668.886 7   2206539.724 7   1720842.16948  21746383.71148
        49.000          38.000  
  24661692.914 1     -2065.325 1    300808.611 1                
        33.500  
  20628660.125 7       327.654 7  -1161388.527 7   -890459.11048  20628650.14148
        49.750          41.000  
  20574663.227 7      -260.693 7    -26288.908 7    -11625.17148  20574653.24248
        50.500          41.000  
  21739333.094 7      1919.531 7  -4162874.094 7  -3212955.60648  21739322.11348
        49.000          38.000  
  24129661.844 5     -3549.777 5   6197357.574 5   4808764.67346  24129655.14146
        41.250          20.250  
  24307712.148 5      1615.761 5  -4243205.645 5  -3910427.89846  24307706.91046
        41.250          21.500  
  23937949.867 4     -3705.744 4   7000229.842 4   5427405.57146  23937945.97746
        38.500          22.750  
 11  3 23 16 17  0.0000000  0 12G03G06G09G14G15G16G18G21G22G26G27G29
  22500624.258 6      2024.197 6  -4808105.390 6  -3705525.57847  22500615.62147
        44.500          30.000  
  22302544.758 7      1617.801 7  -3971079.549 7  -3063187.47448  22302536.76648
        48.500          34.250  
  24773370.555 3      2984.215 3  -1579432.995 3  -1207801.66046  24773366.95746
        35.750          19.500  
  24396636.555 2      3747.039 2  -6269666.842 2  -4872664.65546  24396630.96546
        35.500          19.250  
  21751180.406 7     -1677.587 7   2231703.535 7   1740450.31648  21751172.00448
        48.750          38.000  
  24667601.563 1     -2069.808 1    331855.723 1                
        32.500  
  20627738.922 7       322.695 7  -1166228.956 7   -894230.87049  20627729.52349
        49.750          41.500  
  20575423.289 7      -266.311 7    -22294.238 7     -8512.46249  20575413.12949
        50.000          41.500  
  21733866.672 7      1915.028 7  -4191599.516 7  -3235339.04548  21733856.04348
        49.500          38.000  
  24139810.367 5     -3555.203 5   6250685.615 5   4850318.93346  24139804.07446
        40.500          21.250  
  24303114.211 5      1610.609 5  -4267364.787 5  -3929253.12246  24303109.32446
        40.500          21.000  
  23948533.594 4     -3707.490 4   7055842.196 4   5470739.78146  23948528.23846
        38.500          22.500  
 11  3 23 16 17 15.0000000  0 12G03G06G09G14G15G16G18G21G22G26G27G29
  22494869.938 6      2015.875 6  -4838343.512 6  -3729087.75747  22494861.71147
        45.000          29.000  
  22297949.523 6      1609.886 6  -3995227.845 6  -3082004.32947  22297941.59047
        47.000          33.500  
  24764857.656 4      2982.499 4  -1624170.487 4  -1242661.97046  24764853.12146
        38.000          20.750  
  24385944.328 3      3746.198 3  -6325859.814 3  -4916451.24546  24385937.91846
        36.000          20.000  
  21755994.039 7     -1686.240 7   2256997.129 7   1760159.59348  21755985.57848
        48.500          38.000  
  24673521.53111     -2075.84411                                
        28.750  
  20626831.617 7       317.779 7  -1170995.641 7   -897945.17348  20626821.86748
        49.000          41.250  
  20576199.344 7      -271.886 7    -18215.952 7     -5334.58148  20576189.53548
        50.500          40.500  
  21728413.406 7      1910.560 7  -4220257.908 7  -3257670.25248  21728402.83648
        49.250          38.000  
  24149974.727 6     -3560.565 6   6304094.084 6   4891935.89246  24149967.08646
        42.500          19.750  
  24298531.844 5      1605.477 5  -4291446.938 5  -3948018.36046  24298526.07846
        40.500          21.500  
  23959121.109 4     -3709.185 4   7111479.971 4   5514093.82446  23959115.28546
        37.750          24.750  
 11  3 23 16 17 30.0000000  0 12G03G06G09G14G15G16G18G21G22G26G27G29
  22489139.109 6      2007.562 6  -4868456.948 6  -3752552.77847  22489131.11747
        44.500          29.500  
  22293377.344 6      1601.971 6  -4019257.409 6  -3100728.66947  22293368.94147
        47.500          33.500  
  24756348.016 3      2980.779 3  -1668882.165 3  -1277502.13946  24756345.35546
        36.500          20.250  
  24375253.734 3      3745.361 3  -6382040.233 3  -4960228.06146  24375246.79746
        36.000          20.250  
  21760831.813 7     -1694.856 7   2282419.962 7   1779969.58148  21760823.76248
        49.000          37.750  
  24679454.961 1     -2080.391 1    394148.168 1                
        30.750  
  20625938.422 7       312.872 7  -1175688.716 7   -901602.11548  20625929.14148
        49.500          41.000  
  20576991.078 7      -277.459 7    -14054.072 7     -2091.57448  20576981.15248
        50.250          40.500  
  21722972.586 7      1906.119 7  -4248849.691 7  -3279949.56148  21722961.95748
        49.500          37.500  
  24160151.914 6     -3565.880 6   6357582.279 6   4933614.97346  24160145.56346
        42.500          21.000  
  24293963.734 5      1600.336 5  -4315451.972 5  -3966723.48946  24293957.91046
        41.250          21.750  
  23969712.953 5     -3710.846 5   7167142.664 5   5557467.26646  23969708.30146
        39.750          22.750  
 11  3 23 16 17 45.0000000  0 12G03G06G09G14G15G16G18G21G22G26G27G29
  22483433.250 6      1999.167 6  -4898444.455 6  -3775919.67947  22483424.78947
        44.500          29.750  
  22288827.352 6      1593.982 6  -4043167.146 6  -3119359.64148  22288819.06648
        47.000          34.250  
  24747845.352 3      2978.979 3  -1713566.843 3  -1312321.27746  24747842.10546
        36.500          20.250  
  24364565.398 3      3744.433 3  -6438206.723 3  -5003994.04446  24364558.57846
        37.000          19.500  
  21765694.766 7     -1703.509 7   2307972.600 7   1799880.70648  21765686.24648
        48.750          38.250  
  24685401.20311         0.00011    425393.77211                
        29.250  
  20625059.867 7       307.916 7  -1180307.462 7   -905201.15149  20625050.00049
        49.000          41.500  
  20577799.352 7      -283.098 7     -9807.598 7      1217.35548  20577789.42648
        50.250          40.500  
  21717544.305 7      1901.616 7  -4277373.934 7  -3302176.23248  21717533.67648
        50.000          38.000  
  24170345.852 5     -3571.242 5   6411150.905 5   4975356.74946  24170338.85546
        42.250          20.500  
  24289411.547 5      1595.112 5  -4339378.650 5  -3985367.62146  24289405.89846
        41.250          22.750  
  23980310.164 4     -3712.542 4   7222830.787 4   5600860.53646  23980305.39546
        39.000          22.750  
 11  3 23 16 18  0.0000000  0 12G03G06G09G14G15G16G18G21G22G26G27G29
  22477750.938 6      1990.792 6  -4928306.338 6  -3799188.67347  22477742.35947
        45.000          29.750  
  22284300.273 7      1586.017 7  -4066957.402 7  -3137897.50047  22284291.93047
        47.750          33.500  
  24739346.578 3      2977.158 3  -1758224.213 3  -1347119.13046  24739344.15246
        36.000          21.250  
  24353879.352 4      3743.510 4  -6494359.376 4  -5047749.21446  24353873.29346
        38.000          20.000  
  21770581.891 6     -1712.123 6   2333654.444 6   1819892.51848  21770573.31348
        47.500          37.750  
  24691358.65611     -2089.26611                                
        27.500  
  20624194.695 7       302.990 7  -1184852.307 7   -908742.59049  20624184.94549
        48.500          41.500  
  20578623.281 7      -288.710 7     -5476.941 7      4591.87748  20578613.53148
        50.500          40.500  
  21712129.266 7      1897.132 7  -4305830.908 7  -3324350.48648  21712118.69548
        50.000          38.000  
  24180554.406 5     -3576.527 5   6464798.811 5   5017160.27146  24180548.87546
        42.000          22.500  
  24284872.094 5      1589.902 5  -4363227.176 5  -4003950.82846  24284866.79746
        40.500          22.000  
  23990912.563 5     -3714.188 5   7278543.601 5   5644273.02946  23990907.61746
        40.750          24.750  
 11  3 23 16 18 15.0000000  0 12G03G06G09G14G15G16G18G21G22G26G27G29
  22472091.789 6      1982.402 6  -4958042.369 6  -3822359.62447  22472083.85547
        43.750          30.500  
  22279796.242 6      1578.032 6  -4090627.890 6  -3156342.04347  22279787.78147
        47.000          33.000  
  24730855.328 3      2975.326 3  -1802854.110 3  -1381895.60346  24730851.55546
        36.500          20.750  
  24343196.203 4      3742.582 4  -6550498.112 4  -5091493.56046  24343190.37946
        38.500          20.500  
  21775493.031 7     -1720.717 7   2359465.197 7   1840004.77648  21775484.68848
        48.500          37.750  
  24697328.47711     -2093.59411                                
        26.250  
  20623344.375 7       298.085 7  -1189323.586 7   -912226.71148  20623334.27348
        48.750          40.500  
  20579463.688 7      -294.335 7     -1061.914 7      8032.14648  20579453.41048
        50.500          41.000  
  21706726.883 7      1892.655 7  -4334220.730 7  -3346472.41048  21706716.25448
        49.500          37.500  
  24190777.602 5     -3581.798 5   6518525.783 5   5059025.38346  24190772.07046
        41.000          20.000  
  24280349.250 5      1584.667 5  -4386997.187 5  -4022472.84346  24280344.07046
        41.750          22.750  
  24001519.320 5     -3715.811 5   7334280.766 5   5687704.50746  24001513.96546
        40.500          25.750  
 11  3 23 16 18 30.0000000  0 11G03G06G09G14G15G18G21G22G26G27G29   
  22466457.508 6      1974.021 6  -4987652.685 6  -3845432.59347  22466448.93047
        43.500          29.750  
  22275314.047 7      1570.066 7  -4114178.881 7  -3174693.46947  22275305.64547
        48.000          33.500  
  24722367.844 4      2973.502 4  -1847456.640 4  -1416650.68746  24722363.19146
        37.750          20.750  
  24332515.891 4      3741.659 4  -6606623.004 4  -5135227.12246  24332510.00846
        38.000          19.250  
  21780429.359 6     -1729.268 6   2385404.217 6   1860216.98648  21780420.54748
        47.000          37.750  
  20622507.430 6       293.215 6  -1193721.817 6   -915653.90948  20622497.15248
        47.500          40.500  
  20580319.594 7      -299.940 7      3437.193 7     11537.93348  20580309.84448
        51.000          40.500  
  21701337.211 7      1888.207 7  -4362543.840 7  -3368542.35348  21701326.81648
        49.750          38.000  
  24201017.547 5     -3587.002 5   6572330.818 5   5100951.40046  24201011.48846
        42.250          21.250  
  24275840.922 5      1579.444 5  -4410688.853 5  -4040933.80546  24275835.85946
        41.500          22.500  
  24012130.680 5     -3717.379 5   7390041.443 5   5731154.31946  24012125.20746
        41.250          25.500  
 11  3 23 16 18 45.0000000  0 11G03G06G09G14G15G18G21G22G26G27G29   
  22460846.875 6      1965.554 6  -5017135.997 6  -3868406.60447  22460838.41447
        43.250          29.250  
  22270855.281 6      1562.024 6  -4137609.247 6  -3192950.90348  22270846.93848
        47.500          34.000  
  24713886.781 4      2971.580 4  -1892030.333 4  -1451383.36046  24713880.72346
        38.500          22.000  
  24321838.609 5      3740.647 5  -6662732.711 5  -5178948.87146  24321832.55146
        39.500          21.500  
  21785389.797 7     -1737.853 7   2411472.013 7   1880529.53948  21785381.33648
        48.500          38.000  
  20621684.094 7       288.279 7  -1198046.009 7   -919023.41848  20621674.69548
        48.500          40.750  
  20581191.844 7      -305.610 7      8021.338 7     15109.98248  20581182.09448
        50.250          40.750  
  21695959.883 7      1883.691 7  -4390799.208 7  -3390559.51348  21695949.37148
        48.500          37.500  
  24211271.094 5     -3592.239 5   6626214.404 5   5142938.53446  24211265.73846
        41.250          22.750  
  24271347.469 5      1574.141 5  -4434300.965 5  -4059332.81346  24271342.28946
        41.750          22.750  
  24022745.734 6     -3718.997 6   7445826.394 6   5774623.02647  24022740.96547
        42.500          27.250  
 11  3 23 16 19  0.0000000  0 11G03G06G09G14G15G18G21G22G26G27G29   
  22455260.156 5      1957.144 5  -5046493.155 5  -3891282.32047  22455252.10547
        42.250          29.500  
  22266419.484 7      1554.034 7  -4160919.755 7  -3211114.93447  22266411.37547
        47.750          33.000  
  24705410.406 4      2969.690 4  -1936575.688 4  -1486093.93446  24705404.17246
        38.500          21.500  
  24311163.797 4      3739.679 4  -6718827.900 4  -5222659.32946  24311157.62146
        38.500          20.250  
  21790374.641 6     -1746.370 6   2437667.570 6   1900941.64448  21790366.41448
        47.250          38.250  
  20620875.109 7       283.406 7  -1202297.097 7   -922335.95848  20620865.59448
        48.500          40.750  
  20582080.461 7      -311.227 7     12689.740 7     18747.68848  20582070.41848
        50.750          41.000  
  21690596.375 7      1879.236 7  -4418987.749 7  -3412524.60148  21690585.16048
        48.500          37.750  
  24221540.586 5     -3597.390 5   6680175.257 5   5184985.92046  24221532.41846
        41.500          20.750  
  24266868.836 5      1568.877 5  -4457834.117 5  -4077670.32046  24266863.94946
        42.250          22.000  
  24033365.859 5     -3720.529 5   7501634.332 5   5818109.66047  24033360.73847
        42.250          27.500  
 11  3 23 16 19 15.0000000  0 11G03G06G09G14G15G18G21G22G26G27G29   
  22449698.234 6      1948.681 6  -5075723.371 6  -3914059.11047  22449689.65647
        45.500          30.000  
  22262006.508 6      1546.003 6  -4184109.805 6  -3229185.10848  22261998.80948
        47.500          34.000  
  24696939.719 5      2967.748 5  -1981091.901 5  -1520781.81946  24696933.25046
        39.750          21.500  
  24300492.078 5      3738.663 5  -6774907.843 5  -5266357.88346  24300486.02046
        40.250          20.750  
  21795384.133 6     -1754.891 6   2463990.932 6   1921453.33748  21795375.55548
        47.000          38.000  
  20620080.430 6       278.524 6  -1206474.958 6   -925591.43048  20620070.38748
        47.500          41.250  
  20582984.727 7      -316.876 7     17442.880 7     22451.41648  20582974.80148
        50.000          41.000  
  21685244.875 7      1874.757 7  -4447109.111 7  -3434437.32948  21685234.36348
        49.500          37.500  
  24231824.102 6     -3602.539 6   6734213.349 6   5227093.53346  24231816.28546
        43.750          22.000  
  24262405.844 5      1563.570 5  -4481287.663 5  -4095945.75146  24262401.36746
        41.250          22.500  
  24043989.898 5     -3722.060 5   7557465.238 5   5861614.16647  24043984.89547
        41.500          27.500  
 11  3 23 16 19 30.0000000  0 11G03G06G09G14G15G18G21G22G26G27G29   
  22444160.359 6      1940.195 6  -5104826.303 6  -3936736.73247  22444151.89847
        43.000          29.750  
  22257616.805 6      1537.935 6  -4207178.834 6  -3247160.97848  22257608.98848
        47.500          34.250  
  24688473.461 4      2965.755 4  -2025578.222 4  -1555446.40046  24688467.63746
        38.750          22.000  
  24289823.563 5      3737.605 5  -6830971.923 5  -5310044.09546  24289817.73846
        40.750          21.000  
  21800417.336 7     -1763.431 7   2490442.389 7   1942064.84548  21800409.10948
        48.000          37.750  
  20619299.336 6       273.621 6  -1210579.270 6   -928789.60148  20619289.82048
        47.500          41.000  
  20583905.766 7      -322.567 7     22281.386 7     26221.66648  20583895.48848
        50.500          40.750  
  21679906.492 6      1870.253 6  -4475162.903 6  -3456297.40948  21679895.74648
        47.500          38.500  
  24242121.711 5     -3607.685 5   6788328.627 5   5269261.22446  24242115.00846
        42.250          22.500  
  24257958.898 5      1558.214 5  -4504660.871 5  -4114158.58546  24257953.19146
        42.250          22.000  
  24054619.516 6     -3723.607 6   7613319.342 6   5905136.75047  24054613.34047
        43.000          28.000  
 11  3 23 16 19 45.0000000  0 12G03G06G09G14G15G16G18G21G22G26G27G29
  22438645.688 6      1931.810 6  -5133803.451 6  -3959316.33547  22438637.98847
        45.000          29.750  
  22253249.734 6      1529.972 6  -4230128.411 6  -3265043.76547  22253241.27347
        47.500          33.000  
  24680013.148 5      2963.853 5  -2070036.020 5  -1590088.76646  24680007.50046
        40.000          22.500  
  24279157.516 5      3736.648 5  -6887021.642 5  -5353719.10346  24279151.45746
        40.500          20.000  
  21805475.055 6     -1771.826 6   2517019.775 6   1962774.48248  21805466.30148
        46.750          38.000  
  24733410.29711     -2119.12511    191518.74411                
        31.500  
  20618531.883 7       268.847 7  -1214611.978 7   -931931.97648  20618522.42648
        48.000          41.000  
  20584842.219 7      -328.133 7     27203.387 7     30056.98248  20584832.46948
        50.000          41.250  
  21674580.156 7      1865.865 7  -4503150.873 7  -3478106.19648  21674569.87948
        49.250          38.750  
  24252433.516 6     -3612.675 6   6842518.747 6   5311487.23946  24252426.69546
        42.500          22.250  
  24253525.469 5      1552.962 5  -4527955.295 5  -4132310.05246  24253520.34846
        42.000          22.000  
  24065251.898 6     -3725.011 6   7669194.512 6   5948675.76047  24065246.66047
        42.500          27.750  
 11  3 23 16 20  0.0000000  0 12G03G06G09G14G15G16G18G21G22G26G27G29
  22433156.859 6      1923.163 6  -5162650.903 6  -3981794.87147  22433148.34047
        46.000          30.000  
  22248905.719 6      1521.755 6  -4252954.734 6  -3282830.52248  22248897.55148
        46.500          33.750  
  24671560.758 5      2961.672 5  -2114461.101 5  -1624705.62346  24671553.11746
        40.500          22.500  
  24268495.445 5      3735.424 5  -6943053.007 5  -5397379.83646  24268489.09446
        41.500          19.500  
  21810557.211 6     -1780.452 6   2543726.553 6   1983584.94348  21810548.92648
        47.500          38.000  
  24739466.156 1     -2121.480 1    223340.945 1                
        31.000  
  20617779.078 7       263.836 7  -1218569.525 7   -935015.78448  20617769.15248
        48.500          40.750  
  20585795.563 7      -333.958 7     32212.756 7     33960.36648  20585785.98848
        51.250          40.750  
  21669267.508 7      1861.232 7  -4531069.349 7  -3499860.83048  21669257.23048
        50.000          38.000  
  24262759.539 6     -3617.889 6   6896787.076 6   5353774.24646  24262753.18846
        42.500          22.000  
  24249109.219 6      1547.442 6  -4551166.925 6  -4150396.97646  24249103.21946
        42.500          22.500  
  24075889.211 5     -3726.644 5   7725094.179 5   5992233.86447  24075884.20747
        42.250          29.000  
 11  3 23 16 20 15.0000000  0 12G03G06G09G14G15G16G18G21G22G26G27G29
  22427691.391 5      1914.644 5  -5191370.571 5  -4004173.84047  22427682.75447
        42.000          29.750  
  22244585.391 7      1513.667 7  -4275659.744 7  -3300522.74648  22244577.51648
        47.750          34.000  
  24663111.680 5      2959.610 5  -2158855.254 5  -1659298.41346  24663105.56346
        41.500          22.500  
  24257835.992 6      3734.315 6  -6999067.736 6  -5441027.55746  24257829.64146
        42.500          20.750  
  21815663.188 6     -1788.920 6   2570560.349 6   2004494.37048  21815655.13748
        47.000          38.750  
  24745532.984 2     -2125.617 2    255225.198 2                
        34.000  
  20617039.656 6       258.962 6  -1222453.958 6   -938042.62248  20617029.96548
        47.000          41.000  
  20586764.844 7      -339.640 7     37307.355 7     37930.17548  20586755.09448
        50.500          41.000  
  21663967.891 6      1856.741 6  -4558920.466 6  -3521562.98348  21663957.14548
        47.250          38.000  
  24273099.992 5     -3622.934 5   6951131.079 5   5396120.19246  24273095.16446
        40.500          23.250  
  24244706.609 6      1542.047 6  -4574297.634 6  -4168420.87946  24244702.30946
        42.500          22.750  
  24086530.953 6     -3728.101 6   7781015.697 6   6035808.97747  24086525.53947
        42.500          28.000  
 11  3 23 16 20 30.0000000  0 12G03G06G09G14G15G16G18G21G22G26G27G29
  22422250.695 6      1906.110 6  -5219962.220 6  -4026453.04747  22422242.00047
        43.000          30.000  
  22240287.695 7      1505.568 7  -4298243.260 7  -3318120.28748  22240279.76248
        48.250          34.250  
  24654668.898 5      2957.524 5  -2203218.119 5  -1693866.80946  24654663.19146
        40.250          22.500  
  24247179.531 5      3733.191 5  -7055065.595 5  -5484662.19246  24247173.23846
        41.500          20.500  
  21820794.234 7     -1797.355 7   2597520.671 7   2025502.39848  21820785.36348
        48.000          38.500  
  24751612.695 2     -2129.745 2    287171.374 2                
        34.500  
  20616314.352 7       254.098 7  -1226265.425 7   -941012.59748  20616304.95348
        48.000          41.000  
  20587750.719 7      -345.332 7     42487.331 7     41966.50848  20587741.14548
        50.750          41.250  
  21658680.836 7      1852.260 7  -4586704.362 7  -3543212.75748  21658670.14848
        47.750          38.000  
  24283455.977 5     -3627.950 5   7005550.327 5   5438524.66146  24283451.09046
        40.500          24.000  
  24240320.984 5      1536.631 5  -4597347.106 5  -4186381.44346  24240315.16046
        42.000          22.500  
  24097176.188 6     -3729.547 6   7836958.896 6   6079400.99147  24097171.18447
        42.500          30.000  
 11  3 23 16 20 45.0000000  0 12G03G06G09G14G15G16G18G21G22G26G27G29
  22416833.836 6      1897.544 6  -5248425.387 6  -4048632.13647  22416825.55147
        45.750          29.750  
  22236013.398 6      1497.442 6  -4320704.890 6  -3335622.86948  22236005.34848
        47.500          33.750  
  24646231.961 5      2955.401 5  -2247549.141 5  -1728410.43746  24646227.54346
        40.000          22.750  
  24236527.344 6      3732.044 6  -7111046.256 6  -5528283.42746  24236520.28946
        43.500          19.250  
  21825948.063 6     -1805.787 6   2624607.472 6   2046608.98648  21825939.30948
        47.000          38.000  
  24757703.492 2     -2133.850 2    319179.119 2                
        34.750  
  20615602.852 7       249.231 7  -1230003.892 7   -943925.68848  20615592.80948
        47.750          41.000  
  20588752.648 7      -351.041 7     47752.939 7     46069.56249  20588742.72349
        50.750          41.500  
  21653406.227 7      1847.767 7  -4614420.860 7  -3564810.01048  21653395.83248
        49.500          38.000  
  24293825.953 5     -3632.937 5   7060044.375 5   5480987.60046  24293819.42646
        41.000          22.500  
  24235949.930 5      1531.191 5  -4620314.973 5  -4204278.47746  24235944.69146
        41.250          21.750  
  24107825.781 5     -3730.963 5   7892923.345 5   6123009.55547  24107821.12947
        41.250          28.500  
 11  3 23 16 21  0.0000000  0 12G03G06G09G14G15G16G18G21G22G26G27G29
  22411442.203 6      1888.957 6  -5276759.746 6  -4070710.87047  22411433.97747
        46.250          30.000  
  22231762.422 6      1489.309 6  -4343044.521 6  -3353030.37448  22231753.84448
        47.000          34.250  
  24637802.578 5      2953.245 5  -2291847.820 5  -1762928.83546  24637797.86746
        40.750          24.500  
  24225877.695 6      3730.871 6  -7167009.320 6  -5571890.93646  24225870.46546
        43.000          19.250  
  21831127.188 7     -1814.221 7   2651820.779 7   2067814.14448  21831118.78548
        48.500          38.000  
  24763805.172 2     -2137.927 2    351248.023 2                
        34.500  
  20614905.234 7       244.367 7  -1233669.396 7   -946781.92848  20614895.48448
        49.500          41.000  
  20589771.219 7      -356.755 7     53104.264 7     50239.41149  20589760.94149
        51.000          41.500  
  21648145.047 7      1843.272 7  -4642069.934 7  -3586354.72448  21648134.24248
        49.500          38.000  
  24304211.266 5     -3637.916 5   7114613.120 5   5523508.62046  24304204.27046
        40.500          21.250  
  24231595.594 4      1525.723 4  -4643200.814 4  -4222111.52046  24231589.77046
        39.000          22.500  
  24118480.336 6     -3732.370 6   7948908.895 6   6166634.55947  24118474.98047
        43.000          28.000  
 11  3 23 16 21 15.0000000  0 12G03G06G09G14G15G16G18G21G22G26G27G29
  22406074.867 6      1880.425 6  -5304966.122 6  -4092689.86747  22406066.75847
        46.000          31.000  
  22227534.523 6      1481.222 6  -4365262.854 6  -3370343.36548  22227526.06348
        46.750          34.000  
  24629378.188 4      2951.115 4  -2336114.544 4  -1797422.38746  24629374.18046
        39.000          23.250  
  24215231.500 6      3729.719 6  -7222955.108 6  -5615485.00545  24215224.56345
        43.000          18.500  
  21836329.313 6     -1822.561 6   2679159.194 6   2089116.79648  21836320.38348
        46.500          37.750  
  24769920.039 2     -2141.937 2    383377.082 2                
        34.750  
  20614221.719 6       239.577 6  -1237263.046 6   -949582.17748  20614211.91048
        46.500          41.000  
  20590805.469 7      -362.424 7     58540.627 7     54475.52548  20590795.60248
        50.750          41.000  
  21642896.086 7      1838.833 7  -4669652.424 7  -3607847.55348  21642885.34048
        49.500          38.000  
  24314611.078 6     -3642.785 6   7169254.891 6   5566086.56146  24314602.91046
        44.250          24.750  
  24227256.297 5      1520.293 5  -4666005.208 5  -4239881.14746  24227250.00446
        39.250          22.750  
  24129137.070 5     -3733.703 5   8004914.438 5   6210275.15547  24129132.65247
        40.750          28.750  
 11  3 23 16 21 30.0000000  0 12G03G06G09G14G15G16G18G21G22G26G27G29
  22400731.938 6      1871.828 6  -5333043.539 6  -4114568.38047  22400724.06347
        46.000          30.500  
  22223329.680 6      1473.076 6  -4387358.992 6  -3387561.14548  22223321.39548
        46.500          34.000  
  24620960.680 5      2948.923 5  -2380348.386 5  -1831890.26046  24620956.73046
        41.250          23.750  
  24204588.578 6      3728.539 6  -7278883.186 6  -5659065.28146  24204581.64146
        43.000          19.000  
  21841555.250 7     -1830.925 7   2706623.065 7   2110517.20248  21841546.90648
        48.250          37.250  
  24776045.328 2     -2145.960 2    415566.480 2                
        35.000  
  20613551.570 7       234.748 7  -1240784.264 7   -952325.98548  20613541.76248
        48.750          40.750  
  20591856.453 7      -368.133 7     64062.617 7     58778.36148  20591846.58648
        50.500          41.000  
  21637659.898 7      1834.353 7  -4697167.723 7  -3629288.03548  21637649.62148
        49.500          38.000  
  24325023.031 6     -3647.682 6   7223970.126 6   5608721.78246  24325014.45346
        42.750          22.500  
  24222931.086 4      1514.802 4  -4688727.236 4  -4257586.58646  24222926.31646
        38.500          22.250  
  24139798.461 5     -3735.052 5   8060940.215 5   6253931.49747  24139793.63347
        41.250          28.500  
 11  3 23 16 21 45.0000000  0 12G03G06G09G14G15G16G18G21G22G26G27G29
  22395413.672 6      1863.182 6  -5360991.264 6  -4136345.83247  22395405.44547
        45.000          30.500  
  22219148.328 6      1464.892 6  -4409332.373 6  -3404683.26248  22219139.92648
        47.000          34.500  
  24612550.094 5      2946.667 5  -2424548.388 5  -1866331.79846  24612545.79346
        41.500          25.000  
  24193948.867 6      3727.283 6  -7334792.425 6  -5702630.84345  24193942.16445
        42.750          18.250  
  21846806.055 7     -1839.312 7   2734212.752 7   2132015.64548  21846797.88748
        48.500          38.000  
  24782181.992 3     -2149.988 3    447816.295 3                
        36.250  
  20612895.344 7       229.890 7  -1244232.611 7   -955013.00948  20612885.65248
        48.500          41.000  
  20592923.531 7      -373.893 7     69671.006 7     63148.52848  20592914.01648
        51.250          41.000  
  21632436.969 7      1829.833 7  -4724615.218 7  -3650675.68248  21632426.39848
        49.000          38.000  
  24335449.469 5     -3652.586 5   7278758.918 5   5651414.31546  24335439.71946
        42.000          20.750  
  24218623.133 4      1509.259 4  -4711366.115 4  -4275227.23046  24218617.83646
        37.500          22.000  
  24150463.953 5     -3736.417 5   8116986.464 5   6297603.79947  24150459.65247
        41.500          28.250  
 11  3 23 16 22  0.0000000  0 12G03G06G09G14G15G16G18G21G22G26G27G29
  22390120.297 6      1854.563 6  -5388809.710 6  -4158022.54547  22390111.60247
        42.750          30.000  
  22214990.094 6      1456.720 6  -4431183.169 6  -3421709.86747  22214981.80947
        47.000          33.250  
  24604145.328 5      2944.415 5  -2468714.609 5  -1900747.02646  24604140.96946
        41.250          22.750  
  24183313.336 6      3726.038 6  -7390682.991 6  -5746181.86946  24183306.63346
        42.500          19.750  
  21852079.742 7     -1847.650 7   2761927.496 7   2153611.53448  21852071.16448
        48.500          38.000  
  24788330.133 3     -2153.960 3    480125.699 3                
        35.750  
  20612252.875 7       225.066 7  -1247608.595 7   -957643.65048  20612242.94948
        49.500          40.750  
  20594007.383 7      -379.624 7     75365.370 7     67585.67648  20593997.57448
        51.000          41.000  
  21627226.719 6      1825.347 6  -4751995.416 6  -3672010.88348  21627215.91448
        47.000          38.000  
  24345889.938 6     -3657.420 6   7333620.218 6   5694163.37646  24345880.30546
        45.000          25.000  
  24214330.117 4      1503.722 4  -4733921.945 4  -4292803.16246  24214325.81646
        39.000          22.000  
  24161133.172 5     -3737.740 5   8173052.560 5   6341291.55547  24161128.34447
        41.250          28.000  
 11  3 23 16 22 15.0000000  0 12G03G06G09G14G15G16G18G21G22G26G27G29
  22384851.414 6      1845.895 6  -5416498.131 6  -4179597.94347  22384843.01247
        42.500          29.750  
  22210855.594 6      1448.519 6  -4452910.956 6  -3438640.62247  22210847.25047
        47.500          33.250  
  24595746.492 5      2942.120 5  -2512846.408 5  -1935135.40046  24595742.83646
        41.000          24.250  
  24172681.445 5      3724.753 5  -7446554.288 5  -5789717.85746  24172674.39146
        42.250          20.000  
  21857377.125 7     -1855.992 7   2789767.382 7   2175304.94148  21857368.78148
        49.000          37.500  
  24794489.867 3     -2157.916 3    512494.444 3                
        37.000  
  20611624.055 7       220.227 7  -1250911.993 7   -960217.72248  20611614.53948
        48.500          41.000  
  20595107.234 7      -385.403 7     81146.419 7     72090.37748  20595097.25048
        51.250          40.750  
  21622029.250 6      1820.848 6  -4779308.141 6  -3693293.51548  21622018.79748
        46.750          38.750  
  24356343.039 5     -3662.255 5   7388554.050 5   5736968.90846  24356334.46146
        41.000          22.250  
  24210055.195 5      1498.147 5  -4756394.148 5  -4310313.90846  24210049.31346
        42.000          22.500  
  24171806.102 5     -3739.047 5   8229138.263 5   6384994.59447  24171800.92247
        40.500          27.250  
 11  3 23 16 22 30.0000000  0 12G03G06G09G14G15G16G18G21G22G26G27G29
  22379606.594 6      1837.222 6  -5444056.468 6  -4201071.97447  22379598.30947
        42.750          30.250  
  22206744.500 7      1440.308 7  -4474515.577 7  -3455475.39748  22206736.15648
        47.750          33.750  
  24587355.000 5      2939.797 5  -2556943.357 5  -1969496.64146  24587351.22746
        40.750          22.750  
  24162053.203 5      3723.452 5  -7502406.063 5  -5833238.62646  24162046.14846
        42.000          19.500  
  21862698.641 7     -1864.306 7   2817731.973 7   2197095.52448  21862690.64848
        48.000          37.500  
  24800660.586 3     -2161.848 3    544922.160 3                
        37.000  
  20611009.664 7       215.403 7  -1254143.040 7   -962735.43048  20610999.97348
        49.750          41.000  
  20596223.891 7      -391.151 7     87013.681 7     76662.25848  20596214.31648
        51.000          41.000  
  21616844.781 7      1816.345 7  -4806553.321 7  -3714523.51048  21616834.15248
        48.250          37.750  
  24366807.297 5     -3667.067 5   7443560.056 5   5779830.66246  24366800.82846
        40.250          19.750  
  24205794.711 5      1492.558 5  -4778782.526 5  -4327759.36046  24205789.29746
        41.250          22.500  
  24182482.109 5     -3740.332 5   8285243.248 5   6428712.66546  24182477.98446
        39.750          26.250  
 11  3 23 16 22 45.0000000  0 12G03G06G09G14G15G16G18G21G22G26G27G29
  22374387.383 6      1828.493 6  -5471483.857 6  -4222443.97147  22374379.15647
        44.000          30.500  
  22202656.867 7      1432.033 7  -4495996.075 7  -3472213.45048  22202648.64148
        47.750          34.000  
  24578970.469 5      2937.395 5  -2601004.276 5  -2003829.82046  24578967.63346
        40.000          23.000  
  24151428.961 5      3722.085 5  -7558237.331 5  -5876743.44346  24151421.49646
        40.750          20.500  
  21868044.125 7     -1872.658 7   2845821.839 7   2218983.71548  21868035.60548
        48.750          37.500  
  24806843.000 3     -2165.816 3    577409.393 3                
        36.500  
  20610408.172 7       210.531 7  -1257301.008 7   -965196.18649  20610398.65649
        49.250          41.500  
  20597356.859 7      -396.957 7     92968.038 7     81301.99748  20597347.16848
        50.750          41.000  
  21611673.305 7      1811.804 7  -4833730.381 7  -3735700.42048  21611662.32448
        48.500          37.750  
  24377288.922 5     -3671.879 5   7498638.247 5   5822748.76746  24377281.98446
        40.000          21.500  
  24201549.133 5      1486.901 5  -4801086.041 5  -4345138.68546  24201544.42246
        41.250          22.250  
  24193163.000 5     -3741.639 5   8341367.838 5   6472445.98446  24193158.17246
        39.750          25.500  
 11  3 23 16 23  0.0000000  0 12G03G06G09G14G15G16G18G21G22G26G27G29
  22369192.930 6      1819.824 6  -5498781.211 6  -4243714.63947  22369184.41047
        45.500          30.500  
  22198592.406 6      1423.827 6  -4517353.486 6  -3488855.59648  22198584.70748
        47.500          35.000  
  24570591.906 5      2935.040 5  -2645029.870 5  -2038135.46746  24570589.12946
        40.000          22.500  
  24140808.625 5      3720.769 5  -7614048.868 5  -5920232.86846  24140801.04346
        40.500          20.000  
  21873413.094 7     -1880.911 7   2874035.506 7   2240968.38448  21873404.39848
        48.500          38.000  
  24813037.172 3     -2169.687 3    609954.698 3                
        37.250  
  20609821.063 7       205.742 7  -1260387.142 7   -967600.96949  20609811.31349
        49.000          41.500  
  20598506.398 7      -402.717 7     99008.787 7     86009.06148  20598496.94148
        51.500          41.000  
  21606514.141 7      1807.318 7  -4860840.144 7  -3756824.90448  21606503.57048
        49.000          38.250  
  24387779.438 2     -3676.594 2   7553787.150 2   5865721.88846  24387777.65646
        34.000          20.250  
  24197322.352 6      1481.300 6  -4823305.537 6  -4362452.49846  24197316.41046
        43.000          22.500  
  24203845.383 3     -3742.864 3   8397510.792 3   6516193.64547  24203842.43047
        36.750          26.750  
 11  3 23 16 23 15.0000000  0 12G03G06G09G14G15G16G18G21G22G26G27G29
  22364023.625 6      1811.055 6  -5525947.042 6  -4264882.81747  22364015.16447
        45.750          29.250  
  22194552.227 7      1415.533 7  -4538586.477 7  -3505400.78748  22194543.88348
        48.250          33.750  
  24562221.680 5      2932.582 5  -2689018.597 5  -2072412.37546  24562218.25846
        40.750          22.500  
  24130191.570 5      3719.364 5  -7669839.335 5  -5963705.83946  24130184.51646
        40.000          21.500  
  21878805.125 7     -1889.216 7   2902373.743 7   2263050.11648  21878796.89848
        48.250          37.000  
  24819240.805 4     -2173.600 4    642558.693 4                
        38.000  
  20609247.797 7       200.891 7  -1263400.504 7   -969949.04348  20609238.04748
        48.750          41.000  
  20599672.742 7      -408.546 7    105136.980 7     90784.26448  20599662.81648
        50.750          40.750  
  21601368.516 7      1802.779 7  -4887881.822 7  -3777896.31948  21601357.24248
        50.000          38.000  
  24398287.91412     -3681.30812   4458167.86012   3453550.77755  24398286.30955
        34.750          18.500  
  24193109.633 5      1475.608 5  -4845439.658 5  -4379699.82446  24193103.80946
        42.000          22.000  
  24214533.328 4     -3744.139 4   8453672.878 4   6559956.17046  24214529.37946
        38.500          24.750  
 11  3 23 16 23 30.0000000  0 12G03G06G09G14G15G16G18G21G22G26G27G29
  22358878.180 6      1802.375 6  -5552982.675 6  -4285949.54947  22358870.48047
        45.750          30.500  
  22190535.398 7      1407.318 7  -4559696.249 7  -3521849.96948  22190527.23048
        48.000          34.000  
  24553858.391 5      2930.188 5  -2732971.414 5  -2106661.32046  24553854.67646
        41.500          22.500  
  24119578.383 4      3718.034 4  -7725609.845 4  -6007163.29646  24119572.03146
        39.000          20.000  
  21884221.563 7     -1897.417 7   2930834.995 7   2285227.70548  21884212.98448
        49.250          37.250  
  24825456.234 4     -2177.395 4    675219.621 4                
        37.750  
  20608687.742 7       196.130 7  -1266342.460 7   -972241.47948  20608678.46148
        49.000          41.000  
  20600855.078 7      -414.286 7    111351.271 7     95626.55348  20600845.62148
        50.750          41.000  
  21596235.555 7      1798.324 7  -4914856.683 7  -3798915.68348  21596224.34048
        49.750          38.500  
  24408812.227 4     -3686.002 4   4513457.895 4   3496633.94046  24408806.52046
        38.500          20.500  
  24188913.969 5      1469.988 5  -4867489.479 5  -4396881.47046  24188908.08646
        41.500          22.500  
  24225224.547 4     -3745.294 4   8509852.295 4   6603732.21246  24225220.12946
        38.000          25.000  
 11  3 23 16 23 45.0000000  0 12G03G06G09G14G15G16G18G21G22G26G27G29
  22353759.063 6      1793.639 6  -5579887.255 6  -4306914.16047  22353750.71947
        45.250          31.000  
  22186541.750 7      1399.057 7  -4580682.105 7  -3538202.58148  22186533.40648
        49.000          34.250  
  24545501.969 5      2927.728 5  -2776887.327 5  -2140881.49946  24545497.43446
        41.500          22.500  
  24108969.367 4      3716.635 4  -7781359.377 4  -6050604.40246  24108963.48446
        38.250          19.250  
  21889661.109 7     -1905.641 7   2959419.608 7   2307501.42348  21889652.41448
        49.000          37.250  
  24831681.234 4     -2181.206 4    707937.716 4                
        37.750  
  20608141.805 7       191.336 7  -1269212.493 7   -974477.86848  20608132.28948
        49.500          40.750  
  20602054.273 7      -420.080 7    117652.477 7    100536.56949  20602044.64149
        50.750          41.500  
  21591114.898 7      1793.828 7  -4941764.105 7  -3819882.49148  21591104.03548
        49.500          38.250  
  24419345.320 1     -3690.665 1   4568817.876 1   3539771.51745  24419341.19545
        33.000          18.500  
  24184734.969 6      1464.311 6  -4889454.149 6  -4413996.72146  24184728.50046
        42.500          22.500  
  24235917.172 3     -3746.481 3   8566049.511 3   6647522.14146  24235914.10246
        36.500          22.500  
 11  3 23 16 24  0.0000000  0 12G03G06G09G14G15G16G18G21G22G26G27G29
  22348663.891 6      1784.948 6  -5606661.482 6  -4327777.19847  22348655.78147
        45.500          30.500  
  22182571.570 7      1390.850 7  -4601544.863 7  -3554459.28948  22182563.63748
        48.750          34.000  
  24537151.813 5      2925.303 5  -2820766.872 5  -2175073.36846  24537146.92646
        41.250          22.000  
  24098364.578 4      3715.288 4  -7837088.696 4  -6094029.74446  24098358.34446
        37.750          20.000  
  21895123.875 7     -1913.772 7   2988126.187 7   2329870.17748  21895115.23848
        48.000          37.250  
  24837919.461 4     -2184.923 4    740711.553 4                
        38.500  
  20607608.914 7       186.614 7  -1272011.700 7   -976659.07248  20607599.10548
        49.500          41.000  
  20603269.945 7      -425.817 7    124039.728 7    105513.63048  20603260.07848
        51.250          40.750  
  21586007.406 7      1789.409 7  -4968605.241 7  -3840797.64948  21585996.48448
        49.750          38.500  
  24429897.977 5     -3695.230 5   4624246.327 5   3582962.45946  24429888.75446
        41.000          20.000  
  24180570.641 5      1458.676 5  -4911334.292 5  -4431046.15846  24180564.34846
        42.000          22.000  
  24246616.406 4     -3747.558 4   8622262.885 4   6691324.61546  24246610.93446
        38.500          22.750  
 11  3 23 16 24 15.0000000  0 12G03G06G09G14G15G16G18G21G22G26G27G29
  22343594.180 6      1776.156 6  -5633303.819 6  -4348537.47347  22343585.95347
        45.000          31.500  
  22178625.063 7      1382.540 7  -4622282.960 7  -3570618.85048  22178616.95348
        48.500          33.750  
  24528809.094 5      2922.764 5  -2864608.334 5  -2209235.54646  24528804.44146
        41.250          22.250  
  24087764.148 3      3713.831 3  -7892796.167 3  -6137438.07946  24087757.32846
        37.250          20.000  
  21900609.734 7     -1921.977 7   3016955.836 7   2352334.82548  21900601.44948
        49.250          37.000  
  24844166.297 4     -2188.702 4    773542.078 4                
        38.000  
  20607090.180 7       181.808 7  -1274738.813 7   -978784.09048  20607080.54748
        48.500          41.000  
  20604502.039 7      -431.639 7    130514.315 7    110558.75249  20604491.70349
        51.000          41.500  
  21580912.625 7      1784.887 7  -4995378.545 7  -3861659.95348  21580901.46948
        49.500          38.000  
  24440458.805 5     -3699.842 5   4679743.958 5   3626207.37746  24440449.46546
        41.250          21.500  
  24176423.398 5      1452.941 5  -4933128.402 5  -4448028.48246  24176417.34046
        41.500          21.750  
  24257315.852 4     -3748.714 4   8678493.598 4   6735140.63846  24257312.02046
        38.000          22.000  
 11  3 23 16 24 30.0000000  0 12G03G06G09G14G15G16G18G21G22G26G27G29
  22338549.383 6      1767.367 6  -5659814.319 6  -4369195.00047  22338540.86347
        43.750          30.250  
  22174702.352 7      1374.238 7  -4642896.529 7  -3586681.38348  22174694.24248
        48.000          34.000  
  24520473.375 5      2920.228 5  -2908411.749 5  -2243368.09546  24520468.89846
        40.750          22.000  
  24077167.148 3      3712.373 3  -7948481.755 3  -6180829.33546  24077160.85546
        37.250          21.500  
  21906119.242 6     -1930.148 6   3045908.052 6   2374894.98148  21906110.37148
        47.250          37.250  
  24850424.164 4     -2192.436 4    806428.616 4                
        38.250  
  20606584.773 7       177.031 7  -1277394.273 7   -980853.27948  20606575.02348
        49.000          40.750  
  20605750.508 7      -437.450 7    137076.062 7    115671.78548  20605740.58248
        51.250          41.000  
  21575830.313 7      1780.399 7  -5022084.527 7  -3882469.80048  21575819.56648
        48.750          38.500  
  24451030.773 2     -3704.422 2   4735310.285 2   3669505.77545  24451023.42645
        35.500          18.250  
  24172293.258 5      1447.198 5  -4954836.379 5  -4464943.71646  24172286.43846
        42.250          22.500  
  24268018.563 3     -3749.836 3   8734741.144 3   6778969.77946  24268015.49246
        36.250          23.000  
 11  3 23 16 24 45.0000000  0 12G03G06G09G14G15G16G18G21G22G26G27G29
  22333529.750 6      1758.557 6  -5686192.669 6  -4389749.56647  22333521.34847
        43.000          30.500  
  22170803.672 6      1365.907 6  -4663385.132 6  -3602646.52848  22170795.68048
        47.500          34.250  
  24512144.820 5      2917.634 5  -2952176.259 5  -2277470.34646  24512140.52046
        42.000          21.500  
  24066575.258 3      3710.876 3  -8004144.895 3  -6224203.08246  24066568.20346
        35.750          21.750  
  21911652.172 7     -1938.318 7   3074982.824 7   2397550.64148  21911643.82848
        48.500          37.750  
  24856693.125 5     -2196.168 5    839371.131 5                
        39.500  
  20606092.953 7       172.250 7  -1279978.017 7   -982866.58048  20606083.43848
        49.500          40.500  
  20607015.828 7      -443.286 7    143725.346 7    120853.02648  20607005.96148
        51.250          40.500  
  21570761.375 7      1775.881 7  -5048722.746 7  -3903226.84448  21570750.27748
        48.750          38.000  
  24461618.867 4     -3708.988 4   4790945.110 4   3712857.52646  24461610.64146
        39.000          20.000  
  24168176.922 5      1441.426 5  -4976457.765 5  -4481791.50846  24168172.03546
        40.000          22.250  
  24278726.305 4     -3750.946 4   8791005.329 4   6822811.85946  24278721.77046
        38.500          22.500  
 11  3 23 16 25  0.0000000  0 12G03G06G09G14G15G16G18G21G22G26G27G29
  22328535.086 5      1749.740 5  -5712438.776 5  -4410201.08347  22328527.15247
        42.000          30.500  
  22166928.664 7      1357.579 7  -4683748.812 7  -3618514.34048  22166920.26248
        47.750          34.000  
  24503825.344 5      2915.020 5  -2995901.557 5  -2311541.98946  24503820.34046
        40.750          22.000  
  24055987.148 3      3709.369 3  -8059785.436 3  -6267559.23846  24055980.15246
        36.750          21.000  
  21917207.789 7     -1946.449 7   3104179.555 7   2420301.32748  21917199.56348
        48.500          37.500  
  24862972.523 4     -2199.857 4    872368.985 4                
        39.000  
  20605615.242 7       167.484 7  -1282490.279 7   -984824.18048  20605604.90648
        49.500          40.000  
  20608297.922 7      -449.118 7    150462.120 7    126102.44848  20608288.05548
        51.000          40.750  
  21565705.180 7      1771.385 7  -5075293.526 7  -3923931.33648  21565694.02348
        48.000          38.000  
  24472217.578 4     -3713.501 4   4846647.627 4   3756262.05646  24472210.93446
        38.000          21.250  
  24164079.539 5      1435.648 5  -4997992.485 5  -4498571.72846  24164073.71546
        40.250          21.500  
  24289436.875 5     -3752.029 5   8847285.766 5   6866666.62846  24289432.16446
        39.750          22.000  
 11  3 23 16 25 15.0000000  0 12G03G06G09G14G15G16G18G21G22G26G27G29
  22323566.625 5      1740.854 5  -5738551.579 5  -4430548.73547  22323557.87147
        42.250          31.250  
  22163077.797 7      1349.181 7  -4703986.521 7  -3634283.98148  22163069.39548
        48.500          34.000  
  24495512.414 5      2912.329 5  -3039586.497 5  -2345582.22446  24495507.76246
        41.000          22.000  
  24045403.039 4      3707.787 4  -8115402.237 4  -6310896.89146  24045396.98046
        38.000          21.750  
  21922787.352 7     -1954.628 7   3133498.975 7   2443147.62148  21922778.94948
        48.000          37.500  
  24869262.086 4     -2203.579 4    905422.676 4                
        38.750  
  20605150.977 7       162.667 7  -1284930.276 7   -986725.48148  20605141.40248
        49.000          40.500  
  20609596.602 7      -455.016 7    157287.353 7    131420.79448  20609586.67648
        51.000          41.000  
  21560662.211 7      1766.836 7  -5101796.061 7  -3944582.64648  21560651.23048
        48.000          38.000  
  24482826.922 1     -3718.068 1   4902418.654 1   3799719.94445  24482823.79345
        31.500          16.750  
  24159997.492 5      1429.792 5  -5019439.363 5  -4515283.53546  24159992.19546
        40.500          21.500  
  24300149.820 5     -3753.141 5   8903582.880 5   6910534.38846  24300145.52046
        40.000          22.750  
 11  3 23 16 25 30.0000000  0 12G03G06G09G14G15G16G18G21G22G26G27G29
  22318622.078 6      1732.042 6  -5764532.210 6  -4450793.38547  22318614.02747
        43.750          31.000  
  22159250.250 7      1340.865 7  -4724099.490 7  -3649956.44148  22159242.25848
        47.750          33.750  
  24487205.063 5      2909.705 5  -3083232.074 5  -2379591.77546  24487201.34846
        39.750          21.500  
  24034823.734 4      3706.278 4  -8170996.412 4  -6354216.98246  24034817.20746
        38.750          22.500  
  21928389.766 7     -1962.685 7   3162939.243 7   2466088.07248  21928381.01248
        49.000          37.500  
  24875562.273 4     -2207.189 4    938530.512 4                
        38.250  
  20604699.750 7       157.950 7  -1287299.525 7   -988571.64548  20604690.35248
        49.500          40.750  
  20610911.820 7      -460.816 7    164199.599 7    136806.94048  20610902.12948
        50.500          40.750  
  21555631.438 7      1762.377 7  -5128231.718 7  -3965181.85148  21555620.39848
        49.250          38.500  
  24493455.563 4     -3722.483 4   4958255.897 4   3843229.42146  24493449.15246
        39.000          19.750  
  24155932.898 5      1424.010 5  -5040799.515 5  -4531927.77046  24155927.66046
        40.000          21.500  
  24310865.695 5     -3754.141 5   8959894.993 5   6954413.82746  24310861.16046
        40.500          22.500  
 11  3 23 16 25 45.0000000  0 12G03G06G09G14G15G16G18G21G22G26G27G29
  22313703.570 6      1723.181 6  -5790379.931 6  -4470934.46747  22313695.81347
        46.000          30.750  
  22155446.234 7      1332.520 7  -4744087.284 7  -3665531.35348  22155438.35948
        48.000          34.000  
  24478908.836 5      2907.011 5  -3126837.245 5  -2413569.80846  24478903.42246
        41.500          21.500  
  24024248.758 4      3704.727 4  -8226567.323 4  -6397518.88246  24024242.23046
        38.750          22.500  
  21934015.258 7     -1970.754 7   3192500.554 7   2489122.85248  21934006.27048
        48.000          37.500  
  24881872.977 4     -2210.803 4    971692.551 4                
        38.500  
  20604262.695 7       153.204 7  -1289597.580 7   -990362.34048  20604252.53548
        48.000          40.750  
  20612244.203 7      -466.658 7    171199.467 7    142261.36548  20612234.51248
        51.500          40.750  
  21550613.570 7      1757.885 7  -5154599.995 7  -3985728.54748  21550602.35548
        50.000          38.500  
  24504092.969 3     -3726.922 3   5014159.730 3   3886790.78646  24504087.67246
        36.250          21.750  
  24151886.148 5      1418.181 5  -5062072.231 5  -4548503.85346  24151879.68046
        40.750          20.500  
  24321584.383 5     -3755.162 5   9016222.429 5   6998305.21746  24321579.67246
        41.000          22.750  
 11  3 23 16 26  0.0000000  0 12G03G06G09G14G15G16G18G21G22G26G27G29
  22308809.797 6      1714.327 6  -5816094.835 6  -4490972.05547  22308802.33247
        46.500          31.000  
  22151667.016 7      1324.148 7  -4763949.504 7  -3681008.41548  22151659.02348
        48.250          34.250  
  24470618.633 5      2904.296 5  -3170401.677 5  -2447516.10446  24470613.45346
        40.750          20.750  
  24013678.828 5      3703.150 5  -8282114.566 5  -6440802.36746  24013672.35946
        39.250          22.750  
  21939663.070 7     -1978.812 7   3222182.728 7   2512251.80748  21939654.66848
        48.500          37.500  
  24888194.445 4     -2214.383 4   1004908.293 4                
        38.000  
  20603839.086 7       148.470 7  -1291824.635 7   -992097.70948  20603829.16048
        49.500          41.250  
  20613592.805 7      -472.510 7    178287.112 7    147784.19148  20613582.70348
        51.500          40.500  
  21545608.859 7      1753.385 7  -5180900.771 7  -4006222.64848  21545598.05548
        49.500          38.500  
  24514745.992 4     -3731.319 4   5070129.515 4   3930403.50345  24514737.76645
        39.000          18.500  
  24147854.367 5      1412.335 5  -5083257.255 5  -4565011.62246  24147848.48446
        39.750          22.000  
  24332305.625 5     -3756.153 5   9072564.725 5   7042208.20646  24332301.44146
        42.000          23.250  
 11  3 23 16 26 15.0000000  0 12G03G06G09G14G15G16G18G21G22G26G27G29
  22303941.906 6      1705.463 6  -5841676.777 6  -4510906.03047  22303934.32447
        45.750          30.500  
  22147911.484 7      1315.806 7  -4783686.594 7  -3696387.96648  22147903.02348
        47.750          35.000  
  24462336.117 5      2901.569 5  -3213925.218 5  -2481430.53346  24462331.17246
        41.250          20.750  
  24003112.758 5      3701.566 5  -8337638.050 5  -6484067.33646  24003106.23046
        40.750          24.000  
  21945334.695 7     -1986.833 7   3251985.227 7   2535474.51448  21945326.29348
        48.250          37.000  
  24894524.570 5     -2217.930 5   1038177.240 5                
        39.250  
  20603428.211 7       143.759 7  -1293981.025 7   -993778.01648  20603418.75448
        48.750          41.000  
  20614958.281 7      -478.352 7    185462.399 7    153375.30648  20614948.59048
        51.500          41.000  
  21540616.703 7      1748.910 7  -5207134.414 7  -4026664.42848  21540605.78148
        50.000          38.500  
  24525409.484 5     -3735.673 5   5126164.607 5   3974067.26746  24525401.14146
        41.500          21.500  
  24143839.695 5      1406.480 5  -5104354.462 5  -4581450.94646  24143833.46146
        41.500          21.750  
  24343030.484 6     -3757.102 6   9128921.252 6   7086122.26246  24343025.36346
        42.500          24.000  
 11  3 23 16 26 30.0000000  0 12G03G06G09G14G15G16G18G21G22G26G27G29
  22299099.727 6      1696.557 6  -5867125.127 6  -4530735.92447  22299091.03147
        45.500          31.000  
  22144178.992 6      1307.411 6  -4803297.756 6  -3711669.40148  22144171.23448
        47.000          34.500  
  24454062.719 5      2898.784 5  -3257406.971 5  -2515312.39246  24454056.71946
        41.000          20.000  
  23992551.688 5      3699.925 5  -8393136.918 5  -6527313.15746  23992545.10246
        40.500          25.000  
  21951028.516 7     -1994.858 7   3281908.092 7   2558791.02248  21951020.23048
        48.250          37.000  
  24900865.281 4     -2221.469 4   1071499.274 4                
        39.000  
  20603031.805 7       139.032 7  -1296066.498 7   -995403.05748  20603022.11348
        48.750          41.000  
  20616340.688 7      -484.225 7    192725.774 7    159035.05748  20616330.58648
        51.250          40.500  
  21535637.164 7      1744.412 7  -5233300.600 7  -4047053.66648  21535626.24248
        49.750          38.500  
  24536086.516 4     -3740.033 4   5182265.095 4   4017781.85146  24536076.76646
        38.500          21.000  
  24139842.750 4      1400.578 4  -5125363.134 4  -4597821.32146  24139835.98846
        38.750          21.500  
  24353757.789 6     -3758.061 6   9185292.168 6   7130047.52046  24353752.90246
        42.750          22.750  
 11  3 23 16 26 45.0000000  0 12G03G06G09G14G15G16G18G21G22G26G27G29
  22294282.578 6      1687.631 6  -5892439.595 6  -4550461.49147  22294274.11747
        43.000          30.500  
  22140471.609 6      1298.970 6  -4822782.301 6  -3726852.17348  22140463.26648
        47.500          34.500  
  24445794.344 5      2895.962 5  -3300846.396 5  -2549161.26546  24445790.57046
        39.250          19.750  
  23981995.211 5      3698.251 5  -8448610.685 5  -6570539.39446  23981989.21146
        42.000          25.500  
  21956745.836 7     -2002.881 7   3311951.308 7   2582201.30148  21956737.19948
        49.000          37.250  
  24907216.961 4     -2225.006 4   1104874.367 4                
        39.000  
  20602648.328 7       134.288 7  -1298080.824 7   -996972.65649  20602638.81349
        49.000          41.500  
  20617739.438 7      -490.123 7    200077.618 7    164763.75148  20617730.27348
        51.000          40.750  
  21530670.891 7      1739.898 7  -5259399.073 7  -4067390.12548  21530660.20348
        48.750          38.500  
  24546773.727 6     -3744.385 6   5238430.868 6   4061547.30046  24546765.09046
        43.000          21.250  
  24135861.016 5      1394.653 5  -5146282.929 5  -4614122.40646  24135854.25446
        40.500          21.000  
  24364488.016 6     -3759.015 6   9241677.396 6   7173983.97246  24364482.71946
        43.000          22.000  
 11  3 23 16 27  0.0000000  0 12G03G06G09G14G15G16G18G21G22G26G27G29
  22289490.586 5      1678.707 5  -5917620.207 5  -4570082.74747  22289482.12547
        42.000          30.250  
  22136787.773 6      1290.564 6  -4842140.760 6  -3741936.70048  22136779.78148
        46.750          34.500  
  24437537.891 5      2893.127 5  -3344243.301 5  -2582976.99146  24437532.30146
        40.250          19.750  
  23971443.453 5      3696.604 5  -8504059.752 5  -6613746.40246  23971437.27746
        41.250          25.250  
  21962485.984 7     -2010.864 7   3342114.262 7   2605704.89248  21962477.28948
        48.000          37.250  
  24913577.789 4     -2228.480 4   1138301.565 4                
        38.000  
  20602278.359 6       129.572 6  -1300024.411 6   -998487.15448  20602269.07848
        47.000          41.250  
  20619155.125 7      -495.999 7    207517.598 7    170561.12048  20619145.49248
        50.250          41.000  
  21525717.438 7      1735.408 7  -5285430.198 7  -4087674.11248  21525706.51648
        48.000          39.000  
  24557474.063 6     -3748.657 6   5294660.723 6   4105362.84146  24557464.25446
        43.000          19.000  
  24131896.859 5      1388.724 5  -5167113.790 5  -4630354.21846  24131890.44946
        41.250          20.250  
  24375220.188 6     -3759.926 6   9298076.281 6   7217931.05546  24375214.77346
        42.500          22.750  
 11  3 23 16 27 15.0000000  0 12G03G06G09G14G15G16G18G21G22G26G27G29
  22284724.453 6      1669.753 6  -5942666.500 6  -4589599.33047  22284716.16847
        45.250          30.750  
  22133127.867 6      1282.135 6  -4861372.784 6  -3756922.69448  22133119.34848
        47.500          34.250  
  24429287.844 5      2890.245 5  -3387596.977 5  -2616758.99946  24429282.95746
        40.000          20.000  
  23960897.352 5      3694.905 5  -8559483.328 5  -6656933.54446  23960890.18046
        42.000          25.750  
  21968248.328 6     -2018.840 6   3372396.866 6   2629301.71448  21968239.69148
        47.500          37.250  
  24919948.906 5     -2231.970 5   1171781.122 5                
        39.500  
  20601922.164 7       124.851 7  -1301897.171 7   -999946.43948  20601912.47348
        49.250          41.250  
  20620587.711 7      -501.902 7    215046.132 7    176427.49448  20620577.90248
        51.000          40.500  
  21520776.641 7      1730.897 7  -5311393.656 7  -4107905.37148  21520766.01248
        49.750          38.500  
  24568184.688 3     -3752.957 3   5350955.084 3   4149228.60845  24568176.22745
        36.750          17.750  
  24127949.547 5      1382.763 5  -5187855.234 5  -4646516.35246  24127943.43046
        41.000          20.000  
  24385955.063 6     -3760.829 6   9354488.719 6   7261888.69546  24385950.23446
        43.000          22.500  
 11  3 23 16 27 30.0000000  0 12G03G06G09G14G15G16G18G21G22G26G27G29
  22279983.383 6      1660.773 6  -5967578.098 6  -4609010.97247  22279975.91847
        44.750          31.000  
  22129492.727 6      1273.669 6  -4880477.826 6  -3771809.74548  22129483.97348
        47.000          34.500  
  24421045.922 5      2887.325 5  -3430906.852 5  -2650506.89246  24421040.62546
        39.750          20.250  
  23950354.969 5      3693.166 5  -8614880.821 5  -6700100.35546  23950348.55946
        42.250          24.750  
  21974033.453 7     -2026.822 7   3402799.191 7   2652991.81348  21974025.05148
        48.250          37.250  
  24926329.789 4     -2235.438 4   1205312.698 4                
        38.500  
  20601579.414 7       120.113 7  -1303698.872 7  -1001350.36248  20601569.43048
        49.250          40.750  
  20622037.359 7      -507.830 7    222663.588 7    182363.15348  20622027.96148
        50.500          40.500  
  21515849.055 7      1726.376 7  -5337289.301 7  -4128083.77948  21515837.95748
        49.500          39.000  
  24578907.805 5     -3757.233 5   5407313.579 5   4193144.13446  24578902.50846
        40.250          21.500  
  24124019.688 5      1376.761 5  -5208506.642 5  -4662608.28046  24124014.03946
        40.500          20.250  
  24396693.320 6     -3761.736 6   9410914.763 6   7305856.93646  24396687.73046
        43.000          22.500  
 11  3 23 16 27 45.0000000  0 11G03G06G09G14G15G16G18G21G22G27G29   
  22275270.086 6      1651.456 6  -5992349.933 6  -4628313.70047  22275262.21147
        43.000          30.750  
  22125882.016 6      1264.869 6  -4899450.856 6  -3786593.93548  22125873.84848
        47.000          34.750  
  24412813.984 5      2884.055 5  -3474167.671 5  -2684216.55346  24412808.80546
        40.250          20.750  
  23939818.867 5      3691.093 5  -8670247.212 5  -6743242.95846  23939812.45746
        40.750          23.250  
  21979842.586 6     -2035.104 6   3433325.757 6   2676778.73248  21979833.94948
        47.500          37.750  
  24932721.188 4     -2239.207 4   1238900.810 4                
        37.500  
  20601250.344 7       115.058 7  -1305424.748 7  -1002695.20648  20601241.06348
        47.750          41.000  
  20623505.031 7      -514.081 7    230374.806 7    188371.88248  20623495.28148
        51.250          40.750  
  21510935.039 7      1721.525 7  -5363112.171 7  -4148205.48448  21510923.64848
        48.750          39.000  
  24120107.703 5      1370.426 5  -5229063.027 5  -4678626.23146  24120101.99646
        40.500          20.500  
  24407433.781 6     -3762.941 6   9467358.875 6   7349839.25946  24407428.89546
        43.000          22.750  
 11  3 23 16 28  0.0000000  0 11G03G06G09G14G15G16G18G21G22G27G29   
  22270580.789 6      1642.815 6  -6016992.158 6  -4647515.44147  22270572.32847
        44.500          31.500  
  22122294.867 7      1256.765 7  -4918302.326 7  -3801283.40048  22122286.23048
        48.000          34.250  
  24404588.945 4      2881.455 4  -3517389.492 4  -2717895.77846  24404583.76646
        38.250          21.000  
  23929287.133 6      3689.678 6  -8725592.386 6  -6786369.01646  23929281.13346
        42.500          24.000  
  21985673.320 7     -2042.678 7   3463965.931 7   2700654.17048  21985664.74248
        47.750          37.500  
  24939121.719 3     -2242.261 3   1272534.725 3                
        36.750  
  20600935.047 6       110.709 6  -1307085.388 6  -1003989.20748  20600925.12148
        47.250          41.000  
  20624988.109 7      -519.650 7    238169.550 7    194445.69248  20624978.47748
        51.250          41.000  
  21506032.734 7      1717.371 7  -5388872.743 7  -4168278.64648  21506022.04748
        49.250          39.000  
  24116212.508 5      1364.752 5  -5249534.308 5  -4694577.83246  24116206.44946
        40.500          21.500  
  24418176.227 6     -3763.426 6   9523810.261 6   7393827.26046  24418171.10546
        43.000          22.500  
 11  3 23 16 28 15.0000000  0 11G03G06G09G14G15G16G18G21G22G27G29   
  22265916.531 6      1633.823 6  -6041499.503 6  -4666612.07047  22265908.94947
        43.500          30.750  
  22118731.633 6      1248.309 6  -4937026.959 6  -3815874.03548  22118722.99648
        46.750          35.000  
  24396373.391 5      2878.476 5  -3560566.637 5  -2751540.21146  24396367.74246
        39.500          20.500  
  23918760.617 5      3687.914 5  -8780911.095 5  -6829474.47746  23918754.09046
        42.250          24.500  
  21991526.414 7     -2050.559 7   3494724.319 7   2724621.73948  21991518.18848
        47.750          37.250  
  24945531.539 3     -2245.616 3   1306218.968 3                
        37.000  
  20600632.188 7       106.034 7  -1308675.891 7  -1005228.56248  20600622.61348
        48.250          41.250  
  20626488.383 7      -525.558 7    246052.922 7    200588.55548  20626478.63348
        51.000          41.250  
  21501143.625 7      1712.885 7  -5414566.022 7  -4188299.38148  21501132.82048
        49.500          39.000  
  24112333.930 5      1358.732 5  -5269915.292 5  -4710459.11446  24112327.75446
        40.750          20.750  
  24428921.563 6     -3764.225 6   9580273.632 6   7437824.58446  24428916.32446
        43.500          22.250  
 11  3 23 16 28 30.0000000  0 12G03G06G09G14G15G16G18G19G21G22G27G29
  22261278.906 6      1624.900 6  -6065873.010 6  -4685604.42147  22261270.91447
        44.500          31.000  
  22115192.000 6      1239.895 6  -4955625.387 6  -3830366.32548  22115184.18448
        46.750          34.250  
  24388164.898 4      2875.549 4  -3603699.869 4  -2785150.39746  24388159.25046
        38.500          21.500  
  23908239.266 6      3686.200 6  -8836204.102 6  -6872559.89446  23908232.03546
        42.500          25.500  
  21997401.688 7     -2058.352 7   3525599.605 7   2748680.38348  21997393.28548
        47.750          37.250  
  24951950.492 3     -2248.886 3   1339952.257 3   1400770.16855  24951940.74255
        36.500          17.750  
  20600342.789 7       101.428 7  -1310197.306 7  -1006414.08048  20600332.98048
        49.250          41.000  
  24941025.25015      3228.84415   -666599.39015   -511138.02656  24941013.91856
        41.500          22.750  
  20628005.375 7      -531.407 7    254024.020 7    206799.77948  20627995.33248
        51.000          41.000  
  21496266.977 7      1708.469 7  -5440193.060 7  -4208268.48948  21496256.40648
        49.500          39.250  
  24108472.250 5      1352.766 5  -5290206.785 5  -4726270.64546  24108467.12946
        41.000          20.000  
  24439668.242 6     -3764.947 6   9636747.830 6   7481830.36746  24439663.47346
        43.500          22.750  
 11  3 23 16 28 45.0000000  0 12G03G06G09G14G15G16G18G19G21G22G27G29
  22256666.688 6      1615.792 6  -6090109.896 6  -4704490.31547  22256658.81347
        45.250          31.250  
  22111677.789 6      1231.327 6  -4974095.288 6  -3844758.46348  22111669.38748
        47.000          34.750  
  24379965.422 4      2872.434 4  -3646786.378 4  -2818724.16946  24379960.41846
        39.000          20.000  
  23897722.000 5      3684.307 5  -8891468.706 5  -6915623.19446  23897715.12146
        42.000          24.000  
  22003299.680 7     -2066.283 7   3556593.843 7   2772831.71748  22003291.33648
        48.750          37.500  
  24958379.211 2     -2252.278 2   1373736.424 2   1427095.43745  24958371.10245
        35.250          18.250  
  20600066.867 7        96.668 7  -1311647.322 7  -1007543.96548  20600057.11748
        48.250          41.000  
  24931815.023 5      3227.034 5   -715004.896 5   -548856.60546  24931803.04746
        41.750          22.750  
  20629538.914 7      -537.420 7    262085.317 7    213081.29548  20629529.45748
        50.750          41.000  
  21491403.273 7      1703.893 7  -5465751.454 7  -4228184.10648  21491392.58648
        50.000          39.000  
  24104629.438 5      1346.624 5  -5310406.142 5  -4742010.39246  24104622.32446
        40.750          20.500  
  24450417.656 6     -3765.797 6   9693234.786 6   7525846.05946  24450412.06646
        43.500          23.750  
 11  3 23 16 29  0.0000000  0 12G03G06G09G14G15G16G18G19G21G22G27G29
  22252080.484 6      1606.753 6  -6114211.197 6  -4723270.55047  22252072.25847
        45.750          31.000  
  22108187.078 6      1222.828 6  -4992437.710 6  -3859051.26648  22108179.14548
        46.500          34.500  
  24371774.547 4      2869.366 4  -3689826.868 4  -2852262.10246  24371769.77746
        38.750          21.000  
  23887211.023 6      3682.472 6  -8946705.787 6  -6958665.05746  23887203.44146
        42.500          22.750  
  22009220.461 7     -2074.122 7   3587705.670 7   2797074.68448  22009212.35248
        48.750          37.250  
  24964817.813 2     -2255.567 2   1407569.927 2   1453459.13045  24964810.23045
        35.500          18.500  
  20599803.898 7        92.000 7  -1313027.327 7  -1008619.29348  20599794.38348
        49.000          41.000  
  24922613.328 6      3223.609 6   -763359.032 6   -586535.17446  24922602.46546
        42.500          23.250  
  20631090.172 7      -543.354 7    270235.632 7    219432.17048  20631080.53948
        50.750          40.500  
  21486552.281 7      1699.402 7  -5491242.477 7  -4248047.22748  21486541.53548
        50.000          39.000  
  24100801.219 5      1340.545 5  -5330514.315 5  -4757679.06146  24100796.15646
        39.500          20.750  
  24461168.891 6     -3766.543 6   9749732.936 6   7569870.49246  24461163.41846
        43.000          24.500  
 11  3 23 16 29 15.0000000  0 12G03G06G09G14G15G16G18G19G21G22G27G29
  22247519.797 6      1597.683 6  -6138176.449 6  -4741944.76847  22247511.68847
        45.250          31.000  
  22104720.953 6      1214.291 6  -5010652.078 6  -3873244.29048  22104713.19548
        46.250          34.750  
  24363592.688 4      2866.242 4  -3732820.505 4  -2885763.55046  24363588.50446
        38.250          20.000  
  23876704.508 5      3680.594 5  -9001914.694 5  -7001684.97046  23876697.74646
        40.750          22.750  
  22015162.781 7     -2081.972 7   3618935.246 7   2821409.39448  22015154.37948
        49.000          37.000  
  24971265.992 3     -2258.866 3   1441452.924 3   1479861.41145  24971257.94145
        36.500          18.500  
  20599555.000 7        87.314 7  -1314337.033 7  -1009639.85448  20599545.83648
        48.000          40.500  
  24913421.281 5      3220.131 5   -811661.002 5   -624173.10846  24913410.65246
        40.250          22.750  
  20632658.102 7      -549.325 7    278475.509 7    225852.83848  20632648.82048
        51.000          40.750  
  21481714.594 7      1694.886 7  -5516665.763 7  -4267857.57048  21481703.49648
        49.500          38.500  
  24096993.617 5      1334.422 5  -5350530.651 5  -4773276.18946  24096987.09046
        41.250          20.250  
  24471922.250 5     -3767.301 5   9806242.444 5   7613903.75946  24471917.53946
        42.000          24.500  
 11  3 23 16 29 30.0000000  0 12G03G06G09G14G15G16G18G19G21G22G27G29
  22242985.500 6      1588.624 6  -6162005.815 6  -4760513.11747  22242977.62547
        45.750          30.500  
  22101279.586 6      1205.769 6  -5028738.612 6  -3887337.70048  22101271.59448
        47.250          35.000  
  24355421.578 5      2863.116 5  -3775767.248 5  -2919228.38646  24355415.63746
        39.500          20.500  
  23866204.305 5      3678.722 5  -9057095.528 5  -7044683.00246  23866196.66446
        41.250          22.000  
  22021128.023 7     -2089.766 7   3650281.738 7   2845835.21148  22021119.68048
        48.250          36.750  
  24977722.648 3     -2262.103 3   1475384.470 3   1506301.54946  24977715.24246
        36.000          19.500  
  20599318.047 6        82.651 6  -1315576.800 6  -1010605.90148  20599308.35548
        47.250          41.000  
  24904239.359 5      3216.666 5   -859910.989 5   -661770.53346  24904229.72746
        41.500          23.500  
  20634243.141 7      -555.272 7    286804.587 7    232343.00948  20634233.56648
        50.500          41.000  
  21476889.594 7      1690.389 7  -5542021.601 7  -4287615.35648  21476878.37948
        50.000          39.000  
  24093202.195 5      1328.306 5  -5370455.245 5  -4788801.79346  24093195.02346
        41.750          20.250  
  24482676.891 5     -3768.011 5   9862762.603 5   7657945.34846  24482673.05946
        42.250          23.250  
 11  3 23 16 29 45.0000000  0 12G03G06G09G14G15G16G18G19G21G22G27G29
  22238476.672 6      1579.528 6  -6185698.733 6  -4778975.13747  22238468.85547
        45.000          31.250  
  22097862.023 6      1197.225 6  -5046696.982 6  -3901331.23748  22097853.50448
        47.250          35.750  
  24347258.047 5      2859.941 5  -3818666.358 5  -2952656.20146  24347252.39846
        39.750          21.500  
  23855709.180 5      3676.807 5  -9112247.640 5  -7087658.63846  23855701.77346
        40.500          21.750  
  22027115.461 7     -2097.566 7   3681745.221 7   2870352.19348  22027106.88348
        48.500          37.250  
  24984189.156 3     -2265.343 3   1509364.618 3   1532779.50545  24984181.39845
        36.250          18.250  
  20599096.086 6        77.985 6  -1316746.578 6  -1011517.41548  20599086.16048
        47.250          40.750  
  24895067.383 5      3213.169 5   -908108.519 5   -699327.07446  24895057.86746
        39.500          22.500  
  20635845.195 7      -561.242 7    295223.219 7    238902.96648  20635835.56348
        50.250          40.500  
  21472077.539 7      1685.877 7  -5567309.752 7  -4307320.39848  21472066.20748
        49.500          38.750  
  24089427.727 5      1322.150 5  -5390287.489 5  -4804255.45846  24089421.90246
        40.500          20.750  
  24493433.820 5     -3768.727 5   9919293.504 5   7701995.30246  24493430.22346
        41.500          24.250  
 11  3 23 16 30  0.0000000  0 12G03G06G09G14G15G16G18G19G21G22G27G29
  22233994.008 6      1570.451 6  -6209255.495 6  -4797331.06047  22233985.95747
        46.250          31.000  
  22094469.078 6      1188.678 6  -5064527.145 6  -3915224.88148  22094460.79348
        47.250          34.750  
  24339104.734 5      2856.773 5  -3861517.957 5  -2986046.89946  24339097.73846
        40.750          22.000  
  23845220.188 5      3674.895 5  -9167371.059 5  -7130611.92646  23845212.43046
        41.000          21.000  
  22033124.789 7     -2105.323 7   3713325.064 7   2894959.84748  22033116.62148
        48.500          37.250  
  24990664.797 3     -2268.540 3   1543392.723 3   1559294.86646  24990657.09846
        36.000          19.750  
  20598886.734 7        73.345 7  -1317846.746 7  -1012374.69648  20598876.86748
        49.250          40.750  
  24885905.383 4      3209.664 4   -956253.474 4   -736842.65046  24885895.98446
        37.500          21.750  
  20637464.117 7      -567.197 7    303731.168 7    245532.52048  20637454.30948
        50.750          40.500  
  21467277.914 7      1681.387 7  -5592530.556 7  -4326972.94948  21467267.46148
        49.750          39.000  
  24085670.820 5      1316.004 5  -5410027.548 5  -4819637.31046  24085665.69946
        41.000          20.500  
  24504193.438 5     -3769.390 5   9975834.359 5   7746053.00546  24504190.13346
        40.500          24.000  
 11  3 23 16 30 15.0000000  0 12G03G06G09G14G15G16G18G19G21G22G27G29
  22229537.047 6      1561.365 6  -6232675.964 6  -4815580.77447  22229529.28947
        46.500          31.000  
  22091100.297 6      1180.150 6  -5082229.399 6  -3929018.85448  22091092.53948
        46.250          35.000  
  24330958.781 5      2853.588 5  -3904321.782 5  -3019400.43246  24330952.66446
        39.500          22.500  
  23834735.234 4      3672.975 4  -9222465.678 4  -7173542.82246  23834727.94546
        39.000          20.250  
  22039156.297 7     -2113.046 7   3745020.758 7   2919657.76848  22039147.66048
        48.500          36.750  
  24997149.008 3     -2271.703 3   1577468.261 3   1585847.16746  24997141.77746
        36.500          19.500  
  20598690.906 7        68.720 7  -1318877.548 7  -1013177.92048  20598681.09848
        49.000          40.750  
  24876753.844 3      3206.153 3  -1004345.773 3   -774317.17346  24876744.15246
        36.750          23.000  
  20639100.250 7      -573.156 7    312328.507 7    252231.73248  20639090.67648
        50.250          41.000  
  21462491.180 7      1676.910 7  -5617684.203 7  -4346573.18248  21462480.66848
        50.000          39.000  
  24081933.477 5      1309.844 5  -5429675.210 5  -4834947.13846  24081926.83246
        41.500          21.000  
  24514955.219 5     -3770.025 5  10032384.729 5   7790118.12846  24514950.74246
        40.750          22.750  
 11  3 23 16 30 30.0000000  0 12G03G06G09G14G15G16G18G19G21G22G27G29
  22225106.992 6      1552.215 6  -6255959.192 6  -4833723.54547  22225099.17647
        45.750          30.750  
  22087756.484 6      1171.544 6  -5099802.559 6  -3942712.22848  22087748.60948
        46.500          35.500  
  24322820.664 5      2850.312 5  -3947076.464 5  -3052715.67346  24322816.53946
        39.250          22.000  
  23824256.141 5      3670.964 5  -9277530.146 5  -7216450.17746  23824249.20346
        39.500          20.250  
  22045210.133 7     -2120.812 7   3776832.932 7   2944446.45248  22045201.49648
        48.750          36.750  
  25003642.320 2     -2274.885 2   1611591.536 2   1612436.65445  25003635.44145
        35.000          18.500  
  20598508.148 7        64.040 7  -1319838.143 7  -1013926.44748  20598498.45748
        48.250          40.750  
  24867613.523 3      3202.560 3  -1052384.174 3   -811749.69846  24867601.84046
        36.250          21.750  
  20640753.672 7      -579.180 7    321016.213 7    259001.35248  20640743.80548
        51.000          41.000  
  21457718.148 7      1672.375 7  -5642769.835 7  -4366120.41648  21457707.10948
        50.750          39.000  
  24078211.234 5      1303.611 5  -5449229.380 5  -4850184.18646  24078205.46946
        39.750          19.750  
  24525718.961 5     -3770.697 5  10088945.184 5   7834191.09346  24525714.30946
        41.500          24.500  
 11  3 23 16 30 45.0000000  0 12G03G06G09G14G15G16G18G19G21G22G27G29
  22220701.516 6      1543.114 6  -6279105.908 6  -4851759.95847  22220694.22747
        46.500          31.500  
  22084436.430 7      1162.992 7  -5117247.447 7  -3956305.65848  22084428.55548
        47.750          34.750  
  24314692.148 3      2847.069 3  -3989782.497 3  -3085993.02846  24314689.89846
        37.000          22.250  
  23813784.141 3      3669.010 3  -9332565.297 3  -7259334.69645  23813776.26645
        37.000          18.250  
  22051285.422 7     -2128.495 7   3808760.359 7   2969324.93648  22051277.13748
        48.500          37.000  
  25010144.188 3     -2277.989 3   1645761.370 3   1639062.44446  25010137.77746
        35.750          19.500  
  20598338.133 6        59.433 6  -1320729.645 6  -1014621.11948  20598328.32448
        46.500          41.000  
  24858483.195 3      3199.007 3  -1100369.287 3   -849140.69746  24858470.33646
        35.750          20.500  
  20642424.102 7      -585.139 7    329793.297 7    265840.62048  20642414.05948
        51.250          40.750  
  21452956.914 7      1667.900 7  -5667788.339 7  -4385615.34348  21452945.87548
        49.500          39.000  
  24074507.242 5      1297.422 5  -5468690.703 5  -4865348.81346  24074501.71146
        40.000          20.250  
  24536484.172 5     -3771.286 5  10145514.466 5   7878270.93646  24536479.16846
        41.250          22.750  
 11  3 23 16 31  0.0000000  0 12G03G06G09G14G15G16G18G19G21G22G27G29
  22216323.344 6      1533.979 6  -6302115.593 6  -4869689.58647  22216315.46947
        46.250          31.000  
  22081141.813 6      1154.419 6  -5134563.732 6  -3969798.87748  22081133.64548
        46.750          35.250  
  24306574.234 3      2843.780 3  -4032439.197 3  -3119231.93946  24306572.51246
        37.250          22.500  
  23803316.547 4      3667.020 4  -9387570.603 4  -7302195.95946  23803309.31646
        38.500          20.000  
  22057383.203 7     -2136.164 7   3840802.822 7   2994293.07248  22057374.68448
        48.750          37.500  
  25016655.711 3     -2281.069 3   1679977.412 3   1665724.24146  25016648.77346
        36.750          19.500  
  20598181.758 7        54.815 7  -1321551.877 7  -1015261.82448  20598172.24248
        48.750          40.750  
  24849362.570 1      3195.433 1  -1148300.785 1   -886489.87246  24849349.12546
        32.500          20.250  
  20644111.102 7      -591.117 7    338660.053 7    272749.76648  20644101.05948
        50.750          40.750  
  21448209.227 7      1663.417 7  -5692739.588 7  -4405057.86848  21448197.77748
        50.250          39.500  
  24070821.734 5      1291.200 5  -5488058.709 5  -4880440.75446  24070816.67246
        40.250          19.750  
  24547250.719 5     -3771.868 5  10202092.484 5   7922357.58346  24547245.89146
        40.750          24.750  
 11  3 23 16 31 15.0000000  0 12G03G06G09G14G15G16G18G19G21G22G27G29
  22211970.477 6      1524.812 6  -6324987.769 6  -4887512.07547  22211962.48447
        46.250          31.000  
  22077871.016 6      1145.818 6  -5151751.002 6  -3983191.56348  22077863.02348
        47.000          35.000  
  24298470.156 5      2840.437 5  -4075045.748 5  -3152431.76946  24298464.80146
        39.250          22.250  
  23792855.609 4      3664.982 4  -9442545.334 4  -7345033.40246  23792848.37946
        37.750          19.750  
  22063502.500 7     -2143.846 7   3872960.508 7   3019350.98748  22063493.92248
        49.000          37.250  
  25023175.227 3     -2284.158 3   1714239.783 3   1692422.14346  25023168.34846
        36.750          19.500  
  20598039.203 7        50.180 7  -1322304.577 7  -1015848.34648  20598028.98448
        49.750          41.000  
  24840252.031 1      3191.815 1  -1196178.006 1   -923796.70545  24840238.46945
        30.750          17.750  
  20645815.305 7      -597.127 7    347616.955 7    279729.14948  20645805.90648
        51.000          40.500  
  21443473.664 7      1658.914 7  -5717623.298 7  -4424447.75448  21443462.56648
        50.000          39.250  
  24067155.789 5      1284.943 5  -5507332.855 5  -4895459.54346  24067149.14546
        41.000          20.500  
  24558018.484 5     -3772.458 5  10258679.351 5   7966451.11546  24558014.12546
        40.250          23.750  
 11  3 23 16 31 30.0000000  0 12G03G06G09G14G15G16G18G19G21G22G27G29
  22207644.695 6      1515.630 6  -6347722.220 6  -4905227.24147  22207636.41047
        46.500          31.500  
  22074625.008 6      1137.190 6  -5168808.858 6  -3996483.40248  22074617.01648
        46.500          35.500  
  24290371.023 5      2837.067 5  -4117601.749 5  -3185592.21346  24290366.07846
        39.750          22.750  
  23782399.875 4      3662.920 4  -9497489.137 4  -7387846.72545  23782392.29345
        39.000          18.500  
  22069643.797 7     -2151.511 7   3905233.169 7   3044498.49148  22069635.62948
        48.500          37.000  
  25029704.414 4     -2287.232 4   1748548.270 4   1719155.96146  25029696.83246
        37.500          20.250  
  20597908.398 7        45.547 7  -1322987.789 7  -1016380.72149  20597898.64849
        49.000          41.500  
  24831150.930 1      3188.159 1  -1244000.387 1   -961060.83245  24831138.48445
        31.500          17.750  
  20647536.805 7      -603.154 7    356664.258 7    286778.98448  20647527.64148
        51.000          40.500  
  21438751.234 7      1654.400 7  -5742439.293 7  -4443784.87548  21438740.19548
        50.750          39.500  
  24063504.047 4      1278.650 4  -5526512.599 4  -4910404.78746  24063498.86746
        39.000          20.750  
  24568787.492 4     -3773.038 4  10315274.924 4   8010551.43946  24568783.54346
        38.500          22.750  
 11  3 23 16 31 45.0000000  0 12G03G06G09G14G15G16G18G19G21G22G27G29
  22203344.672 6      1506.449 6  -6370318.961 6  -4922835.09747  22203336.50447
        45.000          30.500  
  22071403.242 6      1128.577 6  -5185737.516 6  -4009674.56148  22071395.60248
        47.500          35.250  
  24282283.227 5      2833.675 5  -4160106.876 5  -3218713.00746  24282278.04746
        40.250          22.750  
  23771949.734 4      3660.853 4  -9552401.924 4  -7430635.90646  23771942.56346
        38.250          19.750  
  22075807.086 7     -2159.139 7   3937620.247 7   3069735.15348  22075798.21548
        48.250          37.000  
  25036241.398 4     -2290.259 4   1782902.154 4   1745925.20746  25036234.81346
        38.000          21.500  
  20597791.977 7        40.937 7  -1323601.842 7  -1016859.21149  20597782.16849
        48.000          41.500  
  24822059.727 1      3184.489 1  -1291767.718 1   -998282.09846  24822048.51246
        33.500          20.500  
  20649275.852 7      -609.162 7    365801.685 7    293899.04248  20649266.16048
        50.750          40.750  
  21434041.563 7      1649.906 7  -5767187.879 7  -4463069.47648  21434030.87548
        50.500          39.000  
  24059873.328 5      1272.361 5  -5545598.020 5  -4925276.52146  24059867.03546
        40.750          21.000  
  24579558.789 4     -3773.564 4  10371878.390 4   8054657.92546  24579555.25046
        37.500          22.500  
 11  3 23 16 32  0.0000000  0 12G03G06G09G14G15G16G18G19G21G22G27G29
  22199071.242 6      1497.243 6  -6392777.607 6  -4940335.34947  22199063.01647
        46.750          31.750  
  22068206.859 6      1119.937 6  -5202536.572 6  -4022764.75148  22068198.51648
        47.000          34.750  
  24274203.766 5      2830.248 5  -4202560.600 5  -3251793.73246  24274198.82046
        40.250          22.750  
  23761506.539 4      3658.747 4  -9607283.133 4  -7473400.45046  23761499.36746
        38.500          20.000  
  22081991.859 7     -2166.764 7   3970121.713 7   3095060.94748  22081983.51648
        49.000          36.750  
  25042787.781 4     -2293.259 4   1817301.042 4   1772729.49146  25042780.08246
        38.000          20.500  
  20597688.305 6        36.300 6  -1324146.348 6  -1017283.50349  20597678.67249
        46.500          41.500  
  24812980.266 3      3180.800 3  -1339479.717 3  -1035460.26246  24812969.52046
        36.000          22.250  
  20651031.719 7      -615.193 7    375029.585 7    301089.59748  20651022.32048
        51.000          40.250  
  21429345.195 7      1645.395 7  -5791868.801 7  -4482301.35448  21429334.03948
        50.250          39.000  
  24056258.648 5      1266.037 5  -5564588.581 5  -4940074.32746  24056253.76246
        41.250          20.500  
  24590331.789 4     -3774.086 4  10428489.673 4   8098770.48146  24590327.89846
        37.750          22.500  
 11  3 23 16 32 15.0000000  0 12G03G06G09G14G15G16G18G19G21G22G27G29
  22194824.094 6      1488.020 6  -6415097.905 6  -4957727.79647  22194815.75047
        47.000          31.000  
  22065035.297 6      1111.284 6  -5219205.833 6  -4035753.79048  22065026.95348
        47.000          36.000  
  24266134.555 5      2826.779 5  -4244962.291 5  -3284833.93746  24266130.02046
        40.250          22.750  
  23751069.117 4      3656.629 4  -9662132.566 4  -7516140.23346  23751062.12146
        39.000          21.250  
  22088197.945 7     -2174.376 7   4002737.355 7   3120475.70548  22088190.12948
        48.750          37.000  
  25049342.461 4     -2296.253 4   1851744.835 4   1799568.75546  25049334.58646
        37.750          20.500  
  20597597.820 6        31.695 6  -1324621.774 6  -1017653.97149  20597587.95349
        46.500          41.500  
  24803911.977 4      3177.090 4  -1387136.066 4  -1072595.09546  24803901.93446
        38.000          24.000  
  20652805.344 7      -621.241 7    384348.202 7    308350.84249  20652795.94549
        51.000          41.500  
  21424661.406 7      1640.876 7  -5816481.943 7  -4501480.41648  21424650.89548
        50.000          39.000  
  24052663.070 5      1259.696 5  -5583484.020 5  -4954798.03946  24052657.77346
        40.250          21.000  
  24601105.875 3     -3774.590 3  10485108.528 3   8142888.94746  24601102.45346
        36.750          22.000  
 11  3 23 16 32 30.0000000  0 12G03G06G09G14G15G16G18G19G21G22G27G29
  22190602.758 7      1478.824 7  -6437280.262 7  -4975012.75447  22190594.41447
        48.250          31.250  
  22061887.734 6      1102.661 6  -5235745.744 6  -4048642.04348  22061879.56648
        47.000          35.250  
  24258075.352 5      2823.328 5  -4287312.209 5  -3317833.79046  24258071.57846
        39.500          24.500  
  23740637.273 5      3654.508 5  -9716950.184 5  -7558855.24346  23740630.51246
        39.500          21.500  
  22094426.258 7     -2181.938 7   4035466.431 7   3145978.86148  22094417.79748
        48.250          37.250  
  25055905.352 4     -2299.200 4   1886232.834 4   1826442.47646  25055898.00446
        37.750          21.250  
  20597520.430 7        27.119 7  -1325028.553 7  -1017970.94748  20597510.68048
        49.250          40.750  
  24794853.570 5      3173.378 5  -1434736.735 5  -1109686.54147  24794844.11347
        39.500          26.500  
  20654595.820 7      -627.258 7    393757.068 7    315682.40448  20654586.24648
        52.250          41.250  
  21419990.445 7      1636.398 7  -5841027.918 7  -4520607.13848  21419979.23048
        51.000          38.750  
  24049086.398 5      1253.367 5  -5602284.526 5  -4969447.75546  24049080.45746
        41.750          21.500  
  24611883.172 4     -3775.052 4  10541734.311 4   8187012.76046  24611877.75846
        38.000          22.000  
 11  3 23 16 32 45.0000000  0 12G03G06G09G14G15G16G18G19G21G22G27G29
  22186407.664 6      1469.616 6  -6459324.498 6  -4992190.09947  22186399.26247
        46.250          31.250  
  22058764.641 6      1094.019 6  -5252156.030 6  -4061429.28448  22058756.88348
        47.000          36.000  
  24250027.859 5      2819.846 5  -4329609.904 5  -3350792.93646  24250021.74246
        41.750          23.250  
  23730212.180 5      3652.368 5  -9771735.711 5  -7601545.24046  23730205.18446
        39.750          23.000  
  22100676.016 7     -2189.469 7   4068308.463 7   3171570.03048  22100667.67248
        48.500          37.000  
  25062476.563 4     -2302.110 4   1920764.486 4   1853350.21446  25062469.44946
        38.000          20.500  
  20597456.023 7        22.553 7  -1325366.846 7  -1018234.55848  20597446.03948
        49.000          41.250  
  24785807.352 5      3169.655 5  -1482281.557 5  -1146734.45547  24785796.89847
        41.000          26.500  
  20656403.469 7      -633.274 7    403256.180 7    323084.29848  20656393.77748
        50.500          41.000  
  21415332.531 7      1631.924 7  -5865506.772 7  -4539681.56248  21415321.49248
        49.750          39.000  
  24045526.320 5      1247.033 5  -5620990.020 5  -4984023.44646  24045520.32046
        40.500          21.000  
  24622658.648 4     -3775.490 4  10598366.665 4   8231141.73846  24622654.87546
        38.000          22.500  
 11  3 23 16 33  0.0000000  0 12G03G06G09G14G15G16G18G19G21G22G27G29
  22182239.539 6      1460.383 6  -6481230.238 6  -5009259.50747  22182231.19547
        47.000          31.500  
  22055666.602 7      1085.371 7  -5268436.601 7  -4074115.45548  22055658.78548
        47.750          35.500  
  24241986.938 4      2816.340 4  -4371854.997 4  -3383711.12546  24241983.45746
        39.000          24.500  
  23719793.141 5      3650.206 5  -9826488.800 5  -7644209.94846  23719786.02746
        40.500          25.250  
  22106947.078 7     -2196.990 7   4101263.316 7   3197249.11648  22106938.96948
        47.750          36.750  
  25069055.836 3     -2304.999 3   1955339.466 3   1880291.72046  25069048.66446
        37.250          19.750  
  20597404.641 7        17.984 7  -1325636.601 7  -1018444.76148  20597394.83248
        49.250          41.000  
  24776770.211 5      3165.904 5  -1529770.112 5  -1183738.52247  24776759.75847
        41.750          26.750  
  20658228.203 7      -639.305 7    412845.761 7    330556.68048  20658218.62948
        51.000          41.000  
  21410686.766 7      1627.445 7  -5889918.446 7  -4558703.63648  21410676.02048
        50.750          39.000  
  24041985.750 6      1240.666 6  -5639600.005 6  -4998524.73346  24041979.04746
        42.500          22.000  
  24633437.375 4     -3775.904 4  10655005.222 4   8275275.58746  24633433.01646
        38.250          22.000  
 11  3 23 16 33 15.0000000  0 12G03G06G09G14G15G16G18G19G21G22G27G29
  22178096.898 6      1451.110 6  -6502996.880 6  -5026220.53647  22178088.90647
        47.000          31.000  
  22052594.078 6      1076.689 6  -5284586.930 6  -4086700.12648  22052585.44148
        47.000          35.000  
  24233959.836 5      2812.767 5  -4414046.501 5  -3416587.54446  24233954.59846
        40.750          24.500  
  23709380.539 5      3648.007 5  -9881208.902 5  -7686848.93346  23709373.60246
        42.000          25.250  
  22113239.656 7     -2204.520 7   4134331.122 7   3223016.21848  22113231.25448
        49.000          37.250  
  25075644.297 4     -2307.897 4   1989957.914 4   1907267.04846  25075636.53946
        37.500          19.000  
  20597366.500 7        13.404 7  -1325837.660 7  -1018601.43148  20597356.45748
        48.500          41.000  
  24767743.984 5      3162.107 5  -1577201.715 5  -1220698.21446  24767733.88346
        42.000          26.250  
  20660070.141 7      -645.358 7    422526.134 7    338099.81648  20660060.74248
        51.250          41.000  
  21406054.109 7      1622.945 7  -5914262.616 7  -4577673.10848  21406043.59848
        50.500          38.750  
  24038461.891 5      1234.263 5  -5658113.948 5  -5012951.15246  24038455.59846
        40.750          21.000  
  24644216.258 4     -3776.335 4  10711650.241 4   8319414.41346  24644212.30946
        38.000          22.250  
 11  3 23 16 33 30.0000000  0 12G03G06G09G14G15G16G18G19G21G22G27G29
  22173981.563 6      1441.831 6  -6524624.346 6  -5043073.12447  22173973.39547
        47.000          31.000  
  22049545.203 6      1067.993 6  -5300606.825 6  -4099183.17648  22049536.91848
        46.500          35.000  
  24225941.031 5      2809.157 5  -4456183.859 5  -3449421.79246  24225935.55946
        40.750          24.000  
  23698973.750 5      3645.792 5  -9935895.776 5  -7729462.05946  23698967.34046
        41.000          25.500  
  22119553.492 7     -2212.025 7   4167511.495 7   3248871.02748  22119545.26648
        48.000          37.000  
  25082239.328 4     -2310.755 4   2024619.239 4   1934275.84846  25082232.03946
        37.500          19.500  
  20597341.250 7         8.819 7  -1325969.941 7  -1018704.50848  20597331.32448
        49.000          40.500  
  24758728.805 5      3158.287 5  -1624576.027 5  -1257613.25746  24758718.17646
        40.250          25.250  
  20661930.008 7      -651.444 7    432297.790 7    345714.07848  20661920.49248
        51.000          41.000  
  21401434.664 7      1618.429 7  -5938539.051 7  -4596589.79848  21401423.44948
        50.000          39.500  
  24034957.633 5      1227.837 5  -5676531.500 5  -5027302.48846  24034951.22346
        41.250          21.750  
  24654996.383 4     -3776.739 4  10768301.324 4   8363557.98546  24654992.72746
        38.500          22.000  
 11  3 23 16 33 45.0000000  0 12G03G06G09G14G15G16G18G19G21G22G27G29
  22169892.375 6      1432.548 6  -6546112.565 6  -5059817.18247  22169884.32447
        46.500          32.000  
  22046521.727 6      1059.292 6  -5316496.207 6  -4111564.51348  22046513.20748
        46.750          35.500  
  24217932.531 5      2805.529 5  -4498266.790 5  -3482213.61146  24217927.17646
        41.250          25.000  
  23688573.945 5      3643.538 5  -9990548.843 5  -7772048.80747  23688566.89147
        41.500          27.000  
  22125888.930 7     -2219.507 7   4200804.106 7   3274813.29548  22125880.70348
        49.000          37.000  
  25088843.852 4     -2313.601 4   2059323.260 4   1961317.88446  25088836.21146
        38.500          19.500  
  20597328.961 7         4.243 7  -1326033.581 7  -1018754.10248  20597319.09448
        49.500          40.500  
  24749722.891 5      3154.458 5  -1671892.897 5  -1294483.55146  24749713.43446
        39.250          22.500  
  20663806.766 7      -657.514 7    442160.494 7    353399.27848  20663797.01648
        51.250          41.250  
  21396827.719 7      1613.926 7  -5962747.934 7  -4615453.85748  21396817.09048
        49.750          39.000  
  24031469.727 5      1221.396 5  -5694852.434 5  -5041578.55746  24031464.60546
        41.000          21.750  
  24665777.836 4     -3777.123 4  10824958.169 4   8407706.05546  24665774.53146
        38.000          22.750  
 11  3 23 16 34  0.0000000  0 12G03G06G09G14G15G16G18G19G21G22G27G29
  22165830.219 6      1423.243 6  -6567461.208 6  -5076452.50847  22165821.99247
        46.500          31.250  
  22043522.008 6      1050.573 6  -5332254.806 6  -4123843.95048  22043515.24648
        45.750          35.000  
  24209933.781 5      2801.862 5  -4540294.723 5  -3514962.60446  24209929.83246
        40.250          24.000  
  23678180.391 5      3641.265 5 -10045167.823 5  -7814609.01147  23678173.10247
        41.750          27.750  
  22132246.320 7     -2226.979 7   4234208.794 7   3300842.89348  22132237.62548
        49.000          36.250  
  25095455.164 4     -2316.418 4   2094069.536 4   1988392.84146  25095447.99246
        37.750          20.500  
  20597330.031 7        -0.334 7  -1326028.566 7  -1018750.20248  20597320.28148
        47.750          40.750  
  24740729.633 4      3150.590 4  -1719151.746 4  -1331308.64946  24740719.94146
        37.500          22.000  
  20665701.000 7      -663.598 7    452114.468 7    361155.61048  20665691.25048
        51.000          41.000  
  21392233.898 7      1609.418 7  -5986889.198 7  -4634265.21548  21392222.85948
        50.250          39.250  
  24028003.906 5      1214.931 5  -5713076.397 5  -5055779.03446  24027997.14546
        41.500          22.500  
  24676560.617 4     -3777.494 4  10881620.583 4   8451858.45146  24676557.37146
        39.000          22.750  
 11  3 23 16 34 15.0000000  0 12G03G06G09G14G15G16G18G19G21G22G27G29
  22161793.789 6      1413.947 6  -6588670.417 6  -5092979.17747  22161786.20747
        46.750          31.000  
  22040548.523 6      1041.871 6  -5347882.869 6  -4136021.67948  22040541.29348
        46.000          35.500  
  24201947.391 5      2798.195 5  -4582267.643 5  -3547668.72046  24201942.79746
        41.000          25.500  
  23667792.875 5      3638.993 5 -10099752.716 5  -7857142.65447  23667785.93847
        41.250          26.750  
  22138624.281 7     -2234.408 7   4267724.912 7   3326959.33648  22138615.23448
        48.250          36.000  
  25102075.188 4     -2319.189 4   2128857.364 4   2015500.19746  25102067.95746
        38.250          20.250  
  20597343.852 7        -4.879 7  -1325955.387 7  -1018693.18048  20597334.39548
        48.500          40.500  
  24731748.711 3      3146.732 3  -1766352.726 3  -1368088.65546  24731737.49646
        37.250          20.000  
  20667612.586 7      -669.663 7    462159.420 7    368982.82648  20667602.89548
        51.250          41.250  
  21387652.586 7      1604.930 7  -6010963.149 7  -4653024.12648  21387642.01648
        50.250          39.000  
  24024553.344 5      1208.480 5  -5731203.593 5  -5069904.08846  24024547.34446
        41.500          22.500  
  24687343.898 4     -3777.820 4  10938287.877 4   8496014.66546  24687340.71146
        39.000          22.500  
 11  3 23 16 34 30.0000000  0 12G03G06G09G14G15G16G18G19G21G22G27G29
  22157784.672 6      1404.666 6  -6609740.404 6  -5109397.34947  22157776.32847
        46.500          31.250  
  22037599.094 6      1033.183 6  -5363380.621 6  -4148097.84448  22037591.16048
        46.500          36.000  
  24193971.875 5      2794.517 5  -4624185.396 5  -3580331.85646  24193965.99246
        41.500          25.000  
  23657411.609 5      3636.715 5 -10154303.441 5  -7899649.66447  23657404.73047
        41.000          27.250  
  22145023.055 7     -2241.794 7   4301351.826 7   3353162.09948  22145014.53548
        47.750          35.750  
  25108703.367 4     -2321.919 4   2163686.157 4   2042639.46046  25108696.13746
        39.000          21.500  
  20597371.016 7        -9.406 7  -1325814.297 7  -1018583.25148  20597361.03148
        49.500          40.500  
  24722779.664 4      3142.868 4  -1813495.750 4  -1404823.46946  24722766.33646
        37.500          19.000  
  20669541.172 7      -675.720 7    472295.227 7    376880.84248  20669531.42248
        51.000          41.000  
  21383084.352 7      1600.464 7  -6034970.112 7  -4671730.83448  21383073.54748
        49.750          38.750  
  24021122.523 5      1202.023 5  -5749233.943 5  -5083953.70446  24021116.11346
        42.000          22.500  
  24698127.688 4     -3778.110 4  10994959.533 4   8540174.27946  24698125.55546
        39.000          23.500  
 11  3 23 16 34 45.0000000  0 12G03G06G09G14G15G16G18G19G21G22G27G29
  22153802.195 6      1395.346 6  -6630670.594 6  -5125706.60447  22153793.85247
        46.750          32.000  
  22034675.328 6      1024.455 6  -5378747.439 6  -4160072.00348  22034667.57048
        46.250          35.750  
  24186004.859 5      2790.776 5  -4666047.032 5  -3612951.25446  24185999.27046
        40.250          25.750  
  23647038.211 6      3634.403 6 -10208819.491 6  -7942129.63947  23647031.09847
        42.500          26.750  
  22151442.711 7     -2249.185 7   4335089.607 7   3379451.25348  22151434.13348
        48.250          36.500  
  25115339.242 5     -2324.645 5   2198555.828 5   2069810.60546  25115331.77746
        39.500          21.000  
  20597410.695 7       -13.945 7  -1325605.126 7  -1018420.26448  20597401.12148
        48.750          40.750  
  24713819.531 4      3138.959 4  -1860580.141 4  -1441512.58045  24713806.14545
        37.500          17.250  
  20671487.516 7      -681.806 7    482522.323 7    384849.99248  20671477.82448
        50.750          41.250  
  21378529.078 7      1595.977 7  -6058909.774 7  -4690385.10448  21378517.80548
        50.500          39.500  
  24017709.727 5      1195.520 5  -5767166.738 5  -5097927.30546  24017704.13746
        41.750          22.500  
  24708913.820 5     -3778.403 5  11051635.584 5   8584337.29846  24708910.51646
        40.750          24.500  
 11  3 23 16 35  0.0000000  0 12G03G06G09G14G15G16G18G19G21G22G27G29
  22149845.539 6      1386.019 6  -6651460.879 6  -5141906.83447  22149837.07847
        46.000          30.750  
  22031775.797 7      1015.728 7  -5393983.355 7  -4171944.15348  22031767.92248
        47.750          35.750  
  24178049.148 5      2787.021 5  -4707852.348 5  -3645526.77646  24178044.49646
        40.750          24.500  
  23636670.609 6      3632.069 6 -10263300.521 6  -7984582.31647  23636664.02347
        43.500          27.000  
  22157884.313 7     -2256.559 7   4368937.990 7   3405826.59048  22157875.67648
        48.000          36.500  
  25121981.945 5     -2327.343 5   2233465.972 5   2097013.25546  25121974.59846
        40.000          21.250  
  20597463.469 7       -18.469 7  -1325328.092 7  -1018204.40148  20597453.66048
        49.250          40.750  
  24704870.664 4      3135.039 4  -1907605.724 4  -1478155.85145  24704858.45345
        38.750          17.750  
  20673450.883 7      -687.892 7    492840.704 7    392890.27849  20673441.54349
        50.750          41.500  
  21373986.344 7      1591.487 7  -6082782.073 7  -4708986.88248  21373975.12948
        50.500          39.000  
  24014315.453 5      1189.010 5  -5785001.881 5  -5111824.78846  24014309.86346
        41.750          22.750  
  24719699.539 5     -3778.680 5  11108315.779 5   8628503.56346  24719696.05946
        40.500          25.250  
 11  3 23 16 35 15.0000000  0 12G03G06G09G14G15G16G18G19G21G22G27G29
  22145915.727 6      1376.664 6  -6672110.838 6  -5157997.71747  22145907.91047
        46.500          31.500  
  22028901.875 6      1006.976 6  -5409087.997 6  -4183714.01048  22028894.11748
        45.500          36.000  
  24170104.898 5      2783.226 5  -4749600.741 5  -3678057.92246  24170099.83646
        41.500          25.750  
  23626309.750 5      3629.705 5 -10317746.101 5  -8027007.40047  23626303.34047
        42.000          27.250  
  22164346.070 7     -2263.922 7   4402896.815 7   3432287.98748  22164337.78548
        48.000          36.500  
  25128632.867 5     -2330.028 5   2268416.398 5   2124247.29646  25128625.93046
        40.000          19.750  
  20597529.305 7       -23.007 7  -1324982.995 7  -1017935.49548  20597519.37948
        48.000          40.750  
  24695933.828 4      3131.079 4  -1954571.903 4  -1514752.88745  24695921.44145
        39.000          18.500  
  20675431.859 7      -693.995 7    503250.624 7    401001.88148  20675422.28548
        51.500          40.750  
  21369456.328 7      1586.995 7  -6106587.004 7  -4727536.17248  21369445.46548
        50.500          38.750  
  24010940.828 5      1182.467 5  -5802738.890 5  -5125645.83446  24010934.18446
        42.000          25.250  
  24730486.953 5     -3778.933 5  11164999.768 5   8672672.76746  24730483.00446
        40.750          24.750  
 11  3 23 16 35 30.0000000  0 12G03G06G09G14G15G16G18G19G21G22G27G29
  22142013.102 6      1367.305 6  -6692620.420 6  -5173979.22047  22142004.99247
        45.750          32.000  
  22026052.047 7       998.225 7  -5424061.371 7  -4195381.58048  22026043.93848
        47.750          36.000  
  24162171.805 5      2779.399 5  -4791291.725 5  -3710544.34546  24162166.62546
        41.250          25.750  
  23615956.141 6      3627.323 6 -10372155.944 6  -8069404.61047  23615949.26247
        42.750          27.000  
  22170829.156 7     -2271.266 7   4436965.801 7   3458835.22448  22170820.69548
        48.750          36.000  
  25135290.781 4     -2332.686 4   2303406.689 4   2151512.40846  25135283.31646
        38.500          20.250  
  20597607.617 7       -27.533 7  -1324569.993 7  -1017613.68548  20597598.10248
        50.000          40.750  
  24687006.516 5      3127.102 5  -2001478.436 5  -1551303.42646  24686995.77046
        40.000          19.750  
  20677430.227 7      -700.097 7    513752.082 7    409184.82248  20677420.12548
        50.500          40.500  
  21364938.938 7      1582.508 7  -6130324.624 7  -4746033.01048  21364928.36748
        50.500          39.250  
  24007584.211 5      1175.909 5  -5820377.530 5  -5139390.21446  24007578.09446
        42.250          22.250  
  24741273.688 5     -3779.164 5  11221687.228 5   8716844.67546  24741270.44146
        40.500          25.750  
 11  3 23 16 35 45.0000000  0 12G03G06G09G14G15G16G18G19G21G22G27G29
  22138137.070 6      1357.921 6  -6712989.232 6  -5189851.02747  22138128.78547
        45.750          31.500  
  22023228.031 6       989.436 6  -5438902.905 6  -4206946.41648  22023219.74648
        47.000          35.750  
  24154249.086 6      2775.531 6  -4832924.685 6  -3742985.53246  24154243.20346
        42.500          22.000  
  23605608.977 6      3624.893 6 -10426529.341 6  -8111773.42547  23605602.09847
        42.500          27.500  
  22177333.664 7     -2278.603 7   4471144.851 7   3485468.22848  22177325.43848
        48.000          36.000  
  25141957.734 4     -2335.343 4   2338436.837 4   2178808.61946  25141949.62546
        38.500          20.750  
  20597699.109 7       -32.079 7  -1324088.810 7  -1017238.74148  20597689.35948
        48.500          40.500  
  24678091.078 5      3123.082 5  -2048324.658 5  -1587807.01046  24678081.73846
        40.000          20.500  
  20679446.375 7      -706.240 7    524345.685 7    417439.56348  20679436.50848
        50.250          41.000  
  21360434.820 7      1577.994 7  -6153994.540 7  -4764477.09048  21360423.60548
        50.750          39.000  
  24004245.234 5      1169.319 5  -5837917.318 5  -5153057.57846  24004240.99246
        40.500          21.750  
  24752062.180 5     -3779.396 5  11278378.162 5   8761019.29546  24752058.46546
        41.250          25.500  
 11  3 23 16 36  0.0000000  0 12G03G06G09G14G15G16G18G19G21G22G27G29
  22134287.750 6      1348.538 6  -6733217.299 6  -5205613.17847  22134279.64147
        45.000          31.750  
  22020428.953 6       980.667 6  -5453612.904 6  -4218408.77548  22020420.78548
        45.750          35.750  
  24146337.211 5      2771.646 5  -4874499.372 5  -3775381.33746  24146332.32446
        40.750          24.000  
  23595268.750 5      3622.462 5 -10480866.277 5  -8154113.82346  23595262.16446
        42.250          26.000  
  22183858.758 7     -2285.913 7   4505433.545 7   3512186.66148  22183850.12148
        48.750          36.000  
  25148630.609 5     -2337.961 5   2373506.245 5   2206135.36146  25148623.08646
        41.250          21.750  
  20597803.742 6       -36.602 6  -1323539.784 6  -1016810.92748  20597793.81648
        47.000          40.250  
  24669187.813 5      3119.064 5  -2095110.620 5  -1624263.61946  24669178.53146
        40.000          21.000  
  20681479.789 7      -712.372 7    535031.261 7    425765.97348  20681469.68848
        50.000          41.000  
  21355943.422 7      1573.496 7  -6177596.976 7  -4782868.58848  21355932.14848
        49.500          39.000  
  24000928.852 6      1162.723 6  -5855358.168 6  -5166647.83646  24000922.09046
        42.500          22.500  
  24762849.820 5     -3779.608 5  11335072.275 5   8805196.39947  24762847.21947
        40.500          27.250  
 11  3 23 16 36 15.0000000  0 12G03G06G09G14G15G16G18G19G21G22G27G29
  22130465.219 6      1339.166 6  -6753304.786 6  -5221265.76547  22130457.34447
        46.000          31.500  
  22017654.500 7       971.911 7  -5468191.566 7  -4229768.77448  22017646.44948
        48.250          34.750  
  24138437.023 5      2767.753 5  -4916015.670 5  -3807731.64046  24138431.78546
        41.000          23.500  
  23584936.164 5      3620.032 5 -10535166.754 5  -8196425.81346  23584928.87546
        42.250          26.000  
  22190404.047 7     -2293.161 7   4539830.963 7   3538989.82948  22190395.64548
        48.500          35.500  
  25155311.641 5     -2340.518 5   2408614.012 5   2233492.01846  25155304.76246
        40.750          21.250  
  20597921.273 6       -41.085 6  -1322923.511 6  -1016330.72148  20597911.34848
        46.500          41.000  
  24660297.188 5      3115.038 5  -2141836.189 5  -1660673.17146  24660286.03146
        42.000          22.250  
  20683530.336 7      -718.478 7    545808.435 7    434163.75448  20683520.64548
        50.250          41.000  
  21351464.656 7      1569.026 7  -6201132.360 7  -4801207.83948  21351453.38348
        50.500          38.500  
  23997627.266 5      1156.140 5  -5872700.275 5  -5180161.12146  23997621.38346
        41.250          22.500  
  24773638.914 5     -3779.754 5  11391768.589 5   8849375.20846  24773636.37146
        41.000          23.750  
 11  3 23 16 36 30.0000000  0 12G03G06G09G14G15G16G18G19G21G22G27G29
  22126669.969 6      1329.759 6  -6773251.173 6  -5236808.41547  22126661.56647
        46.500          32.000  
  22014905.813 6       963.103 6  -5482638.112 6  -4241025.83548  22014897.23448
        46.250          35.500  
  24130548.297 5      2763.805 5  -4957472.747 5  -3840035.80246  24130542.64846
        41.250          24.500  
  23574609.852 5      3617.552 5 -10589430.041 5  -8238708.82946  23574603.09046
        42.000          25.750  
  22196970.391 7     -2300.445 7   4574337.633 7   3565878.12348  22196962.28148
        47.750          36.000  
  25161999.695 4     -2343.094 4   2443760.417 4   2260878.77746  25161992.17246
        38.250          21.250  
  20598050.594 7       -45.605 7  -1322239.434 7  -1015797.68348  20598041.54748
        48.000          41.000  
  24651417.656 6      3110.967 6  -2188500.701 6  -1697035.13746  24651406.44146
        43.500          25.000  
  20685598.906 7      -724.624 7    556677.792 7    442633.36948  20685589.21548
        50.500          40.250  
  21346998.750 7      1564.525 7  -6224600.241 7  -4819494.48848  21346988.12148
        49.750          39.000  
  23994346.211 5      1149.501 5  -5889942.789 5  -5193596.80046  23994340.85546
        41.750          23.000  
  24784428.977 5     -3779.922 5  11448467.421 5   8893555.98646  24784426.19946
        40.750          24.000  
 11  3 23 16 36 45.0000000  0 12G03G06G09G14G15G16G18G19G21G22G27G29
  22122900.508 6      1320.377 6  -6793056.828 6  -5252241.39247  22122892.51647
        45.750          32.500  
  22012181.289 6       954.335 6  -5496953.133 6  -4252180.39948  22012173.06348
        46.500          35.250  
  24122669.672 5      2759.864 5  -4998870.709 5  -3872293.88646  24122665.13746
        42.000          26.250  
  23564290.469 5      3615.091 5 -10643656.400 5  -8280963.06046  23564284.00046
        41.250          24.250  
  22203557.109 6     -2307.655 6   4608952.458 6   3592850.68848  22203549.00048
        47.500          36.000  
  25168694.758 4     -2345.608 4   2478944.536 4   2288294.94046  25168687.82046
        37.500          21.500  
  20598194.008 7       -50.073 7  -1321488.343 7  -1015212.42148  20598184.31648
        48.000          40.750  
  24642548.586 6      3106.913 6  -2235104.402 6  -1733349.70347  24642537.89847
        43.500          26.500  
  20687684.656 7      -730.733 7    567638.779 7    451174.39048  20687674.73048
        49.750          40.750  
  21342545.922 7      1560.070 7  -6248001.292 7  -4837729.06148  21342534.82448
        50.250          39.750  
  23991085.375 5      1142.883 5  -5907086.040 5  -5206955.17746  23991077.67646
        42.250          23.000  
  24795219.344 5     -3780.045 5  11505168.096 5   8937738.20646  24795215.51246
        40.000          24.000  
 11  3 23 16 37  0.0000000  0 12G03G06G09G14G15G16G18G19G21G22G27G29
  22119158.461 6      1310.925 6  -6812720.709 6  -5267563.89847  22119150.87947
        45.250          31.500  
  22009482.828 6       945.516 6  -5511135.876 6  -4263231.89148  22009474.07448
        47.500          35.500  
  24114804.328 6      2755.854 6  -5040208.514 6  -3904505.08446  24114798.56346
        42.500          23.750  
  23553979.039 5      3612.572 5 -10697844.974 5  -8323187.85546  23553972.62946
        40.500          23.750  
  22210165.516 7     -2314.881 7   4643675.673 7   3619907.72248  22210156.52748
        48.000          36.750  
  25175397.656 4     -2348.125 4   2514166.408 4   2315740.49546  25175390.30946
        38.000          21.250  
  20598349.586 7       -54.581 7  -1320669.631 7  -1014574.46548  20598340.18848
        48.000          41.000  
  24633692.117 6      3102.798 6  -2281646.377 6  -1769616.16246  24633681.48846
        43.250          25.500  
  20689787.992 7      -736.887 7    578692.091 7    459787.34248  20689778.35948
        50.250          40.750  
  21338105.734 7      1555.564 7  -6271334.744 7  -4855910.96548  21338094.75448
        50.500          39.750  
  23987840.172 5      1136.210 5  -5924129.193 5  -5220235.49446  23987834.40646
        41.500          23.750  
  24806009.414 5     -3780.171 5  11561870.665 5   8981921.86946  24806006.28546
        40.750          24.000  
 11  3 23 16 37 15.0000000  0 12G03G06G09G14G15G16G18G19G21G22G27G29
  22115443.625 6      1301.478 6  -6832242.879 6  -5282775.99047  22115435.34047
        45.250          31.250  
  22006809.031 6       936.698 6  -5525186.342 6  -4274180.32148  22006800.62948
        47.250          36.000  
  24106948.648 5      2751.820 5  -5081485.815 5  -3936669.16946  24106943.82046
        41.500          23.750  
  23543674.727 5      3610.038 5 -10751995.540 5  -8365383.01646  23543667.37946
        40.750          23.000  
  22216793.352 7     -2322.080 7   4678506.880 7   3647048.89848  22216785.06648
        48.250          36.500  
  25182107.602 5     -2350.606 5   2549425.499 5   2343215.05046  25182100.19546
        40.000          20.000  
  20598518.398 7       -59.067 7  -1319783.618 7  -1013884.07648  20598508.94148
        49.500          40.500  
  24624847.273 6      3098.679 6  -2328126.566 6  -1805834.49646  24624837.52346
        43.000          25.500  
  20691908.719 7      -743.038 7    589837.668 7    468472.19848  20691899.08648
        50.750          40.250  
  21333678.063 7      1551.065 7  -6294600.717 7  -4874040.27948  21333667.37548
        50.000          39.000  
  23984617.367 6      1129.534 6  -5941072.198 6  -5233437.77946  23984609.84446
        43.250          25.750  
  24816800.320 5     -3780.263 5  11618574.605 5   9026106.66246  24816796.54746
        42.250          25.500  
 11  3 23 16 37 30.0000000  0 12G03G06G09G14G15G16G18G19G21G22G27G29
  22111756.070 6      1292.049 6  -6851623.620 6  -5297877.87847  22111747.90247
        44.500          31.750  
  22004160.234 6       927.890 6  -5539104.687 6  -4285025.79648  22004152.41848
        47.500          35.250  
  24099105.914 5      2747.771 5  -5122702.385 5  -3968785.91646  24099100.44146
        42.250          23.750  
  23533376.703 5      3607.496 5 -10806107.983 5  -8407548.49646  23533369.94146
        39.750          23.250  
  22223442.375 7     -2329.255 7   4713445.705 7   3674273.93048  22223433.62148
        48.250          36.250  
  25188824.211 5     -2353.047 5   2584721.208 5   2370718.18146  25188816.39546
        41.000          20.750  
  20598699.914 7       -63.534 7  -1318830.609 7  -1013141.47848  20598690.39848
        49.250          41.000  
  24616013.633 5      3094.543 5  -2374544.712 5  -1842004.46546  24616003.64846
        42.000          25.000  
  20694047.195 7      -749.178 7    601075.344 7    477228.81248  20694037.73848
        50.000          40.500  
  21329263.773 7      1546.587 7  -6317799.521 7  -4892117.25948  21329252.67648
        50.500          39.750  
  23981411.539 5      1122.855 5  -5957915.019 5  -5246562.01246  23981405.36346
        42.250          23.250  
  24827591.227 5     -3780.327 5  11675279.507 5   9070292.14446  24827587.80546
        42.000          22.250  
 11  3 23 16 37 45.0000000  0 12G03G06G09G14G15G16G18G19G21G22G27G29
  22108095.102 6      1282.581 6  -6870862.330 6  -5312869.09947  22108086.69947
        45.250          32.000  
  22001536.742 7       919.044 7  -5552890.349 7  -4295767.88248  22001528.69148
        48.250          35.750  
  24091274.805 5      2743.676 5  -5163857.523 5  -4000854.80246  24091268.62946
        41.500          24.000  
  23523086.781 5      3604.914 5 -10860181.694 5  -8449683.77646  23523079.49246
        39.750          22.250  
  22230110.945 7     -2336.423 7   4748492.044 7   3701582.75048  22230103.07048
        48.500          35.750  
  25195546.977 5     -2355.516 5   2620053.948 5   2398250.11146  25195540.50846
        40.250          20.500  
  20598893.906 7       -68.027 7  -1317810.198 7  -1012346.35548  20598884.09848
        49.500          40.250  
  24607192.727 5      3090.358 5  -2420900.081 5  -1878125.53746  24607182.62546
        41.000          22.750  
  20696203.219 7      -755.354 7    612405.659 7    486057.61248  20696193.52748
        50.500          40.750  
  21324861.813 7      1542.090 7  -6340930.869 7  -4910141.68248  21324851.12548
        50.750          39.250  
  23978225.445 5      1116.131 5  -5974656.985 5  -5259607.64146  23978219.44546
        41.000          23.750  
  24838381.875 5     -3780.401 5  11731985.524 5   9114478.52346  24838378.21946
        42.000          22.750  
 11  3 23 16 38  0.0000000  0 12G03G06G09G14G15G16G18G19G21G22G27G29
  22104460.875 6      1273.119 6  -6889959.117 6  -5327749.71947  22104452.59047
        45.750          31.500  
  21998938.430 6       910.208 6  -5566543.471 6  -4306406.68648  21998930.73048
        47.000          35.750  
  24083453.461 5      2739.565 5  -5204951.003 5  -4032875.62946  24083448.80946
        41.500          23.500  
  23512804.008 5      3602.325 5 -10914216.567 5  -8491788.81546  23512797.65646
        39.500          22.000  
  22236800.492 7     -2343.555 7   4783645.373 7   3728974.92548  22236792.32448
        48.250          36.000  
  25202277.398 4     -2357.924 4   2655422.802 4   2425810.23446  25202271.04746
        38.750          20.500  
  20599101.094 7       -72.489 7  -1316722.864 7  -1011499.09448  20599091.22748
        48.000          41.000  
  24598383.164 5      3086.184 5  -2467192.839 5  -1914197.82346  24598373.59046
        40.500          23.000  
  20698376.922 7      -761.525 7    623828.534 7    494958.54648  20698367.52348
        49.750          40.750  
  21320472.766 7      1537.615 7  -6363995.094 7  -4928113.80048  21320461.60948
        50.250          39.500  
  23975059.523 6      1109.414 6  -5991298.188 6  -5272574.73546  23975053.11346
        42.500          24.000  
  24849173.148 5     -3780.439 5  11788692.103 5   9158665.36346  24849169.02346
        41.000          22.500  
 11  3 23 16 38 15.0000000  0 12G03G06G09G14G15G16G18G19G21G22G27G29
  22100853.813 6      1263.640 6  -6908913.712 6  -5342519.54547  22100845.76247
        45.250          32.000  
  21996365.852 6       901.366 6  -5580063.963 6  -4316942.14348  21996357.80148
        46.750          35.500  
  24075645.930 6      2735.413 6  -5245982.193 6  -4064847.93246  24075640.63346
        42.500          25.000  
  23502529.500 5      3599.718 5 -10968212.341 5  -8533863.37846  23502522.56346
        39.750          22.500  
  22243510.414 7     -2350.669 7   4818905.414 7   3756450.26148  22243502.12948
        48.250          35.500  
  25209014.961 4     -2360.309 4   2690827.430 4   2453398.22346  25209008.55146
        37.500          19.000  
  20599320.625 7       -76.949 7  -1315568.627 7  -1010599.69748  20599310.93448
        48.000          41.000  
  24589587.102 5      3081.974 5  -2513422.456 5  -1950220.88346  24589576.12146
        41.750          22.500  
  20700568.258 7      -767.695 7    635343.964 7    503931.59348  20700558.74248
        49.750          39.750  
  21316096.641 7      1533.135 7  -6386992.124 7  -4946033.55448  21316085.89548
        50.750          39.250  
  23971910.219 5      1102.678 5  -6007838.355 5  -5285463.11046  23971904.98046
        41.750          22.750  
  24859964.164 5     -3780.452 5  11845398.877 5   9202852.32846  24859960.09846
        40.250          21.000  
 11  3 23 16 38 30.0000000  0 12G03G06G09G14G15G16G18G19G21G22G27G29
  22097273.938 6      1254.184 6  -6927726.471 6  -5357178.84347  22097265.77047
        45.750          32.000  
  21993818.063 6       892.547 6  -5593452.174 6  -4327374.52348  21993810.01248
        46.750          36.500  
  24067850.359 5      2731.274 5  -5286951.299 5  -4096771.85846  24067844.82846
        42.000          24.750  
  23492261.625 5      3597.114 5 -11022169.044 5  -8575907.50646  23492254.39546
        39.500          22.250  
  22250240.242 7     -2357.740 7   4854271.518 7   3784008.23948  22250231.89848
        47.750          36.250  
  25215759.305 4     -2362.644 4   2726267.086 4   2481013.44546  25215752.01646
        38.250          19.750  
  20599552.703 7       -81.374 7  -1314348.018 7  -1009648.57048  20599543.24648
        48.250          41.250  
  24580801.820 5      3077.770 5  -2559589.002 5  -1986194.81146  24580789.90246
        41.500          21.750  
  20702777.148 7      -773.842 7    646951.598 7    512976.49348  20702767.51648
        50.000          40.750  
  21311733.195 7      1528.675 7  -6409922.253 7  -4963901.18648  21311722.03948
        50.500          39.500  
  23968783.875 6      1095.948 6  -6024277.580 6  -5298272.84646  23968777.40646
        43.250          22.500  
  24870754.766 5     -3780.423 5  11902105.215 5   9247038.96846  24870751.34446
        41.000          20.500  
 11  3 23 16 38 45.0000000  0 12G03G06G09G14G15G16G18G19G21G22G27G29
  22093721.094 6      1244.671 6  -6946396.541 6  -5371726.96347  22093712.86747
        46.250          32.000  
  21991295.914 6       883.663 6  -5606707.125 6  -4337703.06648  21991287.62948
        47.500          35.750  
  24060065.406 5      2727.055 5  -5327857.124 5  -4128646.48146  24060060.98846
        42.000          23.750  
  23482000.953 5      3594.434 5 -11076085.546 5  -8617920.30746  23481994.42646
        39.750          21.750  
  22256990.500 7     -2364.845 7   4889744.193 7   3811649.26248  22256982.27348
        48.000          35.500  
  25222509.805 3     -2364.998 3   2761742.049 3   2508656.27046  25222502.69146
        37.000          19.750  
  20599798.227 7       -85.851 7  -1313060.259 7  -1008645.13048  20599788.30148
        49.750          41.000  
  24572028.969 5      3073.504 5  -2605691.558 5  -2022118.90646  24572016.64146
        42.250          21.250  
  20705003.875 7      -780.040 7    658652.202 7    522093.83348  20704994.12548
        50.500          40.500  
  21307382.641 7      1524.167 7  -6432784.753 7  -4981716.11248  21307371.66048
        50.750          39.000  
  23965673.461 5      1089.161 5  -6040614.992 5  -5311003.18646  23965667.52046
        40.750          25.250  
  24881546.305 5     -3780.427 5  11958811.616 5   9291225.65246  24881542.06346
        40.500          20.500  
 11  3 23 16 39  0.0000000  0 12G03G06G09G14G15G16G18G19G21G22G27G29
  22090195.352 6      1235.185 6  -6964924.321 6  -5386164.20447  22090187.18447
        45.000          31.750  
  21988798.805 6       874.815 6  -5619829.357 6  -4347928.19648  21988790.46148
        46.500          36.000  
  24052293.898 6      2722.852 6  -5368699.906 6  -4160471.96546  24052288.01646
        42.500          24.500  
  23471749.820 5      3591.765 5 -11129962.025 5  -8659901.90846  23471741.77046
        39.750          21.500  
  22263760.930 7     -2371.883 7   4925322.443 7   3839372.55148  22263752.76248
        48.250          35.000  
  25229267.594 4     -2367.291 4   2797251.416 4   2536325.88846  25229260.59846
        37.750          20.250  
  20600055.633 6       -90.273 6  -1311706.161 6  -1007589.99548  20600045.82448
        47.250          40.750  
  24563266.797 5      3069.244 5  -2651730.223 5  -2057993.19446  24563255.87546
        41.250          20.500  
  20707248.063 7      -786.206 7    670445.299 7    531283.25448  20707238.19548
        50.000          40.250  
  21303044.766 7      1519.710 7  -6455580.406 7  -4999478.95748  21303033.60948
        50.500          39.250  
  23962585.656 6      1082.388 6  -6056850.806 6  -5323654.40846  23962578.66046
        42.500          25.500  
  24892336.250 5     -3780.370 5  12015517.166 5   9335411.69446  24892333.53146
        40.250          19.750  
 11  3 23 16 39 15.0000000  0 12G03G06G09G14G15G16G18G19G21G22G27G29
  22086697.031 6      1225.655 6  -6983309.142 6  -5400490.04347  22086688.57047
        46.000          32.000  
  21986327.305 6       865.936 6  -5632818.396 6  -4358049.53748  21986319.19548
        45.750          35.500  
  24044533.555 6      2718.584 6  -5409478.666 6  -4192247.56146  24044528.78546
        42.500          24.250  
  23461504.258 5      3589.065 5 -11183798.000 5  -8701851.96946  23461496.91046
        40.000          22.250  
  22270551.227 7     -2378.935 7   4961006.470 7   3867178.26748  22270543.05948
        48.000          35.750  
  25236031.781 4     -2369.584 4   2832795.175 4   2564022.25546  25236023.67246
        39.000          21.500  
  20600325.922 7       -94.719 7  -1310285.369 7  -1006482.89148  20600316.28948
        47.750          40.500  
  24554518.195 5      3064.943 5  -2697704.371 5  -2093817.24246  24554507.39146
        40.500          20.500  
  20709510.055 7      -792.414 7    682331.505 7    540545.22348  20709500.07048
        50.500          40.500  
  21298719.547 7      1515.214 7  -6478308.622 7  -5017189.24448  21298708.97748
        50.500          39.000  
  23959513.125 5      1075.578 5  -6072984.479 5  -5336226.02046  23959507.77046
        41.000          24.250  
  24903126.461 4     -3780.314 4  12072221.882 4   9379597.06646  24903123.91846
        38.750          19.000  
 11  3 23 16 39 30.0000000  0 12G03G06G09G14G15G16G18G19G21G22G27G29
  22083225.203 6      1216.113 6  -7001550.838 6  -5414704.36547  22083217.32847
        46.250          32.250  
  21983880.727 6       857.036 6  -5645673.935 6  -4368066.84548  21983872.55948
        46.500          35.250  
  24036785.789 6      2714.280 6  -5450192.859 6  -4223972.83946  24036780.96146
        43.000          22.750  
  23451267.664 5      3586.335 5 -11237593.024 5  -8743770.10146  23451260.49246
        39.250          22.000  
  22277362.000 7     -2385.968 7   4996795.993 7   3895066.18048  22277353.83248
        48.000          35.500  
  25242801.117 4     -2371.851 4   2868372.939 4   2591745.13146  25242794.29746
        39.000          19.500  
  20600608.914 6       -99.180 6  -1308797.674 6  -1005323.65248  20600599.39848
        47.250          40.750  
  24545782.563 5      3060.610 5  -2743613.522 5  -2129590.62046  24545771.46546
        39.500          21.250  
  20711789.641 7      -798.630 7    694310.956 7    549879.84348  20711779.71548
        50.500          40.000  
  21294407.531 7      1510.714 7  -6500969.327 7  -5034846.92648  21294396.84448
        50.000          39.250  
  23956463.047 5      1068.735 5  -6089015.511 5  -5348717.63846  23956457.69146
        40.000          25.250  
  24913917.102 4     -3780.250 4  12128925.625 4   9423781.72545  24913913.62145
        39.000          18.250  
 11  3 23 16 39 45.0000000  0 12G03G06G09G14G15G16G18G19G21G22G27G29
  22079781.727 6      1206.581 6  -7019649.553 6  -5428807.26447  22079773.32447
        45.500          31.750  
  21981460.109 7       848.141 7  -5658396.055 7  -4377980.19548  21981451.47348
        48.000          36.000  
  24029050.594 5      2709.958 5  -5490842.223 5  -4255647.62846  24029044.94546
        41.750          22.750  
  23441038.656 5      3583.600 5 -11291347.017 5  -8785656.28446  23441031.19146
        41.500          22.250  
  22284192.164 7     -2392.958 7   5032690.361 7   3923035.79348  22284184.05548
        48.250          35.750  
  25249577.992 5     -2374.103 5   2903984.481 5   2619494.34846  25249570.41046
        39.500          19.000  
  20600904.734 6      -103.612 6  -1307243.495 6  -1004112.61148  20600895.04348
        47.250          41.000  
  24537058.570 5      3056.259 5  -2789457.403 5  -2165313.14246  24537047.18046
        41.250          21.500  
  20714086.742 7      -804.836 7    706383.491 7    559287.00748  20714077.40248
        50.000          40.500  
  21290107.938 7      1506.224 7  -6523562.690 7  -5052452.13548  21290096.78148
        50.750          39.250  
  23953432.258 5      1061.890 5  -6104943.858 5  -5361129.25946  23953425.78946
        41.500          24.250  
  24924707.703 4     -3780.159 4  12185628.006 4   9467965.26846  24924704.16446
        38.500          19.000  
 11  3 23 16 40  0.0000000  0 12G03G06G09G14G15G16G18G19G21G22G27G29
  22076364.781 6      1197.058 6  -7037605.430 6  -5442798.85547  22076356.37947
        45.750          32.250  
  21979064.344 7       839.281 7  -5670985.271 7  -4387789.98348  21979056.46948
        47.750          36.000  
  24021327.414 6      2705.639 6  -5531426.812 6  -4287271.95246  24021322.11746
        42.500          22.750  
  23430817.625 5      3580.865 5 -11345059.996 5  -8827510.49046  23430810.04346
        40.750          24.750  
  22291042.719 7     -2399.895 7   5068688.789 7   3951086.49448  22291034.25848
        48.250          35.500  
  25256361.086 4     -2376.290 4   2939628.829 4   2647269.10346  25256353.73846
        38.750          19.250  
  20601212.891 7      -108.000 7  -1305623.500 7  -1002850.27549  20601203.60949
        48.500          41.750  
  24528347.930 5      3051.933 5  -2835236.396 5  -2200985.07546  24528336.18846
        42.000          22.500  
  20716401.930 7      -811.014 7    718548.703 7    568766.38048  20716392.35548
        50.000          40.250  
  21285821.336 7      1501.775 7  -6546089.318 7  -5070005.34848  21285810.53148
        50.500          39.000  
  23950421.563 5      1055.062 5  -6120769.790 5  -5373461.08046  23950413.98046
        42.000          24.500  
  24935496.875 3     -3780.016 3  12242328.253 3   9512147.19346  24935493.92246
        36.250          19.000  
 11  3 23 16 40 15.0000000  0 12G03G06G09G14G15G16G18G19G21G22G27G29
  22072975.336 6      1187.515 6  -7055418.160 6  -5456678.92247  22072966.46547
        46.250          32.500  
  21976693.773 6       830.387 6  -5683441.083 6  -4397495.82848  21976686.01648
        45.500          36.500  
  24013617.242 5      2701.279 5  -5571946.004 5  -4318845.30646  24013611.59446
        42.000          24.000  
  23420604.227 6      3578.101 6 -11398731.503 6  -8869332.38646  23420596.29346
        42.500          23.750  
  22297912.672 7     -2406.842 7   5104791.422 7   3979218.39748  22297904.50448
        48.000          35.500  
  25263150.133 3     -2378.469 3   2975305.871 3   2675069.36446  25263142.90246
        37.250          19.250  
  20601534.008 7      -112.405 7  -1303937.422 7  -1001536.46348  20601524.08248
        48.000          41.000  
  24519649.086 6      3047.570 6  -2880949.952 6  -2236606.02946  24519637.75446
        42.500          26.000  
  20718734.594 7      -817.220 7    730806.999 7    578318.28748  20718725.31348
        50.750          40.000  
  21281547.563 7      1497.306 7  -6568548.903 7  -5087506.31448  21281536.46548
        50.750          38.750  
  23947427.188 5      1048.211 5  -6136492.950 5  -5385712.80546  23947422.12546
        39.250          23.500  
  24946286.383 3     -3779.866 3  12299026.236 3   9556327.31945  24946283.89845
        37.250          16.750  
 11  3 23 16 40 30.0000000  0 12G03G06G09G14G15G16G18G19G21G22G27G29
  22069612.609 6      1177.944 6  -7073087.313 6  -5470447.10447  22069604.44147
        46.750          32.000  
  21974349.102 6       821.471 6  -5695763.145 6  -4407097.44648  21974341.10948
        47.250          35.750  
  24005919.102 5      2696.875 5  -5612399.126 5  -4350367.17146  24005913.92246
        42.000          22.500  
  23410398.281 5      3575.294 5 -11452360.914 5  -8911121.50446  23410391.16846
        42.250          23.000  
  22304802.406 7     -2413.783 7   5140998.164 7   4007431.41848  22304793.94548
        48.000          35.250  
  25269945.469 2     -2380.643 2   3011015.518 2   2702895.01746  25269938.06346
        35.500          19.000  
  20601867.297 7      -116.818 7  -1302185.152 7  -1000171.06148  20601857.78148
        48.750          41.000  
  24510962.883 5      3043.173 5  -2926597.548 5  -2272175.56446  24510951.37546
        41.250          24.750  
  20721085.164 7      -823.448 7    743158.720 7    587942.99248  20721075.47348
        51.000          40.000  
  21277286.695 7      1492.821 7  -6590941.224 7  -5104954.87248  21277275.53948
        51.250          39.500  
  23944457.039 6      1041.314 6  -6152112.661 6  -5397883.94846  23944450.27746
        43.000          24.500  
  24957074.734 3     -3779.719 3  12355722.027 3   9600505.79445  24957072.95345
        37.250          18.250  
 11  3 23 16 40 45.0000000  0 12G03G06G09G14G15G16G18G19G21G22G27G29
  22066277.680 6      1168.369 6  -7090612.853 6  -5484103.37547  22066269.57047
        45.500          31.750  
  21972029.883 6       812.558 6  -5707951.509 6  -4416594.87948  21972021.48048
        47.250          36.000  
  23998233.313 5      2692.449 5  -5652785.857 5  -4381837.30346  23998228.01646
        41.250          24.000  
  23400201.023 6      3572.480 6 -11505948.114 6  -8952877.72146  23400194.02746
        43.250          24.500  
  22311712.305 7     -2420.692 7   5177308.546 7   4035725.19848  22311703.84448
        48.000          35.500  
  25276746.789 2     -2382.754 2   3046756.833 2   2730745.32845  25276739.96945
        35.500          18.250  
  20602213.555 7      -121.217 7  -1300366.891 7   -998754.23648  20602204.03948
        48.750          41.000  
  24502287.477 5      3038.772 5  -2972179.132 5  -2307693.67946  24502276.84846
        42.000          25.750  
  20723453.156 7      -829.660 7    755603.613 7    597640.30048  20723443.64148
        50.000          40.000  
  21273037.969 7      1488.356 7  -6613266.565 7  -5122351.22948  21273027.28148
        51.000          39.250  
  23941504.289 5      1034.421 5  -6167628.975 5  -5409974.51846  23941496.94146
        40.750          23.500  
  24967862.500 2     -3779.523 2  12412414.869 2   9644681.93145  24967860.95345
        35.250          18.250  
 11  3 23 16 41  0.0000000  0 12G03G06G09G14G15G16G18G19G21G22G27G29
  22062969.922 6      1158.766 6  -7107994.340 6  -5497647.40047  22062962.04747
        46.000          32.000  
  21969736.039 7       803.613 7  -5720005.699 7  -4425987.76548  21969727.69548
        49.000          35.750  
  23990561.078 6      2687.957 6  -5693105.215 6  -4413254.94346  23990554.84446
        42.750          23.000  
  23390012.789 6      3569.614 6 -11559492.319 6  -8994600.42346  23390004.79746
        43.750          24.500  
  22318641.547 7     -2427.612 7   5213722.724 7   4064099.85748  22318633.26248
        47.750          35.500  
  25283554.656 3     -2384.902 3   3082530.357 3   2758620.75145  25283546.78145
        37.000          18.500  
  20602572.117 7      -125.649 7  -1298482.163 7   -997285.62148  20602562.66048
        50.250          40.750  
  24493626.945 5      3034.301 5  -3017693.640 5  -2343159.51446  24493615.78946
        40.000          24.500  
  20725839.414 7      -835.922 7    768142.446 7    607410.80648  20725829.48848
        50.750          40.250  
  21268802.352 7      1483.853 7  -6635524.360 7  -5139694.96248  21268791.54748
        50.500          39.500  
  23938569.898 5      1027.476 5  -6183041.110 5  -5421983.91346  23938564.19146
        41.000          24.250  
  24978650.891 3     -3779.356 3  12469105.205 3   9688856.14145  24978648.75845
        37.000          18.250  
 11  3 23 16 41 15.0000000  0 12G03G06G09G14G15G16G18G19G21G22G27G29
  22059690.141 6      1149.177 6  -7125231.989 6  -5511079.33947  22059681.85547
        46.000          32.500  
  21967467.625 6       794.684 6  -5731925.959 6  -4435276.29548  21967459.63348
        47.500          36.250  
  23982902.453 6      2683.461 6  -5733357.136 6  -4444620.02846  23982895.34046
        42.750          24.000  
  23379831.109 6      3566.758 6 -11612993.692 6  -9036289.76146  23379824.11346
        44.500          26.000  
  22325590.508 6     -2434.481 6   5250239.935 6   4092554.80148  22325582.28148
        47.500          35.500  
  25290367.305 4     -2387.003 4   3118335.404 4   2786520.72345  25290360.60245
        38.500          18.500  
  20602943.414 7      -130.037 7  -1296531.603 7   -995765.70548  20602933.54748
        48.000          41.000  
  24484977.898 4      3029.839 4  -3063141.226 4  -2378573.21946  24484968.14846
        39.000          23.000  
  20728243.102 7      -842.154 7    780774.762 7    617254.15748  20728233.82048
        50.500          40.500  
  21264579.680 7      1479.386 7  -6657715.148 7  -5156986.46748  21264568.64148
        50.750          39.000  
  23935658.203 5      1020.549 5  -6198349.351 5  -5433912.31546  23935651.55946
        42.000          23.750  
  24989438.180 3     -3779.130 3  12525792.158 3   9733027.69346  24989436.04746
        36.000          19.000  
 11  3 23 16 41 30.0000000  0 12G03G06G09G14G15G16G18G19G21G22G27G29
  22056437.031 6      1139.597 6  -7142325.942 6  -5524399.31047  22056428.98047
        45.500          31.750  
  21965224.898 7       785.762 7  -5743712.388 7  -4444460.53348  21965216.55548
        48.500          35.750  
  23975254.516 5      2678.963 5  -5773541.589 5  -4475932.55146  23975248.51646
        41.750          22.750  
  23369658.438 6      3563.881 6 -11666451.913 6  -9077945.48246  23369650.97346
        43.500          26.250  
  22332559.125 7     -2441.319 7   5286859.717 7   4121089.68248  22332551.13348
        47.750          35.750  
  25297187.219 4     -2389.048 4   3154171.131 4   2814444.65845  25297179.46145
        37.500          18.250  
  20603326.820 7      -134.409 7  -1294515.465 7   -994194.69348  20603317.30548
        49.500          40.750  
  24476342.219 4      3025.370 4  -3108521.781 4  -2413934.68646  24476332.35246
        38.000          24.500  
  20730664.602 7      -848.377 7    793500.410 7    627170.23748  20730655.08648
        50.000          41.000  
  21260369.727 7      1474.926 7  -6679839.042 7  -5174225.85648  21260358.51248
        51.000          39.500  
  23932764.109 5      1013.618 5  -6213553.620 5  -5445759.74646  23932757.75846
        41.500          26.000  
  25000224.852 3     -3778.867 3  12582475.166 3   9777196.21245  25000222.71945
        36.750          18.250  
 11  3 23 16 41 45.0000000  0 12G03G06G09G14G15G16G18G19G21G22G27G29
  22053211.555 6      1129.987 6  -7159275.752 6  -5537606.96347  22053203.62147
        46.000          31.750  
  21963007.984 7       776.813 7  -5755364.589 7  -4453540.18448  21962999.52348
        48.750          36.000  
  23967620.953 5      2674.415 5  -5813657.812 5  -4507191.88946  23967615.07046
        41.750          21.250  
  23359493.859 6      3560.980 6 -11719866.608 6  -9119567.28747  23359486.21947
        44.500          27.750  
  22339547.586 6     -2448.154 6   5323582.032 6   4149704.45248  22339538.83248
        46.750          35.500  
  25304012.391 3     -2391.092 3   3190037.516 3   2842392.41945  25304005.21945
        36.750          17.250  
  20603722.898 7      -138.791 7  -1292433.598 7   -992572.46848  20603712.97348
        48.500          41.000  
  24467719.672 4      3020.867 4  -3153834.787 4  -2449243.53446  24467710.15646
        38.000          22.750  
  20733104.172 7      -854.617 7    806319.659 7    637159.24948  20733094.53948
        50.500          40.500  
  21256172.211 7      1470.454 7  -6701895.855 7  -5191412.97848  21256161.64148
        50.250          39.500  
  23929890.961 5      1006.656 5  -6228653.465 5  -5457525.82746  23929884.19946
        41.500          25.750  
  25011011.609 3     -3778.609 3  12639154.297 3   9821361.71045  25011008.36345
        36.250          17.750  
 11  3 23 16 42  0.0000000  0 12G03G06G09G14G15G16G18G19G21G22G27G29
  22050013.922 6      1120.379 6  -7176081.443 6  -5550702.30747  22050005.22747
        45.500          32.250  
  21960816.016 7       767.869 7  -5766882.626 7  -4462515.28448  21960807.78948
        49.000          35.500  
  23959999.102 5      2669.845 5  -5853705.494 5  -4538397.83746  23959994.15646
        42.000          22.500  
  23349337.711 6      3558.064 6 -11773237.562 6  -9161154.99547  23349330.36347
        44.000          28.000  
  22346554.141 7     -2454.953 7   5360406.331 7   4178398.68248  22346546.32448
        48.000          35.500  
  25310843.641 4     -2393.098 4   3225933.990 4   2870363.64945  25310836.23445
        38.750          16.750  
  20604131.594 7      -143.165 7  -1290286.123 7   -990899.11048  20604122.02048
        49.000          41.000  
  24459110.188 4      3016.348 4  -3199080.005 4  -2484499.53146  24459099.79346
        39.000          22.500  
  20735561.508 7      -860.865 7    819232.628 7    647221.28848  20735551.87548
        50.000          40.750  
  21251987.898 7      1465.988 7  -6723885.669 7  -5208547.89348  21251977.09448
        51.000          39.500  
  23927037.344 5       999.685 5  -6243648.740 5  -5469210.40146  23927031.05146
        41.250          25.000  
  25021795.961 4     -3778.332 4  12695829.279 4   9865523.92645  25021793.18445
        37.500          17.250  
 11  3 23 16 42 15.0000000  0 12G03G06G09G14G15G16G18G19G21G22G27G29
  22046843.492 6      1110.757 6  -7192742.796 6  -5563685.19047  22046835.20747
        44.000          31.750  
  21958649.469 7       758.921 7  -5778266.442 7  -4471385.80148  21958641.12548
        49.250          36.500  
  23952392.133 5      2665.241 5  -5893684.111 5  -4569549.95546  23952386.54346
        42.000          22.500  
  23339190.102 6      3555.125 6 -11826564.443 6  -9202708.38247  23339182.63747
        44.500          27.000  
  22353581.461 6     -2461.731 6   5397332.291 6   4207172.13148  22353573.23448
        47.250          34.750  
  25317679.477 4     -2395.074 4   3261860.099 4   2898357.99345  25317672.83245
        37.500          17.750  
  20604553.094 7      -147.526 7  -1288073.228 7   -989174.78648  20604543.46148
        49.750          41.250  
  24450513.148 5      3011.808 5  -3244257.127 5  -2519702.48046  24450502.81346
        39.250          23.500  
  20738036.641 7      -867.116 7    832239.369 7    657356.39848  20738027.24248
        49.250          40.250  
  21247816.023 7      1461.516 7  -6745808.407 7  -5225630.54148  21247805.16048
        50.500          39.000  
  23924203.484 5       992.694 5  -6258539.151 5  -5480813.29046  23924197.77746
        40.750          24.500  
  25032579.430 4     -3778.031 4  12752499.751 4   9909682.67145  25032577.64845
        37.500          17.750  
 11  3 23 16 42 30.0000000  0 12G03G06G09G14G15G16G18G19G21G22G27G29
  22043700.305 6      1101.113 6  -7209259.487 6  -5576555.34947  22043691.90247
        45.000          32.000  
  21956508.609 7       749.953 7  -5789515.735 7  -4480151.49648  21956500.50048
        48.250          35.250  
  23944797.852 5      2660.603 5  -5933593.156 5  -4600647.88046  23944791.79346
        42.000          22.500  
  23329050.688 6      3552.152 6 -11879846.722 6  -9244227.00947  23329043.16447
        44.500          29.000  
  22360627.539 6     -2468.507 6   5434359.889 6   4236024.77748  22360619.66448
        47.500          35.000  
  25324522.203 3     -2397.050 3   3297815.846 3   2926375.40145  25324514.85545
        36.500          15.500  
  20604986.508 7      -151.897 7  -1285794.773 7   -987399.37148  20604976.75848
        50.000          41.000  
  24441929.484 4      3007.234 4  -3289365.630 4  -2554851.93946  24441919.09046
        38.000          22.750  
  20740529.664 7      -873.387 7    845340.174 7    667564.81148  20740519.97348
        49.750          40.250  
  21243657.258 7      1457.040 7  -6767664.003 7  -5242660.87148  21243646.04348
        50.250          39.500  
  23921391.633 5       985.679 5  -6273324.341 5  -5492334.16246  23921383.75846
        41.750          25.500  
  25043362.859 3     -3777.724 3  12809165.616 3   9953837.80045  25043360.55145
        37.000          17.750  
 11  3 23 16 42 45.0000000  0 12G03G06G09G14G15G16G18G19G21G22G27G29
  22040584.828 6      1091.484 6  -7225631.741 6  -5589312.95447  22040576.60247
        44.500          31.750  
  21954393.766 7       740.996 7  -5800630.675 7  -4488812.50548  21954385.71548
        49.000          35.500  
  23937215.727 5      2655.950 5  -5973432.408 5  -4631691.38046  23937210.78146
        41.500          23.000  
  23318919.766 6      3549.171 6 -11933084.289 6  -9285710.79647  23318912.77047
        44.500          28.000  
  22367692.883 6     -2475.245 6   5471488.558 6   4264956.17348  22367685.18448
        47.250          35.250  
  25331369.805 2     -2398.990 2   3333800.702 2   2954415.50145  25331362.39845
        35.500          14.750  
  20605432.391 7      -156.246 7  -1283451.083 7   -985573.11648  20605422.52348
        50.500          41.000  
  24433357.688 4      3002.647 4  -3334405.337 4  -2589947.84046  24433347.99646
        37.500          22.500  
  20743040.570 7      -879.639 7    858534.756 7    677846.28548  20743030.99648
        49.750          40.500  
  21239510.992 7      1452.581 7  -6789452.716 7  -5259639.08048  21239499.77748
        50.500          39.500  
  23918596.742 5       978.666 5  -6288004.332 5  -5503773.07346  23918589.86346
        40.000          26.250  
  25054145.281 3     -3777.385 3  12865826.386 3   9997989.00346  25054143.50046
        37.000          19.500  
