     2.11           OBSERVATION DATA    GPS(GPS)            RINEX VERSION / TYPE
cnvtToRINEX 2.11.0  Stan Thomas         26-Mar-11 14:09 UTC PGM / RUN BY / DATE 
----------------------------------------------------------- COMMENT             
CLF1                                                        MARKER NAME         
CLF1                                                        MARKER NUMBER       
Stan Thomas         University of Utah                      OBSERVER / AGENCY   
4644124574          NetRS               1.12                REC # / TYPE / VERS 
12532422            TRM41249.00                             ANT # / TYPE        
 -1924371.1437 -4553662.6514  4018740.9994                  APPROX POSITION XYZ 
        1.2560        0.0000        0.0000                  ANTENNA: DELTA H/E/N
     1     1     0                                          WAVELENGTH FACT L1/2
     7    C1    D1    L1    L2    P2    S1    S2            # / TYPES OF OBSERV 
  2011     3    24    16    14   15.0000000     GPS         TIME OF FIRST OBS   
  2011     3    24    23    33    0.0000000     GPS         TIME OF LAST OBS    
     0                                                      RCV CLOCK OFFS APPL 
    15                                                      LEAP SECONDS        
    24                                                      # OF SATELLITES     
   G03   859   859   854   782   782   859   782            PRN / # OF OBS      
   G04   208   208   194   114   114   208   114            PRN / # OF OBS      
   G06   789   789   784   748   748   789   748            PRN / # OF OBS      
   G07    50    50    47     1     1    50     1            PRN / # OF OBS      
   G09   832   832   827   785   785   832   785            PRN / # OF OBS      
   G11  1195  1195  1183  1042  1042  1195  1042            PRN / # OF OBS      
   G12   386   386   378   260   260   386   260            PRN / # OF OBS      
   G13   332   332   331   246   246   332   246            PRN / # OF OBS      
   G14  1595  1595  1594  1576  1576  1595  1576            PRN / # OF OBS      
   G15   481   481   480   467   467   481   467            PRN / # OF OBS      
   G16   689   689   686   521   521   689   521            PRN / # OF OBS      
   G18  1055  1055  1049  1006  1006  1055  1006            PRN / # OF OBS      
   G19  1036  1036  1032   978   978  1036   978            PRN / # OF OBS      
   G20   842   842   841   776   776   842   776            PRN / # OF OBS      
   G21   670   670   670   651   651   670   651            PRN / # OF OBS      
   G22  1387  1387  1383  1340  1340  1387  1340            PRN / # OF OBS      
   G23   728   728   726   673   673   728   673            PRN / # OF OBS      
   G24  1220  1220  1219  1179  1179  1220  1179            PRN / # OF OBS      
   G25   770   770   760   695   695   770   695            PRN / # OF OBS      
   G26    39    39    39    39    39    39    39            PRN / # OF OBS      
   G27   669   669   662   622   622   669   622            PRN / # OF OBS      
   G29   147   147   145   118   118   147   118            PRN / # OF OBS      
   G30   686   686   679   615   615   686   615            PRN / # OF OBS      
   G31  1269  1269  1268  1207  1207  1269  1207            PRN / # OF OBS      
CARRIER PHASE MEASUREMENTS: PHASE SHIFTS REMOVED            COMMENT             
                                                            END OF HEADER       
 11  3 24 16 14 15.0000000  0 12G03G06G09G14G15G16G18G21G22G26G27G29
  22476410.22716      1967.73416   -146035.70616    -85127.88257  22476401.41457
        43.500          28.000  
  22289092.93016      1564.06316     -6031.49616     24215.51157  22289085.05557
        45.250          32.500  
  24715667.29715      2982.10915   -400496.67315   -294960.94256  24715660.53556
        40.500          19.750  
  24351933.43814      3744.14114   -649302.45114   -484314.93256  24351927.08656
        39.000          20.000  
  21764651.74216     -1723.85916   1140000.36716    881725.55358  21764642.98858
        47.500          37.750  
  24718027.32813     -2099.46913   1276312.19013    986631.81056  24718017.52056
        37.000          19.000  
  20626726.20317       311.34417    449288.72717    360528.81458  20626715.92658
        48.750          41.250  
  20572387.55517      -291.25017    655662.17717    516139.85858  20572377.33658
        50.250          41.250  
  21720101.03117      1900.65617    -99833.65017    -53638.96358  21720090.10958
        49.500          37.750  
  24177202.74216     -3585.84416   1766227.59616   1361074.50756  24177193.69556
        45.000          23.750  
  24261306.06314      1586.46914     50203.65414     49653.90056  24261298.36356
        37.500          21.000  
  24014346.38315     -3718.79715   1824046.88115   1405056.77156  24014340.20756
        40.000          25.250  
 11  3 24 16 14 30.0000000  0 12G03G06G09G14G15G16G18G21G22G26G27G29
  22470807.398 6      1962.659 6   -175475.587 6   -108068.04647  22470799.05547
        44.750          27.750  
  22284641.594 6      1559.332 6    -29421.469 6      5989.56547  22284634.18847
        45.750          32.750  
  24707160.734 5      2980.444 5   -445203.330 5   -329797.24046  24707153.15246
        40.000          19.750  
  24341249.781 4      3742.882 4   -705445.683 4   -528062.87446  24341242.43446
        38.250          20.000  
  21769586.594 7     -1728.953 7   1165934.661 7    901934.07648  21769578.42648
        48.250          38.000  
  24724028.219 3     -2102.286 3   1307846.485 3   1011203.95745  24724018.00045
        36.500          17.750  
  20625846.586 7       308.094 7    444667.324 7    356927.71649  20625836.71949
        49.000          41.500  
  20573229.281 7      -294.867 7    660085.187 7    519586.35049  20573219.41449
        50.000          41.500  
  21714684.398 7      1897.635 7   -128298.173 7    -75819.11348  21714673.53548
        49.250          38.750  
  24187447.836 6     -3589.155 6   1820064.928 6   1403025.61746  24187439.19946
        45.500          22.000  
  24256787.602 5      1583.043 5     26458.004 5     31150.86046  24256780.43046
        39.250          21.500  
  24024965.797 5     -3720.362 5   1879852.311 5   1448541.47246  24024959.21146
        40.250          24.500  
 11  3 24 16 14 45.0000000  0 12G03G06G09G14G15G16G18G21G22G26G27G29
  22465229.836 6      1954.211 6   -204788.746 6   -130909.45047  22465221.19947
        43.000          28.750  
  22280213.609 6      1551.309 6    -52691.103 6    -12142.62947  22280205.91047
        47.000          32.500  
  24698658.906 5      2978.539 5   -489881.409 5   -364611.26746  24698651.85246
        39.500          20.000  
  24330568.703 4      3741.908 4   -761574.305 4   -571799.38846  24330562.29346
        38.750          19.000  
  21774546.820 6     -1737.508 6   1191997.275 6    922242.58948  21774537.59848
        47.500          37.750  
  24730040.656 2     -2106.550 2   1339444.732 2   1035825.89845  24730031.72745
        35.500          17.750  
  20624981.289 7       303.200 7    440119.323 7    353383.81848  20624971.53948
        48.000          41.250  
  20574087.328 7      -300.538 7    664593.255 7    523099.12649  20574077.22749
        51.000          41.750  
  21709280.742 7      1893.177 7   -156695.823 7    -97947.15248  21709269.35248
        50.000          38.000  
  24197706.602 6     -3594.357 6   1873980.286 6   1445037.50246  24197697.37946
        45.000          22.000  
  24252283.828 5      1577.748 5      2791.784 5     12709.72046  24252276.77346
        40.000          21.250  
  24035589.625 5     -3721.908 5   1935680.931 5   1492044.23046  24035582.51246
        39.500          23.500  
 11  3 24 16 15  0.0000000  0 12G03G06G09G14G15G16G18G21G22G26G27G29
  22459676.070 6      1945.752 6   -233975.031 6   -153651.98947  22459666.67247
        44.000          30.000  
  22275808.594 6      1543.271 6    -75840.168 6    -30180.87647  22275801.01247
        46.500          31.750  
  24690162.453 5      2976.610 5   -534530.564 5   -399402.72446  24690155.51646
        40.500          20.250  
  24319889.922 5      3740.914 5   -817688.022 5   -615524.31746  24319884.39146
        39.500          19.750  
  21779530.211 6     -1746.044 6   1218187.941 6    942650.89848  21779521.51648
        47.500          38.000  
  24736064.438 2     -2110.784 2   1371106.485 2   1060497.42045  24736056.97345
        35.500          17.250  
  20624129.836 7       298.323 7    435644.472 7    349896.90848  20624120.02748
        48.250          41.000  
  20574961.039 7      -306.210 7    669186.407 7    526678.19348  20574951.40648
        50.250          41.000  
  21703889.867 7      1888.711 7   -185026.489 7   -120022.99348  21703878.12548
        49.750          38.000  
  24207982.914 6     -3599.514 6   1927972.997 6   1487109.70246  24207971.93446
        44.500          22.500  
  24247794.680 5      1572.441 5    -20794.836 5     -5669.40646  24247788.15246
        41.500          22.000  
  24046218.109 4     -3723.432 4   1991532.410 4   1535564.81046  24046211.05546
        38.250          24.000  
 11  3 24 16 15 15.0000000  0 12G03G06G09G14G15G16G18G21G22G26G27G29
  22454146.258 6      1937.246 6   -263033.725 6   -176295.12847  22454137.85547
        45.000          30.000  
  22271426.414 6      1535.194 6    -98868.075 6    -48124.69547  22271418.18847
        47.250          32.000  
  24681670.906 5      2974.619 5   -579149.849 5   -434170.91546  24681664.37946
        39.250          20.000  
  24309215.781 4      3739.877 4   -873786.175 4   -659237.08846  24309209.07846
        39.000          20.500  
  21784538.789 7     -1754.594 7   1244506.855 7    963159.12248  21784529.50848
        48.250          38.000  
  24742100.945 1     -2115.012 1   1402831.670 1   1085218.27245  24742093.77345
        33.500          18.250  
  20623292.617 7       293.422 7    431243.139 7    346467.30048  20623282.57448
        48.750          41.000  
  20575851.563 7      -311.916 7    673865.147 7    530323.94948  20575841.75448
        50.500          41.000  
  21698511.211 7      1884.225 7   -213289.857 7   -142046.38348  21698500.40648
        50.250          38.750  
  24218271.391 6     -3604.692 6   1982043.378 6   1529242.40346  24218261.81646
        44.500          21.000  
  24243321.820 5      1567.085 5    -44301.119 5    -23985.91346  24243315.17646
        41.250          21.750  
  24056850.383 5     -3724.962 5   2047406.846 5   1579103.27446  24056843.85546
        39.250          23.500  
 11  3 24 16 15 30.0000000  0 12G03G06G09G14G15G16G18G21G22G26G27G29
  22448640.688 6      1928.719 6   -291964.513 6   -198838.59947  22448632.34447
        46.000          29.750  
  22267067.664 6      1527.095 6   -121774.506 6    -65973.87547  22267059.67247
        46.750          33.000  
  24673185.977 5      2972.591 5   -623738.716 5   -468915.42246  24673179.62546
        39.750          19.500  
  24298543.570 5      3738.804 5   -929868.234 5   -702937.32946  24298536.75046
        40.750          21.250  
  21789571.359 7     -1763.134 7   1270953.862 7    983767.16848  21789562.54748
        48.500          38.500  
  24748152.000 1     -2119.245 1   1434620.342 1   1109988.68445  24748143.24645
        33.750          17.250  
  20622468.914 7       288.506 7    426915.552 7    343095.14048  20622459.57448
        48.500          41.250  
  20576758.328 7      -317.643 7    678629.789 7    534036.65748  20576748.28548
        50.750          41.250  
  21693145.789 7      1879.733 7   -241485.853 7   -164017.28248  21693134.75048
        49.750          38.500  
  24228574.516 6     -3609.834 6   2036190.895 6   1571435.21246  24228564.88346
        44.500          20.500  
  24238863.813 5      1561.693 5    -67726.510 5    -42239.43746  24238857.28546
        41.000          21.500  
  24067488.055 4     -3726.481 4   2103304.068 4   1622659.49146  24067480.59046
        38.750          24.750  
 11  3 24 16 15 45.0000000  0 12G03G06G09G14G15G16G18G21G22G26G27G29
  22443160.000 6      1920.210 6   -320767.660 6   -221282.59747  22443151.12947
        46.000          29.500  
  22262731.867 6      1519.012 6   -144559.686 6    -83728.56147  22262723.52347
        47.000          32.750  
  24664707.047 5      2970.561 5   -668297.126 5   -503636.18946  24664700.28546
        39.250          19.500  
  24287874.875 5      3737.737 5   -985934.296 5   -746625.10646  24287868.28946
        39.500          21.000  
  21794628.336 7     -1771.628 7   1297528.275 7   1004474.48648  21794619.75848
        47.750          38.000  
  24754211.352 2     -2123.407 2   1466471.444 2   1134807.68445  24754203.77045
        34.250          17.250  
  20621659.281 7       283.646 7    422660.867 7    339779.79449  20621649.41449
        48.000          41.500  
  20577681.133 7      -323.349 7    683480.017 7    537816.03848  20577671.09048
        51.250          40.500  
  21687793.227 7      1875.275 7   -269614.979 7   -185936.07748  21687781.95348
        50.000          38.000  
  24238892.313 6     -3614.931 6   2090414.857 6   1613687.60046  24238883.14846
        44.250          20.250  
  24234421.586 5      1556.309 5    -91071.148 5    -60430.01746  24234414.41446
        41.500          20.750  
  24078128.594 5     -3727.953 5   2159223.367 5   1666232.89746  24078121.94946
        39.500          23.250  
 11  3 24 16 16  0.0000000  0 12G03G06G09G14G15G16G18G21G22G26G27G29
  22437702.922 6      1911.682 6   -349442.896 6   -243626.93347  22437694.81347
        46.250          30.000  
  22258419.305 7      1510.934 7   -167223.690 7   -101388.82447  22258410.96147
        47.750          33.500  
  24656232.859 4      2968.525 4   -712825.003 4   -538333.16246  24656226.68446
        38.750          19.250  
  24277208.188 5      3736.659 5  -1041984.177 5   -790300.27746  24277201.71946
        40.000          19.750  
  21799709.539 6     -1780.107 6   1324229.885 6   1025280.92248  21799700.37548
        47.500          37.750  
  24760284.016 1     -2127.533 1   1498384.442 1   1159674.95145  24760277.19545
        33.000          18.250  
  20620863.398 7       278.788 7    418479.043 7    336521.22749  20620853.53149
        47.750          41.500  
  20578620.289 7      -329.048 7    688415.734 7    541662.04648  20578610.83248
        51.000          40.500  
  21682452.664 7      1870.822 7   -297677.306 7   -207802.81748  21682441.74248
        50.250          39.000  
  24249226.914 6     -3619.983 6   2144714.602 6   1655999.02946  24249215.46546
        43.500          20.500  
  24229994.945 5      1550.917 5   -114334.906 5    -78557.58946  24229987.65646
        41.250          21.000  
  24088773.953 5     -3729.394 5   2215164.281 5   1709823.18046  24088766.72346
        39.250          24.500  
 11  3 24 16 16 15.0000000  0 12G03G06G09G14G15G16G18G21G22G26G27G29
  22432270.453 6      1903.127 6   -377989.799 6   -265871.25147  22432262.46147
        45.250          30.000  
  22254129.867 6      1502.817 6   -189765.951 6   -118954.23347  22254120.93847
        47.500          33.250  
  24647764.648 4      2966.442 4   -757321.636 4   -573005.80846  24647759.23446
        37.750          19.000  
  24266545.234 5      3735.554 5  -1098017.482 5   -833962.51246  24266539.00046
        40.250          19.750  
  21804814.508 6     -1788.561 6   1351058.296 6   1046186.17248  21804805.75448
        47.500          38.000  
  24766368.563 2     -2131.657 2   1530359.296 2   1184590.34945  24766361.44945
        34.000          16.250  
  20620081.508 7       273.924 7    414370.180 7    333319.50949  20620071.69949
        48.500          41.500  
  20579575.898 7      -334.768 7    693437.249 7    545574.91148  20579566.03148
        50.500          40.750  
  21677125.227 7      1866.362 7   -325672.737 7   -229617.43748  21677114.36348
        49.250          38.750  
  24259573.719 6     -3625.022 6   2199089.929 6   1698369.35546  24259564.32046
        42.500          20.000  
  24225582.945 5      1545.495 5   -137517.334 5    -96621.77546  24225576.24246
        40.750          21.000  
  24099423.117 5     -3730.830 5   2271126.726 5   1753430.22246  24099415.77046
        39.250          23.500  
 11  3 24 16 16 30.0000000  0 12G03G06G09G14G15G16G18G21G22G26G27G29
  22426863.195 6      1894.531 6   -406407.767 6   -288015.12647  22426855.08647
        46.000          30.500  
  22249863.797 7      1494.660 7   -212185.856 7   -136424.29248  22249855.16048
        48.250          34.000  
  24639302.891 3      2964.308 3   -801786.254 3   -607653.50345  24639297.94545
        37.000          18.250  
  24255885.430 5      3734.391 5  -1154033.354 5   -877611.17846  24255880.36746
        39.750          19.250  
  21809944.125 7     -1797.032 7   1378013.769 7   1067190.42848  21809935.25448
        48.750          37.750  
  24772464.984 1     -2135.795 1   1562396.228 1   1209554.18645  24772457.75445
        33.000          16.750  
  20619313.719 7       269.032 7    410334.705 7    330174.97448  20619303.73448
        49.000          41.000  
  20580548.164 7      -340.527 7    698545.159 7    549555.08748  20580537.94548
        50.500          41.000  
  21671810.930 7      1861.840 7   -353600.336 7   -251379.19548  21671799.89148
        49.500          39.000  
  24269935.844 6     -3630.067 6   2253540.935 6   1740798.67845  24269926.38745
        42.500          18.500  
  24221186.859 5      1540.021 5   -160617.649 5   -114621.98646  24221180.68446
        41.500          22.000  
  24110076.672 5     -3732.272 5   2327110.805 5   1797054.12946  24110069.96946
        40.500          22.500  
 11  3 24 16 16 45.0000000  0 12G03G06G09G14G15G16G18G21G22G26G27G29
  22421479.688 6      1886.000 6   -434697.769 6   -310059.28147  22421471.46147
        46.000          30.000  
  22245619.953 7      1486.573 7   -234484.457 7   -153799.83147  22245611.78547
        48.000          33.500  
  24630847.547 5      2962.208 5   -846219.369 5   -642276.65046  24630843.24646
        39.750          19.500  
  24245229.164 5      3733.293 5  -1210032.742 5   -921246.99546  24245223.51646
        40.250          19.500  
  21815097.375 7     -1805.415 7   1405094.991 7   1088292.65848  21815088.56348
        48.500          37.500  
  24778573.531 2     -2139.827 2   1594493.640 2   1234565.11845  24778564.60245
        34.750          15.500  
  20618559.641 7       264.219 7    406371.420 7    327086.69348  20618549.71548
        49.500          41.000  
  20581536.492 7      -346.213 7    703738.356 7    553601.72448  20581526.03948
        51.250          40.500  
  21666509.031 7      1857.441 7   -381461.944 7   -273089.53548  21666498.34448
        49.750          38.500  
  24280310.375 6     -3635.002 6   2308065.972 6   1783285.62246  24280303.32046
        42.500          20.000  
  24216806.719 5      1534.602 5   -183636.672 5   -132558.86946  24216800.36746
        41.000          22.000  
  24120733.922 5     -3733.612 5   2383114.988 5   1840693.68646  24120726.69146
        39.750          22.750  
 11  3 24 16 17  0.0000000  0 12G03G06G09G14G15G16G18G21G22G26G27G29
  22416120.250 6      1877.402 6   -462858.796 6   -332002.91847  22416112.60947
        45.750          29.750  
  22241400.039 7      1478.417 7   -256660.717 7   -171080.04048  22241391.69548
        48.000          34.000  
  24622399.641 5      2960.039 5   -890619.954 5   -676874.45046  24622394.34446
        40.250          19.500  
  24234576.258 5      3732.117 5  -1266014.494 5   -964869.09546  24234570.60946
        40.000          19.250  
  21820274.594 7     -1813.824 7   1432302.351 7   1109493.18248  21820266.19148
        48.000          37.500  
  24784692.852 2     -2143.879 2   1626651.818 2   1259623.38045  24784683.92245
        35.250          16.750  
  20617819.211 7       259.377 7    402480.765 7    324055.01248  20617809.16848
        48.250          41.000  
  20582540.891 7      -351.961 7    709017.778 7    557715.55148  20582530.90648
        51.500          41.000  
  21661219.828 7      1852.976 7   -409256.589 7   -294747.69748  21661209.19948
        50.250          38.250  
  24290700.469 6     -3639.969 6   2362665.510 6   1825830.69146  24290693.59046
        42.500          20.250  
  24212442.594 5      1529.116 5   -206573.412 5   -150431.62446  24212435.59846
        42.000          22.250  
  24131395.813 5     -3734.993 5   2439139.879 5   1884349.40146  24131388.28946
        39.500          22.500  
 11  3 24 16 17 15.0000000  0 12G03G06G09G14G15G16G18G21G22G26G27G29
  22410786.625 6      1868.769 6   -490890.327 6   -353845.66847  22410778.10547
        45.000          30.750  
  22237203.750 7      1470.243 7   -278714.367 7   -188264.70448  22237195.28948
        48.000          34.250  
  24613956.602 5      2957.824 5   -934987.320 5   -711446.33646  24613951.01246
        39.500          20.250  
  24223927.094 5      3730.920 5  -1321978.301 5  -1008477.18146  24223919.86346
        40.250          19.000  
  21825475.688 7     -1822.241 7   1459635.973 7   1130792.09048  21825467.34448
        48.000          37.250  
  24790825.281 2     -2147.916 2   1658870.555 2   1284728.90945  24790815.12145
        34.500          17.250  
  20617092.508 7       254.527 7    398662.857 7    321080.00748  20617082.87548
        49.000          40.750  
  20583561.828 7      -357.716 7    714383.513 7    561896.63748  20583551.60948
        51.000          40.750  
  21655943.438 7      1848.500 7   -436984.082 7   -316353.52548  21655932.57448
        49.500          38.500  
  24301105.273 5     -3644.906 5   2417339.102 5   1868433.40046  24301097.80946
        41.750          19.250  
  24208093.063 5      1523.601 5   -229427.429 5   -168239.93346  24208086.94546
        41.250          22.000  
  24142060.266 5     -3736.350 5   2495185.126 5   1928020.94946  24142053.44546
        40.750          24.500  
 11  3 24 16 17 30.0000000  0 12G03G06G09G14G15G16G18G21G22G26G27G29
  22405476.617 6      1860.159 6   -518792.709 6   -375587.78147  22405468.39147
        45.750          30.500  
  22233030.008 7      1462.089 7   -300645.705 7   -205354.05748  22233022.13348
        48.000          34.500  
  24605519.500 4      2955.625 4   -979321.689 4   -745992.53846  24605514.02746
        38.500          20.500  
  24213280.328 5      3729.727 5  -1377924.213 5  -1052071.33946  24213274.50446
        40.000          19.250  
  21830701.336 7     -1830.591 7   1487094.837 7   1152188.59548  21830692.81648
        48.500          37.000  
  24796967.063 2     -2151.884 2   1691148.816 2   1309880.72645  24796957.84045
        34.000          15.500  
  20616379.727 7       249.712 7    394917.175 7    318161.28448  20616369.91848
        50.000          40.750  
  20584599.500 7      -363.456 7    719835.357 7    566144.82048  20584589.22348
        50.750          40.750  
  21650679.633 7      1844.042 7   -464644.719 7   -337907.26848  21650668.77048
        49.500          37.750  
  24311523.078 5     -3649.787 5   2472085.906 5   1911093.19146  24311516.55146
        41.000          20.000  
  24203758.883 4      1518.096 4   -252198.876 4   -185983.89546  24203753.82046
        37.750          22.000  
  24152729.641 5     -3737.662 5   2551250.057 5   1971707.85146  24152722.35246
        41.500          22.750  
 11  3 24 16 17 45.0000000  0 12G03G06G09G14G15G16G18G21G22G26G27G29
  22400191.672 6      1851.508 6   -546565.332 6   -397228.77847  22400183.62147
        46.500          30.500  
  22228879.977 7      1453.896 7   -322454.151 7   -222347.66148  22228872.04348
        49.000          35.000  
  24597089.328 5      2953.370 5  -1023622.245 5   -780512.38946  24597084.20746
        39.750          19.500  
  24202637.609 5      3728.484 5  -1433851.468 5  -1095650.97745  24202631.02345
        40.500          17.750  
  21835950.578 7     -1838.956 7   1514679.182 7   1173682.87748  21835942.23448
        48.750          37.250  
  24803119.477 2     -2155.875 2   1723486.948 2   1335079.24945  24803111.19145
        34.000          16.250  
  20615680.727 7       244.877 7    391244.018 7    315299.07548  20615670.80148
        49.250          41.000  
  20585653.508 7      -369.232 7    725373.834 7    570460.50748  20585643.75848
        51.000          40.250  
  21645428.742 7      1839.565 7   -492238.198 7   -359408.67648  21645418.23048
        49.750          38.000  
  24321954.992 5     -3654.663 5   2526905.850 5   1953809.96546  24321947.93846
        40.750          20.000  
  24199442.914 5      1512.544 5   -274887.029 5   -203662.97846  24199436.09446
        40.750          22.500  
  24163402.758 5     -3738.986 5   2607334.839 5   2015410.22246  24163395.00046
        41.750          26.000  
 11  3 24 16 18  0.0000000  0 12G03G06G09G14G15G16G18G21G22G26G27G29
  22394931.258 6      1842.806 6   -574207.416 6   -418768.06147  22394923.61747
        45.000          30.000  
  22224753.438 7      1445.653 7   -344138.944 7   -239244.90648  22224744.97748
        49.000          35.000  
  24588666.344 5      2951.043 5  -1067887.885 5   -815005.03046  24588660.52046
        40.000          20.250  
  24191998.352 4      3727.183 4  -1489759.217 4  -1139215.39046  24191991.94146
        39.000          19.750  
  21841223.867 7     -1847.346 7   1542389.368 7   1195275.21648  21841215.05548
        48.500          37.250  
  24809284.617 1     -2159.881 1   1755885.164 1   1360324.59645  24809276.74245
        32.000          16.750  
  20614995.570 7       239.999 7    387644.038 7    312493.88948  20614985.23448
        48.750          40.500  
  20586723.914 7      -375.048 7    730999.551 7    574844.16848  20586714.04748
        50.500          40.500  
  21640190.555 7      1835.046 7   -519763.892 7   -380857.25648  21640180.10248
        49.750          38.500  
  24332397.492 5     -3659.557 5   2581799.202 5   1996583.88746  24332394.65646
        40.500          19.750  
  24195141.156 6      1506.933 6   -297491.020 6   -221276.42646  24195134.74646
        42.500          22.000  
  24174079.047 5     -3740.314 5   2663439.553 5   2059128.13846  24174071.58246
        41.250          22.500  
 11  3 24 16 18 15.0000000  0 12G03G06G09G14G15G16G18G21G22G26G27G29
  22389695.820 6      1834.160 6   -601719.814 6   -440206.29147  22389687.59447
        45.750          29.500  
  22220650.445 7      1437.455 7   -365700.775 7   -256046.32848  22220642.68848
        48.750          34.250  
  24580249.414 5      2948.749 5  -1112119.114 5   -849470.85246  24580243.12146
        39.750          20.250  
  24181362.922 5      3725.932 5  -1545648.195 5  -1182765.16745  24181356.10245
        39.500          18.500  
  21846520.734 7     -1855.648 7   1570224.091 7   1216964.60048  21846512.03948
        48.750          37.500  
  24815459.898 1     -2163.792 1   1788342.049 1   1385615.69445  24815453.78145
        33.500          16.750  
  20614324.320 7       235.189 7    384116.203 7    309744.92048  20614314.51248
        48.750          40.500  
  20587810.930 7      -380.813 7    736711.742 7    579295.21948  20587800.77048
        50.750          40.500  
  21634965.578 7      1830.600 7   -547222.892 7   -402253.87348  21634955.00848
        50.250          38.250  
  24342858.898 5     -3664.351 5   2636764.474 5   2039413.90046  24342854.42246
        40.500          19.000  
  24190855.516 5      1501.366 5   -320011.506 5   -238824.86746  24190848.40246
        41.750          20.750  
  24184759.563 5     -3741.563 5   2719563.002 5   2102860.64746  24184751.39546
        41.500          23.000  
 11  3 24 16 18 30.0000000  0 12G03G06G09G14G15G16G18G21G22G26G27G29
  22384485.641 6      1825.465 6   -629101.785 6   -461542.87847  22384477.59047
        45.500          29.250  
  22216570.523 7      1429.232 7   -387139.249 7   -272751.63548  22216562.47348
        48.750          34.750  
  24571839.211 5      2946.407 5  -1156315.220 5   -883909.32746  24571832.50846
        40.500          20.250  
  24170732.852 5      3724.637 5  -1601517.750 5  -1226299.78945  24170724.85945
        40.000          17.750  
  21851841.414 7     -1863.959 7   1598183.470 7   1238751.12348  21851832.42648
        48.750          37.500  
  24821647.781 1     -2167.687 1   1820857.349 1   1410952.27645  24821641.60545
        33.750          16.250  
  20613666.563 7       230.374 7    380660.600 7    307052.23548  20613656.63748
        49.500          40.500  
  20588914.336 7      -386.598 7    742510.719 7    583813.89048  20588904.23448
        50.750          40.250  
  21629753.016 7      1826.127 7   -574614.789 7   -423598.20248  21629742.38748
        50.250          37.500  
  24353333.070 4     -3669.143 4   2691801.624 4   2082299.94046  24353326.95346
        39.000          19.500  
  24186585.742 5      1495.761 5   -342447.916 5   -256307.78246  24186578.62946
        42.000          21.500  
  24195442.813 6     -3742.817 6   2775705.253 6   2146607.77546  24195434.58646
        43.750          24.500  
 11  3 24 16 18 45.0000000  0 12G03G06G09G14G15G16G18G21G22G26G27G29
  22379299.898 6      1816.756 6   -656353.125 6   -482777.70247  22379291.84847
        45.250          29.750  
  22212514.797 7      1420.983 7   -408453.989 7   -289360.52748  22212506.98048
        48.750          34.500  
  24563435.516 5      2944.027 5  -1200475.628 5   -918319.95446  24563428.81346
        41.250          21.000  
  24160103.109 5      3723.312 5  -1657367.422 5  -1269818.97245  24160097.52045
        39.250          18.500  
  21857185.102 7     -1872.261 7   1626267.383 7   1260634.67848  21857176.58248
        48.750          36.500  
  24827846.875 2     -2171.592 2   1853431.234 2   1436334.47245  24827840.69945
        35.500          16.750  
  20613022.852 7       225.561 7    377277.192 7    304415.80148  20613012.98448
        48.750          40.500  
  20590034.500 7      -392.404 7    748396.781 7    588400.42448  20590024.57448
        50.500          41.000  
  21624553.383 7      1821.646 7   -601939.473 7   -444890.15948  21624542.63748
        50.250          38.000  
  24363818.102 4     -3673.921 4   2746910.438 4   2125241.82445  24363814.21145
        39.000          17.250  
  24182332.680 5      1490.130 5   -364799.867 5   -273724.90046  24182325.33246
        41.750          21.000  
  24206129.445 5     -3744.055 5   2831866.074 5   2190369.41946  24206121.80546
        41.250          24.750  
 11  3 24 16 19  0.0000000  0 12G03G06G09G14G15G16G18G21G22G26G27G29
  22374138.711 6      1808.034 6   -683473.633 6   -503910.56447  22374131.12947
        45.000          30.250  
  22208482.258 7      1412.741 7   -429645.105 7   -305873.08948  22208474.09048
        49.000          35.500  
  24555038.609 5      2941.631 5  -1244600.098 5   -952702.57946  24555032.25846
        40.750          22.000  
  24149479.227 4      3721.989 4  -1713197.256 4  -1313322.65446  24149472.28946
        38.750          19.250  
  21862552.797 7     -1880.526 7   1654475.269 7   1282614.83248  21862544.33648
        48.750          36.750  
  24834056.750 3     -2175.447 3   1886062.935 3   1461761.77045  24834049.63745
        36.500          15.500  
  20612393.055 7       220.758 7    373965.826 7    301835.51648  20612382.83648
        49.250          40.750  
  20591170.742 7      -398.206 7    754369.874 7    593054.76948  20591160.99248
        51.000          40.750  
  21619366.242 7      1817.180 7   -629197.176 7   -466129.92048  21619355.67248
        50.000          38.500  
  24374320.242 4     -3678.653 4   2802090.232 4   2168238.96745  24374314.77045
        37.500          18.250  
  24178095.047 5      1484.490 5   -387067.220 5   -291076.06746  24178087.99246
        42.000          20.250  
  24216819.898 5     -3745.259 5   2888044.960 5   2234145.09746  24216812.66846
        41.500          25.250  
 11  3 24 16 19 15.0000000  0 12G03G06G09G14G15G16G18G21G22G26G27G29
  22369003.016 6      1799.319 6   -710463.424 6   -524941.56547  22368995.08247
        45.500          30.000  
  22204473.250 7      1404.507 7   -450712.708 7   -322289.40748  22204465.66848
        49.000          36.000  
  24546648.531 5      2939.231 5  -1288688.567 5   -987057.17446  24546643.11746
        40.500          22.250  
  24138859.516 5      3720.651 5  -1769007.023 5  -1356810.79145  24138852.40245
        39.250          18.500  
  21867943.930 7     -1888.749 7   1682806.499 7   1304691.10948  21867935.76248
        48.000          36.750  
  24840278.180 3     -2179.247 3   1918751.645 3   1487233.43045  24840270.07045
        37.000          17.250  
  20611776.094 7       215.985 7    370726.044 7    299311.00448  20611765.93448
        49.000          40.750  
  20592324.352 7      -403.994 7    760429.789 7    597776.76848  20592314.77748
        51.000          40.750  
  21614192.195 7      1812.739 7   -656388.260 7   -487317.77248  21614181.27348
        50.000          38.000  
  24384834.000 3     -3683.331 3   2857340.191 3   2211290.79145  24384829.17245
        36.500          17.750  
  24173873.742 5      1478.849 5   -409249.958 5   -308361.32146  24173867.15646
        41.750          20.750  
  24227513.891 5     -3746.416 5   2944241.207 5   2277934.33546  24227506.19146
        41.500          24.500  
 11  3 24 16 19 30.0000000  0 12G03G06G09G14G15G16G18G21G22G26G27G29
  22363892.117 6      1790.570 6   -737321.981 6   -545870.31247  22363883.94947
        45.250          30.500  
  22200487.758 7      1396.228 7   -471656.134 7   -338608.96848  22200479.82448
        49.000          35.500  
  24538266.383 5      2936.770 5  -1332740.121 5  -1021383.03646  24538260.61746
        40.500          22.000  
  24128242.953 4      3719.278 4  -1824796.194 4  -1400282.77545  24128236.19145
        38.000          18.500  
  21873358.773 7     -1896.989 7   1711261.339 7   1326863.69848  21873350.89848
        48.750          37.000  
  24846509.555 4     -2183.056 4   1951497.492 4   1512749.66445  24846501.03545
        38.000          17.250  
  20611173.156 7       211.191 7    367558.180 7    296842.53348  20611163.23048
        48.750          40.750  
  20593494.117 7      -409.814 7    766577.001 7    602566.80148  20593484.13348
        51.000          40.750  
  21609030.344 7      1808.264 7   -683512.216 7   -508453.31648  21609019.53948
        49.750          38.750  
  24395359.578 2     -3688.018 2   2912660.467 2   2254397.40845  24395356.56645
        35.500          17.250  
  24169668.961 5      1473.156 5   -431347.301 5   -325580.02245  24169662.08245
        41.500          18.500  
  24238210.523 5     -3747.592 5   3000455.087 5   2321737.29846  24238203.41046
        41.750          24.000  
 11  3 24 16 19 45.0000000  0 12G03G06G09G14G15G16G18G21G22G26G27G29
  22358805.922 6      1781.776 6   -764048.629 6   -566696.27047  22358798.22347
        45.000          29.250  
  22196526.047 7      1387.915 7   -492474.862 7   -354831.35348  22196518.40648
        48.750          35.500  
  24529890.867 5      2934.263 5  -1376754.061 5  -1055679.55746  24529884.98446
        41.500          22.250  
  24117630.750 4      3717.856 4  -1880564.040 4  -1443738.21645  24117623.87145
        38.250          17.750  
  21878796.930 7     -1905.239 7   1739839.925 7   1349132.70948  21878788.87948
        47.750          37.250  
  24852752.109 3     -2186.863 3   1984300.436 3   1538310.37145  24852743.35545
        36.500          16.250  
  20610583.805 7       206.376 7    364462.546 7    294430.34848  20610574.52348
        50.000          40.500  
  20594680.672 7      -415.669 7    772812.033 7    607425.25748  20594670.51248
        51.000          40.750  
  21603881.914 7      1803.758 7   -710568.593 7   -529536.20348  21603870.93448
        49.750          38.250  
  24405900.789 3     -3692.694 3   2968050.879 3   2297558.70545  24405897.54345
        36.000          16.750  
  24165479.852 5      1467.421 5   -453358.622 5   -342731.71046  24165473.32446
        41.500          19.750  
  24248911.406 5     -3748.764 5   3056686.545 5   2365553.96246  24248904.46946
        41.750          24.500  
 11  3 24 16 20  0.0000000  0 12G03G06G09G14G15G16G18G21G22G26G27G29
  22353744.969 6      1773.041 6   -790644.239 6   -587420.12947  22353737.03547
        45.250          30.250  
  22192587.648 7      1379.655 7   -513169.682 7   -370957.19048  22192580.35948
        48.000          34.500  
  24521522.398 5      2931.792 5  -1420730.938 5  -1089947.19546  24521516.39846
        41.750          22.750  
  24107021.992 4      3716.469 4  -1936311.075 4  -1487177.38245  24107015.23045
        38.500          18.250  
  21884258.758 6     -1913.406 6   1768541.020 6   1371497.18548  21884250.70748
        47.250          37.250  
  24859004.977 4     -2190.591 4   2017159.308 4   1563914.64845  24858996.80945
        37.500          17.750  
  20610008.695 7       201.633 7    361438.051 7    292073.58248  20609999.00448
        48.750          40.500  
  20595883.539 7      -421.463 7    779133.976 7    612351.42848  20595873.90648
        51.000          41.250  
  21598745.875 7      1799.330 7   -737558.543 7   -550567.32048  21598735.36348
        50.000          38.500  
  24416451.523 2     -3697.284 2   3023510.144 2   2340773.61645  24416451.50045
        35.000          16.250  
  24161307.648 5      1461.736 5   -475284.663 5   -359816.93746  24161301.64846
        41.750          20.000  
  24259615.156 5     -3749.841 5   3112934.157 5   2409383.21246  24259608.21946
        40.500          23.000  
 11  3 24 16 20 15.0000000  0 12G03G06G09G14G15G16G18G21G22G26G27G29
  22348708.797 6      1764.230 6   -817107.685 6   -608041.00147  22348701.27347
        45.500          30.750  
  22188673.258 7      1371.325 7   -533739.556 7   -386985.66448  22188665.67648
        48.000          34.250  
  24513161.570 5      2929.228 5  -1464669.364 5  -1124184.88046  24513154.16446
        41.750          21.500  
  24096417.781 4      3715.013 4  -1992036.265 4  -1530599.54646  24096410.72746
        38.500          19.500  
  21889744.141 7     -1921.612 7   1797365.201 7   1393957.57548  21889735.62148
        48.500          37.500  
  24865268.383 3     -2194.355 3   2050074.634 3   1589562.95645  24865260.44945
        36.750          17.250  
  20609446.859 7       196.835 7    358485.529 7    289772.92148  20609436.99248
        48.750          41.000  
  20597103.234 7      -427.325 7    785543.850 7    617346.12649  20597093.25049
        51.000          41.500  
  21593622.648 7      1794.839 7   -764481.120 7   -571545.94948  21593612.07848
        49.750          39.000  
  24427021.703 2     -3701.904 2   3079038.703 2   2384042.54945  24427018.57445
        35.250          16.250  
  24157152.180 5      1455.969 5   -497124.203 5   -376834.78946  24157145.59446
        41.750          20.750  
  24270321.422 5     -3750.972 5   3169198.739 5   2453225.69146  24270315.18846
        40.500          22.250  
 11  3 24 16 20 30.0000000  0 12G03G06G09G14G15G16G18G21G22G26G27G29
  22343698.406 6      1755.407 6   -843438.797 6   -628558.74947  22343690.47347
        45.500          30.750  
  22184783.086 6      1362.995 6   -554184.475 6   -402916.77648  22184775.03548
        47.500          34.000  
  24504808.016 6      2926.648 6  -1508569.077 6  -1158392.39346  24504800.72746
        43.000          22.750  
  24085818.258 4      3713.547 4  -2047739.477 4  -1574004.60446  24085811.08646
        38.750          19.500  
  21895252.766 7     -1929.792 7   1826312.087 7   1416513.56948  21895244.48048
        48.750          38.250  
  24871543.117 4     -2198.067 4   2083045.645 4   1615254.67045  24871534.71545
        37.750          15.500  
  20608898.805 7       192.058 7    355604.665 7    287528.07948  20608888.76248
        49.250          40.750  
  20598339.766 7      -433.174 7    792041.457 7    622409.18648  20598329.78148
        51.250          41.250  
  21588512.352 7      1790.353 7   -791336.423 7   -592472.15348  21588501.37148
        49.750          38.750  
  24437599.430 2     -3706.481 2   3134635.923 2   2427364.95445  24437598.64545
        34.000          16.750  
  24153012.828 5      1450.197 5   -518877.164 5   -393785.14246  24153006.59446
        40.750          19.750  
  24281031.633 5     -3752.068 5   3225479.756 5   2497080.96746  24281024.93046
        41.000          24.750  
 11  3 24 16 20 45.0000000  0 12G03G06G09G14G15G16G18G21G22G26G27G29
  22338712.852 6      1746.614 6   -869638.010 6   -648973.71547  22338705.15247
        45.500          31.000  
  22180915.680 6      1354.689 6   -574504.812 6   -418750.81448  22180908.03948
        47.000          34.000  
  24496461.852 6      2924.073 6  -1552430.177 6  -1192569.82046  24496454.56346
        43.000          24.500  
  24075222.234 4      3712.088 4  -2103420.794 4  -1617392.58746  24075215.76646
        39.000          20.500  
  21900784.672 7     -1937.918 7   1855380.864 7   1439164.55148  21900776.44548
        48.500          38.250  
  24877826.711 4     -2201.726 4   2116071.539 4   1640989.10645  24877819.07045
        37.500          15.500  
  20608364.039 7       187.316 7    352794.918 7    285338.66349  20608354.46549
        49.750          41.500  
  20599593.164 7      -438.998 7    798626.434 7    627540.32548  20599583.12148
        51.500          41.250  
  21583414.813 7      1785.900 7   -818124.920 7   -613346.30248  21583403.83248
        50.500          39.000  
  24448193.711 2     -3711.002 2   3190300.952 2   2470740.29345  24448192.22345
        34.500          15.500  
  24148889.438 5      1444.435 5   -540543.687 5   -410668.17146  24148883.26246
        41.250          20.000  
  24291744.547 5     -3753.105 5   3281776.323 5   2540948.36446  24291737.66846
        41.000          24.000  
 11  3 24 16 21  0.0000000  0 12G03G06G09G14G15G16G18G21G22G26G27G29
  22333752.320 6      1737.777 6   -895704.658 6   -669285.39547  22333744.79747
        46.250          31.000  
  22177073.063 7      1346.353 7   -594700.107 7   -434487.41747  22177064.42647
        47.750          33.500  
  24488122.719 6      2921.454 6  -1596251.981 6  -1226716.63746  24488115.19546
        43.500          23.250  
  24064631.352 4      3710.592 4  -2159079.679 4  -1660763.12446  24064624.23846
        38.750          20.500  
  21906338.898 7     -1946.037 7   1884571.417 7   1461910.42648  21906330.37948
        48.250          37.750  
  24884122.172 4     -2205.361 4   2149151.955 4   1666765.99445  24884114.06345
        37.500          16.750  
  20607842.586 7       182.562 7    350056.483 7    283204.81648  20607833.01248
        49.000          41.250  
  20600862.719 7      -444.855 7    805299.254 7    632739.91049  20600852.85249
        51.500          41.500  
  21578329.383 7      1781.435 7   -844846.450 7   -634168.26248  21578318.69548
        50.750          39.000  
  24458798.063 2     -3715.500 2   3246033.452 2   2514168.11045  24458798.27345
        35.500          16.750  
  24144783.203 5      1438.646 5   -562123.378 5   -427483.49846  24144776.73446
        41.250          20.000  
  24302460.555 5     -3754.154 5   3338088.636 5   2584828.03346  24302453.09046
        41.000          22.750  
 11  3 24 16 21 15.0000000  0 12G03G06G09G14G15G16G18G21G22G26G27G29
  22328817.594 6      1728.919 6   -921638.437 6   -689493.53247  22328810.18847
        46.250          31.750  
  22173253.891 6      1337.993 6   -614769.998 6   -450126.29748  22173245.72348
        47.250          33.750  
  24479790.945 6      2918.794 6  -1640033.887 6  -1260832.35646  24479783.42246
        43.000          23.750  
  24054043.750 4      3709.062 4  -2214715.607 4  -1704115.74246  24054036.69546
        39.000          20.750  
  21911917.016 7     -1954.145 7   1913883.585 7   1484751.05848  21911908.96548
        47.750          37.750  
  24890427.672 4     -2209.016 4   2182287.193 4   1692585.64245  24890419.38745
        38.250          15.500  
  20607335.750 7       177.804 7    347389.425 7    281126.58148  20607325.70748
        49.500          41.000  
  20602149.609 7      -450.729 7    812060.181 7    638008.16749  20602139.33249
        51.500          41.500  
  21573257.578 7      1776.957 7   -871500.798 7   -654937.87548  21573246.89148
        50.500          39.000  
  24469419.141 3     -3719.998 3   3301833.420 3   2557648.51245  24469416.83245
        36.750          17.750  
  24140692.961 5      1432.819 5   -583615.670 5   -444230.72946  24140686.84446
        41.500          20.500  
  24313179.789 5     -3755.185 5   3394416.415 5   2628719.75146  24313172.09046
        40.250          22.500  
 11  3 24 16 21 30.0000000  0 12G03G06G09G14G15G16G18G21G22G26G27G29
  22323908.008 6      1720.066 6   -947439.424 6   -709598.19847  22323900.48447
        46.750          31.750  
  22169458.383 6      1329.642 6   -634714.632 6   -465667.58647  22169450.44947
        47.500          33.500  
  24471467.227 6      2916.129 6  -1683775.818 6  -1294916.93246  24471459.76246
        43.500          22.500  
  24043460.836 5      3707.536 5  -2270328.654 5  -1747450.54646  24043454.19146
        40.250          21.500  
  21917517.547 7     -1962.214 7   1943316.798 7   1507686.01548  21917509.49648
        48.500          37.000  
  24896742.828 4     -2212.616 4   2215476.427 4   1718447.36345  24896734.95345
        38.500          16.750  
  20606841.477 7       173.073 7    344793.327 7    279103.64548  20606831.78548
        48.000          41.000  
  20603452.680 7      -456.578 7    818908.854 7    643344.77749  20603442.75449
        51.000          41.500  
  21568198.266 7      1772.503 7   -898088.346 7   -675655.43848  21568187.22748
        50.000          39.000  
  24480050.203 4     -3724.432 4   3357699.894 4   2601180.76445  24480048.77345
        37.500          16.750  
  24136619.914 5      1426.995 5   -605020.590 5   -460909.90346  24136613.38746
        40.500          20.000  
  24323900.656 5     -3756.165 5   3450758.893 5   2672622.91746  24323893.48446
        40.000          22.000  
 11  3 24 16 21 45.0000000  0 12G03G06G09G14G15G16G18G21G22G26G27G29
  22319023.344 6      1711.183 6   -973107.168 6   -729599.03547  22319015.99647
        46.500          31.250  
  22165687.000 6      1321.255 6   -654533.457 6   -481110.83047  22165679.18447
        46.500          33.500  
  24463151.219 6      2913.418 6  -1727477.092 6  -1328969.83046  24463143.63746
        43.750          25.250  
  24032883.180 5      3705.964 5  -2325918.114 5  -1790766.96246  24032875.83246
        39.250          21.250  
  21923141.773 7     -1970.300 7   1972871.302 7   1530715.47948  21923133.89848
        47.750          36.750  
  24903069.219 4     -2216.205 4   2248719.509 4   1744351.02645  24903060.17245
        37.750          16.250  
  20606360.867 7       168.313 7    342268.633 7    277136.34349  20606351.64549
        48.500          41.500  
  20604772.672 7      -462.470 7    825845.910 7    648750.26449  20604762.92249
        51.750          41.500  
  21563151.570 7      1768.024 7   -924608.701 7   -696320.64148  21563139.94548
        49.750          38.750  
  24490694.258 4     -3728.871 4   3413632.954 4   2644764.88545  24490692.94545
        37.500          17.250  
  24132563.125 5      1421.132 5   -626337.569 5   -477520.52846  24132557.88746
        40.500          20.500  
  24334625.406 5     -3757.144 5   3507116.051 5   2716537.51846  24334618.87946
        40.750          22.000  
 11  3 24 16 22  0.0000000  0 12G03G06G09G14G15G16G18G21G22G26G27G29
  22314164.305 6      1702.315 6   -998641.888 6   -749496.22147  22314157.01647
        47.000          31.500  
  22161939.727 6      1312.897 6   -674226.914 6   -496456.39248  22161931.03148
        46.750          34.000  
  24454843.078 6      2910.699 6  -1771137.580 6  -1362990.96546  24454835.90646
        43.500          24.750  
  24022308.719 5      3704.406 5  -2381484.197 5  -1834065.19946  24022301.89846
        39.750          22.000  
  21928789.008 7     -1978.342 7   2002546.430 7   1553838.93248  21928780.13748
        48.500          37.750  
  24909405.305 4     -2219.745 4   2282015.685 4   1770296.07145  24909396.19945
        38.250          16.250  
  20605894.234 7       163.599 7    339814.645 7    275224.13749  20605884.30949
        49.500          42.000  
  20606109.859 7      -468.327 7    832870.823 7    654224.21149  20606099.75849
        51.000          41.500  
  21558117.477 7      1763.573 7   -951062.295 7   -716933.82648  21558106.43848
        49.000          38.500  
  24501352.297 4     -3733.254 4   3469631.757 4   2688400.25345  24501349.98845
        38.500          18.250  
  24128523.539 5      1415.273 5   -647566.657 5   -494062.66346  24128518.30146
        40.250          20.250  
  24345351.922 5     -3758.094 5   3563487.456 5   2760463.20746  24345345.92246
        40.500          22.500  
 11  3 24 16 22 15.0000000  0 12G03G06G09G14G15G16G18G21G22G26G27G29
  22309330.633 6      1693.394 6  -1024042.803 6   -769289.12947  22309323.16847
        47.250          32.000  
  22158215.961 6      1304.486 6   -693794.198 6   -511703.63348  22158207.85248
        46.750          34.250  
  24446543.297 6      2907.912 6  -1814756.266 6  -1396979.50847  24446536.18447
        44.250          27.250  
  24011739.664 5      3702.788 5  -2437026.015 5  -1877344.49346  24011732.84446
        40.000          22.500  
  21934459.250 7     -1986.399 7   2032342.415 7   1577056.56648  21934450.43848
        48.750          38.000  
  24915751.109 4     -2223.298 4   2315365.155 4   1796282.73445  24915742.76645
        38.250          16.750  
  20605440.766 7       158.843 7    337432.003 7    273367.53549  20605430.95749
        49.750          42.000  
  20607463.430 7      -474.241 7    839984.442 7    659767.27149  20607453.32849
        51.500          41.500  
  21553096.344 7      1759.085 7   -977448.563 7   -737494.55248  21553085.24648
        49.750          38.500  
  24512021.430 5     -3737.643 5   3525696.409 5   2732086.91645  24512019.12145
        39.500          17.750  
  24124500.711 5      1409.363 5   -668707.099 5   -510535.73046  24124495.00446
        40.500          19.250  
  24356082.547 5     -3759.051 5   3619873.221 5   2804400.11246  24356074.90646
        40.250          22.000  
 11  3 24 16 22 30.0000000  0 12G03G06G09G14G15G16G18G21G22G26G27G29
  22304523.094 6      1684.489 6  -1049310.139 6   -788977.95547  22304514.57447
        46.500          31.750  
  22154516.727 6      1296.093 6   -713235.596 6   -526852.77748  22154508.61748
        46.500          34.000  
  24438250.664 6      2905.134 6  -1858333.280 6  -1430935.60646  24438243.90246
        43.500          25.500  
  24001174.734 5      3701.191 5  -2492543.882 5  -1920605.15646  24001168.26646
        40.250          22.500  
  21940152.336 7     -1994.394 7   2062258.322 7   1600367.65748  21940142.87948
        49.000          38.250  
  24922108.008 4     -2226.785 4   2348766.926 4   1822310.08045  24922099.13745
        38.250          16.750  
  20605000.719 7       154.149 7    335119.770 7    271565.78649  20604991.37949
        49.250          41.500  
  20608833.883 7      -480.129 7    847186.379 7    665379.16749  20608824.36749
        51.500          41.500  
  21548087.688 7      1754.633 7  -1003768.065 7   -758003.24848  21548076.35548
        49.500          38.000  
  24522703.891 5     -3741.975 5   3581826.033 5   2775824.19945  24522700.64545
        40.500          17.750  
  24120494.000 5      1403.468 5   -689759.117 5   -526939.86446  24120489.46546
        39.500          20.000  
  24366815.055 5     -3759.953 5   3676272.522 5   2848347.54846  24366807.41446
        39.250          22.250  
 11  3 24 16 22 45.0000000  0 12G03G06G09G14G15G16G18G21G22G26G27G29
  22299739.258 6      1675.569 6  -1074443.670 6   -808562.52147  22299732.26247
        44.500          32.000  
  22150841.031 6      1287.673 6   -732550.684 6   -541903.50448  22150833.03948
        46.000          33.750  
  24429966.336 6      2902.313 6  -1901867.973 6  -1464858.70246  24429959.57446
        43.750          25.750  
  23990614.766 5      3699.549 5  -2548037.120 5  -1963846.58846  23990608.59046
        40.000          22.750  
  21945867.836 7     -2002.385 7   2092294.096 7   1623772.14548  21945858.90648
        49.000          38.000  
  24928475.148 4     -2230.274 4   2382221.041 4   1848378.16345  24928464.87145
        38.500          16.750  
  20604574.086 7       149.441 7    332878.151 7    269819.07348  20604564.51248
        50.000          41.250  
  20610221.273 7      -486.027 7    854476.780 7    671059.98349  20610211.11349
        51.250          41.500  
  21543092.219 7      1750.162 7  -1030020.493 7   -778459.67948  21543080.94548
        49.000          38.500  
  24533397.422 5     -3746.285 5   3638020.313 5   2819611.90746  24533394.52746
        40.250          19.000  
  24116505.102 5      1397.530 5   -710722.069 5   -543274.68746  24116500.97746
        39.500          19.750  
  24377550.195 4     -3760.839 4   3732685.111 4   2892305.31846  24377542.49646
        38.750          21.750  
 11  3 24 16 23  0.0000000  0 12G03G06G09G14G15G16G18G21G22G26G27G29
  22294982.820 6      1666.603 6  -1099442.714 6   -828042.29147  22294974.94547
        46.500          31.750  
  22147189.352 6      1279.225 6   -751739.058 6   -556855.48648  22147181.30148
        47.000          34.250  
  24421689.680 6      2899.436 6  -1945359.510 6  -1498748.20146  24421683.09446
        43.500          26.250  
  23980059.539 5      3697.846 5  -2603504.803 5  -2007068.15546  23980053.42246
        39.750          23.250  
  21951606.148 7     -2010.381 7   2122449.807 7   1647270.08448  21951597.10248
        49.750          37.500  
  24934850.828 5     -2233.758 5   2415727.409 5   1874487.00745  24934841.72345
        39.500          17.250  
  20604161.219 7       144.715 7    330707.419 7    268127.58449  20604151.05949
        48.000          41.750  
  20611625.398 7      -491.964 7    861856.244 7    676810.20549  20611615.53149
        51.250          41.750  
  21538109.406 7      1745.667 7  -1056205.491 7   -798863.57348  21538098.36748
        49.500          38.000  
  24544103.148 5     -3750.595 5   3694279.234 5   2863449.91046  24544100.89846
        41.000          19.250  
  24112532.820 5      1391.556 5   -731595.410 5   -559539.60946  24112528.16846
        39.500          21.000  
  24388287.359 4     -3761.748 4   3789111.334 4   2936273.74846  24388280.71546
        39.000          21.500  
 11  3 24 16 23 15.0000000  0 12G03G06G09G14G15G16G18G21G22G26G27G29
  22290251.203 6      1657.667 6  -1124307.714 6   -847417.62247  22290243.21147
        47.000          30.250  
  22143562.008 6      1270.807 6   -770801.163 6   -571709.07948  22143554.48448
        46.750          34.000  
  24413421.281 6      2896.585 6  -1988808.284 6  -1532604.36546  24413415.34046
        42.750          24.500  
  23969508.656 5      3696.188 5  -2658947.619 5  -2050270.32846  23969503.12546
        39.750          23.000  
  21957367.453 7     -2018.322 7   2152724.640 7   1670860.84648  21957358.34848
        48.750          38.000  
  24941236.688 4     -2237.172 4   2449284.993 4   1900635.75545  24941227.64145
        38.750          17.250  
  20603761.289 7       140.034 7    328606.914 7    266490.82849  20603751.71549
        49.000          41.750  
  20613046.430 7      -497.859 7    869324.122 7    682629.31948  20613036.56348
        51.000          41.250  
  21533139.289 7      1741.224 7  -1082323.848 7   -819215.53048  21533128.30948
        49.750          38.500  
  24554821.180 5     -3754.842 5   3750601.863 5   2907337.61146  24554820.21946
        41.000          19.250  
  24108577.805 5      1385.608 5   -752379.535 5   -575735.02446  24108573.73846
        39.500          20.750  
  24399028.563 4     -3762.584 4   3845550.092 4   2980251.94946  24399020.80546
        38.000          21.250  
 11  3 24 16 23 30.0000000  0 12G03G06G09G14G15G16G18G21G22G26G27G29
  22285545.219 7      1648.679 7  -1149037.904 7   -866687.89347  22285537.34447
        48.000          31.250  
  22139959.367 6      1262.348 6   -789736.378 6   -586463.79748  22139950.26248
        47.500          34.000  
  24405162.398 6      2893.671 6  -2032213.354 6  -1566426.46346  24405155.40246
        42.500          24.750  
  23958963.180 4      3694.482 4  -2714364.842 4  -2093452.54746  23958957.23846
        38.500          24.500  
  21963151.414 7     -2026.276 7   2183118.774 7   1694544.56548  21963142.25048
        48.750          38.000  
  24947631.938 4     -2240.588 4   2482893.813 4   1926824.45345  24947623.82845
        37.750          16.750  
  20603374.953 7       135.329 7    326576.981 7    264909.06149  20603365.32049
        49.500          41.500  
  20614484.531 7      -503.794 7    876881.034 7    688517.80549  20614474.43049
        51.250          41.500  
  21528181.969 7      1736.756 7  -1108375.191 7   -839515.26448  21528170.57848
        50.000          38.500  
  24565551.953 5     -3759.079 5   3806988.043 5   2951274.81946  24565549.70346
        41.000          19.000  
  24104640.133 5      1379.611 5   -773073.693 5   -591860.33446  24104634.95346
        39.750          20.250  
  24409769.461 4     -3763.430 4   3902001.543 4   3024240.01046  24409762.69946
        38.000          19.750  
 11  3 24 16 23 45.0000000  0 12G03G06G09G14G15G16G18G21G22G26G27G29
  22280865.109 6      1639.659 6  -1173632.790 6   -885852.74047  22280856.64847
        46.500          30.500  
  22136380.164 6      1253.858 6   -808544.244 6   -601119.28948  22136371.76248
        47.000          34.500  
  24396910.602 5      2890.695 5  -2075573.772 5  -1600213.78046  24396904.60246
        42.250          26.000  
  23948423.219 5      3692.717 5  -2769755.598 5  -2136614.16946  23948417.10246
        40.000          23.000  
  21968957.555 7     -2034.234 7   2213632.287 7   1718321.31948  21968948.80148
        48.500          37.500  
  24954037.531 3     -2244.015 3   2516554.038 3   1953053.15845  24954029.94945
        36.750          17.250  
  20603002.203 7       130.601 7    324617.961 7    263382.55149  20602992.74649
        48.000          41.500  
  20615939.500 7      -509.760 7    884527.432 7    694476.02548  20615929.51648
        50.750          41.250  
  21523237.500 7      1732.250 7  -1134358.946 7   -859762.33948  21523226.10948
        50.000          38.250  
  24576294.273 5     -3763.321 5   3863437.852 5   2995261.56345  24576293.66445
        41.000          18.250  
  24100719.906 5      1373.562 5   -793677.118 5   -607914.93746  24100714.78546
        40.750          20.000  
  24420514.320 4     -3764.282 4   3958465.766 4   3068238.01646  24420507.96946
        37.750          19.250  
 11  3 24 16 24  0.0000000  0 11G03G06G09G14G15G16G18G21G22G27G29   
  22276212.500 6      1629.882 6  -1198081.025 6   -904903.31147  22276204.39147
        47.000          31.500  
  22132827.625 6      1244.610 6   -827213.391 6   -615666.67048  22132819.10548
        46.750          34.500  
  24388670.039 5      2886.944 5  -2118877.928 5  -1633957.27046  24388663.98046
        42.000          25.000  
  23937889.664 5      3690.200 5  -2825108.600 5  -2179746.37246  23937883.66446
        40.500          24.500  
  21974788.781 7     -2042.915 7   2244276.014 7   1742199.52748  21974780.20348
        49.500          37.500  
  24960453.930 3     -2248.152 3   2550276.314 3   1979330.27545  24960446.93445
        36.000          17.250  
  20602644.938 7       125.136 7    322740.921 7    261919.91448  20602635.36348
        48.500          41.000  
  20617413.680 7      -516.477 7    892274.588 7    700512.75848  20617403.75448
        51.750          41.000  
  21518307.961 7      1726.995 7  -1160263.872 7   -879947.99448  21518296.62948
        50.000          38.500  
  24096819.281 5      1366.756 5   -814178.458 5   -623889.97246  24096813.22346
        40.750          20.250  
  24431263.602 4     -3765.852 4   4014953.544 4   3112254.40246  24431257.07446
        37.750          19.250  
 11  3 24 16 24 15.0000000  0 11G03G06G09G14G15G16G18G21G22G27G29   
  22271584.000 6      1621.574 6  -1222404.627 6   -923856.76447  22271575.53947
        47.500          29.750  
  22129297.891 6      1236.820 6   -845765.683 6   -630123.00748  22129288.72748
        47.500          34.750  
  24380436.109 5      2884.653 5  -2162147.730 5  -1667673.98246  24380429.93446
        42.000          25.750  
  23927358.555 5      3689.132 5  -2880445.575 5  -2222866.07746  23927353.19946
        40.750          25.000  
  21980640.820 7     -2050.093 7   2275027.415 7   1766161.63948  21980632.06648
        49.000          37.250  
  24966877.047 3     -2250.784 3   2584038.073 3   2005638.14745  24966870.52045
        37.000          16.250  
  20602299.164 7       121.155 7    320923.603 7    260503.82548  20602289.53148
        49.500          41.000  
  20618903.023 7      -521.717 7    900100.336 7    706610.73049  20618893.15649
        50.750          41.500  
  21513388.867 7      1723.219 7  -1186112.159 7   -900089.51948  21513377.94548
        50.250          38.500  
  24092933.133 5      1361.412 5   -834599.638 5   -639802.55746  24092927.25046
        39.500          21.250  
  24442014.492 3     -3765.927 3   4071442.450 3   3156271.64145  24442006.38345
        37.000          18.500  
 11  3 24 16 24 30.0000000  0 12G03G06G09G14G15G16G18G19G21G22G27G29
  22266979.086 6      1613.230 6  -1246603.077 6   -942712.69847  22266971.21147
        47.250          30.250  
  22125789.195 6      1229.018 6   -864200.952 6   -644488.14648  22125781.32048
        46.750          34.750  
  24372208.758 5      2882.319 5  -2205382.516 5  -1701363.41846  24372202.58246
        41.500          26.000  
  23916831.789 5      3688.026 5  -2935765.972 5  -2265972.86946  23916826.14146
        39.500          24.250  
  21986512.664 7     -2057.269 7   2305886.450 7   1790207.62548  21986503.79348
        48.750          37.500  
  24973310.102 3     -2253.411 3   2617839.234 3   2031976.67845  24973302.69545
        35.750          16.750  
  20601965.016 7       117.169 7    319166.062 7    259134.30949  20601955.38349
        50.500          41.500  
  24939131.27312      3224.00012    363742.17712    291565.21855  24939122.69555
        34.250          16.750  
  20620406.781 7      -526.981 7    908005.046 7    712770.22548  20620397.55948
        51.000          41.000  
  21508480.867 7      1719.445 7  -1211903.841 7   -920186.92348  21508470.00448
        49.750          38.250  
  24089061.156 5      1356.035 5   -854940.166 5   -655652.31046  24089056.56346
        40.250          20.500  
  24452763.469 3     -3765.997 3   4127932.399 3   3200289.75945  24452756.00445
        37.000          18.250  
 11  3 24 16 24 45.0000000  0 12G03G06G09G14G15G16G18G19G21G22G27G29
  22262402.406 6      1603.465 6  -1270655.054 6   -961454.49647  22262393.65247
        47.000          31.000  
  22122307.406 7      1219.793 7   -882497.846 7   -658745.46848  22122299.64848
        47.750          35.250  
  24363992.039 5      2878.541 5  -2248560.625 5  -1735008.66946  24363985.74646
        40.500          24.750  
  23906312.445 5      3685.496 5  -2991048.406 5  -2309050.07046  23906306.32846
        41.500          26.000  
  21992409.438 7     -2065.841 7   2336874.059 7   1814353.79448  21992400.68448
        48.750          36.750  
  24979754.016 3     -2257.418 3   2651700.510 3   2058362.13145  24979746.19945
        37.250          15.500  
  20601645.773 7       111.777 7    317489.405 7    257827.82149  20601635.84849
        49.750          41.500  
  24929934.602 2      3222.128 2    315410.261 2    253904.02945  24929924.44145
        35.000          17.750  
  20621930.289 7      -533.667 7    916010.053 7    719007.88448  20621920.36348
        50.500          40.750  
  21503587.703 7      1714.252 7  -1237617.615 7   -940223.63248  21503576.84048
        49.750          37.750  
  24085210.633 4      1349.229 4   -875178.599 4   -671422.48146  24085205.80546
        39.000          20.000  
  24463517.406 3     -3767.456 3   4184444.239 3   3244324.82545  24463509.70745
        36.500          16.750  
 11  3 24 16 25  0.0000000  0 12G03G06G09G14G15G16G18G19G21G22G27G29
  22257851.281 7      1594.414 7  -1294571.265 7   -980090.51247  22257842.64547
        47.750          31.500  
  22118849.852 7      1211.280 7   -900667.043 7   -672903.29048  22118841.56648
        48.500          35.250  
  24355782.906 5      2875.459 5  -2291692.515 5  -1768617.91346  24355778.02046
        40.500          25.250  
  23895797.094 5      3683.661 5  -3046303.320 5  -2352105.83346  23895791.62146
        40.750          24.500  
  21998328.906 7     -2073.674 7   2367979.173 7   1838591.53448  21998320.03548
        49.250          37.250  
  24986207.289 4     -2260.678 4   2685610.684 4   2084785.55745  24986199.18045
        37.500          16.250  
  20601339.617 7       107.115 7    315882.678 7    256575.81749  20601330.10249
        50.000          41.500  
  24920746.734 2      3218.671 2    267130.194 2    216283.22045  24920736.63345
        35.000          17.750  
  20623470.859 7      -539.627 7    924104.463 7    725315.20048  20623460.87548
        51.250          40.750  
  21498707.336 7      1709.790 7  -1263264.462 7   -960208.18048  21498696.35548
        49.500          38.750  
  24081377.188 5      1343.128 5   -895325.520 5   -687121.39146  24081371.71546
        40.500          19.750  
  24474273.563 3     -3768.170 3   4240966.787 3   3288368.33445  24474265.27745
        36.000          17.750  
 11  3 24 16 25 15.0000000  0 12G03G06G09G14G15G16G18G19G21G22G27G29
  22253326.273 6      1585.347 6  -1318351.474 6   -998620.54847  22253317.10947
        47.500          31.000  
  22115416.305 6      1202.750 6   -918708.298 6   -686961.40948  22115408.66448
        46.750          35.500  
  24347584.516 5      2872.347 5  -2334777.723 5  -1802190.79346  24347579.80546
        40.250          24.000  
  23885287.594 5      3681.806 5  -3101530.416 5  -2395139.91346  23885282.00446
        40.500          23.000  
  22004270.000 7     -2081.492 7   2399201.546 7   1862920.63748  22004261.01248
        48.500          36.500  
  24992669.250 3     -2263.921 3   2719569.498 3   2111246.96045  24992660.67245
        37.250          14.750  
  20601047.820 7       102.456 7    314345.844 7    255378.27548  20601037.54348
        48.500          41.000  
  24911568.281 2      3215.188 2    218902.367 2    178703.08645  24911559.82045
        34.750          16.250  
  20625027.883 7      -545.603 7    932288.516 7    731692.37148  20625018.25048
        51.000          41.000  
  21493839.414 7      1705.314 7  -1288844.171 7   -980140.41648  21493828.66848
        49.750          38.500  
  24077560.531 4      1337.007 4   -915380.619 4   -702748.69946  24077555.35246
        38.500          20.000  
  24485031.781 3     -3768.870 3   4297499.837 3   3332419.96745  24485023.14545
        37.250          17.250  
 11  3 24 16 25 30.0000000  0 12G03G06G09G14G15G16G18G19G21G22G27G29
  22248826.859 6      1576.246 6  -1341995.157 6  -1017044.20247  22248817.75447
        47.500          30.750  
  22112007.938 6      1194.202 6   -936621.335 6   -700919.61848  22111999.77048
        47.500          35.250  
  24339394.227 5      2869.195 5  -2377815.643 5  -1835726.81546  24339389.57446
        40.000          24.000  
  23874784.188 5      3679.918 5  -3156729.185 5  -2438151.94346  23874778.18846
        41.250          25.000  
  22010233.563 7     -2089.312 7   2430541.230 7   1887341.14548  22010224.75048
        48.500          36.750  
  24999140.648 4     -2267.136 4   2753576.532 4   2137745.98345  24999131.42645
        37.500          14.750  
  20600768.328 7        97.782 7    312879.114 7    254235.36848  20600758.93048
        49.500          41.000  
  24902401.773 2      3211.677 2    170727.206 2    141164.02745  24902391.26245
        35.000          16.250  
  20626602.820 7      -551.604 7    940562.583 7    738139.68148  20626592.66048
        51.000          41.250  
  21488984.844 7      1700.824 7  -1314356.538 7  -1000020.18148  21488973.86348
        49.500          38.000  
  24073761.648 5      1330.846 5   -935343.309 5   -718304.02346  24073756.00046
        40.500          19.750  
  24495790.961 3     -3769.554 3   4354043.151 3   3376479.60745  24495782.79345
        36.750          16.750  
 11  3 24 16 25 45.0000000  0 12G03G06G09G14G15G16G18G19G21G22G27G29
  22244353.063 6      1567.163 6  -1365502.603 6  -1035361.70247  22244344.95347
        46.750          30.500  
  22108624.141 6      1185.661 6   -954406.245 6   -714777.99048  22108615.15248
        47.500          35.500  
  24331213.742 4      2866.031 4  -2420806.107 4  -1869225.88146  24331209.03146
        38.500          23.000  
  23864285.398 5      3678.035 5  -3211899.706 5  -2481141.93646  23864279.75046
        41.000          24.750  
  22016219.398 7     -2097.066 7   2461997.212 7   1911852.28448  22016210.70348
        48.250          36.250  
  25005621.531 4     -2270.331 4   2787631.494 4   2164282.30445  25005611.72345
        37.500          14.750  
  20600502.633 7        93.143 7    311481.968 7    253146.67848  20600492.76648
        49.000          41.000  
  24893244.148 1      3208.166 1    122604.712 1    103666.01945  24893234.22345
        33.750          16.750  
  20628194.203 7      -557.583 7    948926.327 7    744656.87648  20628184.27748
        50.750          40.500  
  21484143.172 7      1696.359 7  -1339801.922 7  -1019847.74448  21484132.07448
        50.000          38.500  
  24069980.227 5      1324.691 5   -955213.676 5   -733787.41245  24069974.57845
        39.250          18.500  
  24506554.203 4     -3770.212 4   4410596.327 4   3420546.95245  24506545.62545
        38.250          17.250  
 11  3 24 16 26  0.0000000  0 12G03G06G09G14G15G16G18G19G21G22G27G29
  22239905.961 6      1558.061 6  -1388873.522 6  -1053572.79847  22239897.50047
        46.750          30.500  
  22105262.609 6      1177.098 6   -972062.712 6   -728536.27948  22105254.85248
        47.500          34.750  
  24323041.828 4      2862.839 4  -2463748.688 4  -1902687.59446  24323037.29346
        38.750          23.250  
  23853792.164 5      3676.125 5  -3267041.580 5  -2524109.62246  23853786.22346
        40.750          24.500  
  22022227.492 7     -2104.811 7   2493569.380 7   1936453.95148  22022218.73848
        48.750          36.500  
  25012110.820 3     -2273.495 3   2821733.914 3   2190855.56945  25012102.00845
        37.250          15.500  
  20600249.914 7        88.511 7    310154.299 7    252112.12248  20600240.04748
        50.000          41.250  
  24884096.758 2      3204.629 2     74535.270 2     66209.33845  24884085.66045
        34.500          16.250  
  20629802.813 7      -563.561 7    957379.737 7    751243.92848  20629793.29748
        51.250          40.500  
  21479313.539 7      1691.901 7  -1365180.433 7  -1039623.20748  21479302.44148
        49.750          39.000  
  24066216.328 5      1318.522 5   -974991.512 5   -749198.69446  24066210.21146
        39.250          19.250  
  24517316.719 3     -3770.838 3   4467158.898 3   3464621.60345  24517308.43445
        37.250          18.500  
 11  3 24 16 26 15.0000000  0 12G03G06G09G14G15G16G18G19G21G22G27G29
  22235484.313 6      1548.916 6  -1412107.264 6  -1071677.02247  22235476.26247
        46.500          30.500  
  22101928.016 6      1168.523 6   -989590.555 6   -742194.33648  22101920.25848
        47.250          35.000  
  24314878.805 4      2859.582 4  -2506642.417 4  -1936111.24046  24314874.56346
        38.750          22.500  
  23843304.648 5      3674.164 5  -3322154.036 5  -2567054.38146  23843299.11746
        40.000          23.750  
  22028257.406 7     -2112.574 7   2525257.984 7   1961146.35748  22028249.35548
        48.000          36.000  
  25018608.711 3     -2276.661 3   2855883.835 3   2217465.86545  25018600.66045
        36.500          14.750  
  20600010.555 7        83.848 7    308896.580 7    251132.07848  20600000.62948
        48.750          41.250  
  24874959.539 2      3201.050 2     26519.516 2     28794.42345  24874948.26645
        35.000          16.250  
  20631428.383 7      -569.584 7    965923.494 7    757901.39148  20631418.45748
        51.250          41.000  
  21474496.625 7      1687.400 7  -1390491.433 7  -1059346.06148  21474485.93848
        50.000          38.750  
  24062470.227 5      1312.309 5   -994676.147 5   -764537.33446  24062464.93046
        39.250          19.250  
  24528082.367 4     -3771.477 4   4523731.056 4   3508703.70145  24528073.49645
        38.000          17.250  
 11  3 24 16 26 30.0000000  0 12G03G06G09G14G15G16G18G19G21G22G27G29
  22231088.719 6      1539.810 6  -1435204.408 6  -1089674.79247  22231080.78547
        45.750          30.250  
  22098617.617 7      1159.962 7  -1006989.979 7   -755752.34548  22098609.68448
        47.750          36.000  
  24306725.570 4      2856.334 4  -2549487.434 4  -1969496.93146  24306721.44546
        38.000          24.000  
  23832822.695 5      3672.225 5  -3377237.406 5  -2609976.46346  23832816.05146
        41.750          25.500  
  22034309.633 7     -2120.276 7   2557062.129 7   1985928.78148  22034301.34848
        48.000          36.500  
  25025117.164 3     -2279.766 3   2890080.326 3   2244112.48845  25025107.35545
        36.750          15.500  
  20599784.766 7        79.217 7    307708.331 7    250206.16248  20599774.66448
        49.750          41.250  
  24865832.883 2      3197.482 2    -21442.710 2     -8578.69745  24865821.14145
        35.000          14.750  
  20633071.750 7      -575.587 7    974557.303 7    764629.01748  20633061.76648
        51.000          41.000  
  21469692.859 7      1682.938 7  -1415735.510 7  -1079016.76448  21469682.34848
        49.750          38.500  
  24058742.883 4      1306.105 4  -1014267.716 4   -779803.47746  24058736.53146
        39.000          19.250  
  24538850.031 5     -3772.059 5   4580311.937 5   3552792.64045  24538840.51645
        39.500          18.500  
 11  3 24 16 26 45.0000000  0 12G03G06G09G14G15G16G18G19G21G22G27G29
  22226720.461 6      1530.646 6  -1458164.103 6  -1107565.46747  22226711.94147
        47.000          30.500  
  22095331.203 6      1151.362 6  -1024260.414 6   -769209.82348  22095323.09448
        46.750          36.000  
  24298581.758 4      2853.028 4  -2592282.849 4  -2002843.99346  24298577.51646
        38.500          24.250  
  23822346.727 5      3670.226 5  -3432290.792 5  -2652875.18646  23822340.02346
        41.750          23.000  
  22040383.727 7     -2127.992 7   2588982.002 7   2010801.38448  22040375.44148
        48.000          37.000  
  25031633.414 3     -2282.871 3   2924323.399 3   2270795.35445  25031623.66445
        36.000          16.250  
  20599571.461 7        74.579 7    306589.650 7    249334.46249  20599561.41849
        49.750          41.750  
  24856717.125 2      3193.854 2    -69350.527 2    -45909.46945  24856703.62145
        34.750          13.750  
  20634731.813 7      -581.617 7    983281.559 7    771427.12748  20634721.59448
        51.000          41.000  
  21464901.828 7      1678.451 7  -1440912.267 7  -1098635.02548  21464891.25848
        49.750          38.500  
  24055032.430 4      1299.854 4  -1033765.520 4   -794996.54545  24055026.07845
        38.750          18.250  
  24549618.328 4     -3772.655 4   4636901.762 4   3596888.54545  24549609.16445
        39.000          17.250  
 11  3 24 16 27  0.0000000  0 12G03G06G09G14G15G16G18G19G21G22G27G29
  22222377.711 6      1521.494 6  -1480986.514 6  -1125349.16447  22222369.60247
        47.000          30.500  
  22092068.844 6      1142.758 6  -1041401.789 6   -782566.74548  22092060.61748
        47.000          35.750  
  24290447.664 4      2849.708 4  -2635028.470 4  -2036152.22946  24290443.12946
        39.000          22.500  
  23811876.734 5      3668.222 5  -3487314.118 5  -2695750.46246  23811869.27046
        40.750          24.000  
  22046480.297 7     -2135.684 7   2621017.261 7   2035763.91048  22046471.25048
        48.250          36.500  
  25038158.375 3     -2285.927 3   2958612.297 3   2297513.97745  25038149.09445
        36.000          15.500  
  20599371.977 7        69.952 7    305540.367 7    248516.83348  20599361.99248
        50.000          41.000  
  24847610.711 4      3190.224 4   -117203.880 4    -83197.79445  24847597.91445
        37.500          16.250  
  20636409.117 7      -587.646 7    992096.247 7    778295.69748  20636399.30948
        51.000          40.750  
  21460123.844 7      1673.973 7  -1466021.869 7  -1118200.94548  21460112.51248
        50.000          38.750  
  24051339.852 5      1293.596 5  -1053169.455 5   -810116.50546  24051333.44146
        39.250          19.000  
  24560387.977 4     -3773.220 4   4693500.063 4   3640990.99145  24560380.27745
        37.750          17.250  
 11  3 24 16 27 15.0000000  0 12G03G06G09G14G15G16G18G19G21G22G27G29
  22218061.297 6      1512.315 6  -1503671.243 6  -1143025.58047  22218052.48447
        47.000          31.250  
  22088831.344 6      1134.141 6  -1058413.908 6   -795822.93948  22088823.46948
        46.000          35.250  
  24282322.445 4      2846.371 4  -2677724.031 4  -2069421.46146  24282318.67246
        38.500          23.000  
  23801411.586 5      3666.207 5  -3542307.224 5  -2738602.21146  23801403.18446
        41.250          22.500  
  22052597.828 7     -2143.333 7   2653167.260 7   2060815.83848  22052589.36748
        48.500          36.250  
  25044691.289 2     -2288.978 2   2992946.963 2   2324268.23445  25044682.82845
        35.250          16.750  
  20599185.625 7        65.340 7    304560.266 7    247753.11448  20599175.87548
        48.500          41.000  
  24838514.516 3      3186.588 3   -165002.705 3   -120443.61545  24838502.01245
        36.250          18.250  
  20638103.563 7      -593.672 7   1001001.334 7    785234.71248  20638094.16448
        51.250          41.250  
  21455358.641 7      1669.509 7  -1491064.505 7  -1137714.68048  21455347.77748
        50.500          38.500  
  24047664.711 4      1287.331 4  -1072479.425 4   -825163.17945  24047659.35545
        38.500          18.500  
  24571159.789 4     -3773.751 4   4750106.323 4   3685099.73545  24571153.14545
        39.000          16.750  
 11  3 24 16 27 30.0000000  0 12G03G06G09G14G15G16G18G19G21G22G27G29
  22213770.328 6      1503.111 6  -1526217.903 6  -1160594.41547  22213761.92647
        47.250          30.750  
  22085618.641 6      1125.519 6  -1075296.688 6   -808978.36248  22085611.05948
        46.500          35.000  
  24274207.477 5      2842.984 5  -2720368.795 5  -2102651.10146  24274203.87946
        39.500          24.000  
  23790952.695 5      3664.146 5  -3597269.408 5  -2781429.85146  23790944.52746
        41.000          23.000  
  22058737.750 7     -2150.991 7   2685432.129 7   2085957.27348  22058729.58248
        48.000          36.500  
  25051232.375 2     -2292.021 2   3027327.277 2   2351058.01345  25051225.20345
        34.750          16.250  
  20599012.063 7        60.715 7    303649.540 7    247043.45748  20599002.37148
        48.750          40.750  
  24829429.805 3      3182.906 3   -212746.294 3   -157646.34845  24829416.30145
        36.000          15.500  
  20639815.609 7      -599.721 7   1009997.152 7    792244.43648  20639805.68448
        50.750          40.750  
  21450605.602 7      1665.023 7  -1516039.855 7  -1157175.98848  21450594.97348
        50.250          39.000  
  24044008.836 5      1281.019 5  -1091694.715 5   -840136.13146  24044002.95346
        39.250          19.000  
  24581933.188 5     -3774.275 5   4806720.454 5   3729214.57445  24581927.01245
        40.000          18.250  
 11  3 24 16 27 45.0000000  0 12G03G06G09G14G15G16G18G19G21G22G27G29
  22209505.242 6      1493.906 6  -1548626.497 6  -1178055.65747  22209497.48447
        46.250          30.750  
  22082430.875 6      1116.889 6  -1092050.019 6   -822032.91048  22082422.94148
        46.750          35.500  
  24266102.148 4      2839.568 4  -2762962.321 4  -2135840.80246  24266098.55146
        38.750          25.000  
  23780499.281 5      3662.074 5  -3652200.522 5  -2824233.29246  23780491.69946
        40.500          23.000  
  22064899.547 7     -2158.621 7   2717811.439 7   2111187.88748  22064890.85248
        48.000          35.500  
  25057784.719 2     -2295.021 2   3061752.590 2   2377882.98345  25057776.66845
        35.000          15.500  
  20598852.070 7        56.105 7    302807.958 7    246387.66348  20598842.37948
        49.500          41.250  
  24820353.430 2      3179.211 2   -260434.459 2   -194805.99845  24820340.45345
        35.250          16.250  
  20641544.648 7      -605.769 7   1019083.687 7    799324.84148  20641534.95748
        51.000          40.750  
  21445865.789 7      1660.547 7  -1540948.062 7  -1176584.98348  21445854.75048
        50.500          38.250  
  24040370.422 5      1274.706 5  -1110815.310 5   -855035.27146  24040364.71546
        39.750          19.750  
  24592708.438 5     -3774.776 5   4863342.087 5   3773335.24645  24592701.85245
        40.000          17.750  
 11  3 24 16 28  0.0000000  0 12G03G06G09G14G15G16G18G19G21G22G27G29
  22205267.477 6      1484.687 6  -1570896.797 6  -1195409.13347  22205259.95347
        47.000          31.000  
  22079267.695 6      1108.227 6  -1108673.427 6   -834986.21548  22079259.58648
        46.500          35.250  
  24258006.398 4      2836.119 4  -2805504.107 4  -2168990.19146  24258002.27346
        38.750          22.500  
  23770051.891 5      3659.982 5  -3707100.251 5  -2867012.26846  23770044.48446
        40.500          22.500  
  22071082.828 7     -2166.235 7   2750304.969 7   2136507.49348  22071073.84048
        48.500          35.250  
  25064344.281 2     -2298.006 2   3096222.683 2   2404742.74245  25064336.17245
        35.000          16.250  
  20598704.906 7        51.495 7    302035.538 7    245785.77949  20598695.15649
        49.000          41.500  
  24811289.609 2      3175.493 2   -308066.856 2   -231922.13245  24811276.16445
        35.500          13.750  
  20643291.266 7      -611.828 7   1028261.107 7    806476.05848  20643281.45748
        50.750          40.500  
  21441138.703 7      1656.068 7  -1565789.083 7  -1195941.62648  21441127.43048
        50.250          38.500  
  24036750.055 5      1268.370 5  -1129840.857 5   -869860.36846  24036743.58646
        39.500          19.750  
  24603484.258 5     -3775.275 5   4919971.207 5   3817461.78545  24603478.49245
        40.000          17.750  
 11  3 24 16 28 15.0000000  0 12G03G06G09G14G15G16G18G19G21G22G27G29
  22201056.695 6      1475.489 6  -1593029.133 6  -1212655.10947  22201048.58647
        46.000          31.000  
  22076128.750 6      1099.605 6  -1125167.497 6   -847838.74848  22076121.05148
        46.000          35.000  
  24249921.617 5      2832.687 5  -2847994.418 5  -2202099.47946  24249917.08246
        39.500          22.500  
  23759611.047 5      3657.900 5  -3761968.751 5  -2909766.89746  23759603.58246
        41.250          23.000  
  22077287.758 7     -2173.789 7   2782911.810 7   2161915.41248  22077278.94548
        48.000          35.250  
  25070912.602 3     -2300.923 3   3130736.527 3   2431636.68445  25070903.67245
        36.000          16.250  
  20598570.977 7        46.927 7    301331.631 7    245237.27349  20598560.99249
        48.250          41.750  
  24802235.953 3      3171.782 3   -355643.590 3   -268994.89645  24802222.91845
        36.000          15.500  
  20645054.727 7      -617.855 7   1037528.936 7    813697.73148  20645045.21148
        51.500          40.750  
  21436424.516 7      1651.624 7  -1590563.449 7  -1215246.32448  21436413.30148
        50.000          38.750  
  24033147.664 5      1262.051 5  -1148771.616 5   -884611.57946  24033141.48846
        39.250          20.000  
  24614261.891 5     -3775.707 5   4976606.806 5   3861593.35945  24614255.30545
        40.000          18.250  
 11  3 24 16 28 30.0000000  0 12G03G06G09G14G15G16G18G19G21G22G27G29
  22196871.523 6      1466.250 6  -1615022.879 6  -1229793.09847  22196862.94547
        46.500          31.250  
  22073014.703 6      1090.954 6  -1141531.809 6   -860590.16048  22073006.47748
        46.500          35.750  
  24241845.672 5      2829.204 5  -2890432.482 5  -2235168.07246  24241841.31346
        40.000          23.000  
  23749175.195 5      3655.775 5  -3816805.383 5  -2952496.72146  23749168.19946
        41.000          23.000  
  22083514.500 7     -2181.353 7   2815632.101 7   2187411.72348  22083505.45348
        48.500          35.500  
  25077488.500 2     -2303.849 2   3165294.255 2   2458564.73945  25077479.57045
        35.000          15.500  
  20598450.172 7        42.337 7    300696.569 7    244742.40448  20598440.18848
        49.500          40.750  
  24793193.359 4      3168.031 4   -403164.051 4   -306023.83645  24793180.32445
        37.500          14.750  
  20646835.875 7      -623.912 7   1046887.621 7    820990.20548  20646825.94948
        50.750          40.750  
  21431723.063 7      1647.153 7  -1615270.741 7  -1234498.76148  21431711.20348
        50.500          39.000  
  24029562.781 4      1255.682 4  -1167606.851 4   -899288.35346  24029557.19146
        39.000          19.500  
  24625040.539 5     -3776.144 5   5033248.960 5   3905730.02945  24625033.83645
        40.500          16.250  
 11  3 24 16 28 45.0000000  0 12G03G06G09G14G15G16G18G19G21G22G27G29
  22192712.273 6      1457.017 6  -1636878.141 6  -1246823.18547  22192703.98847
        47.250          31.000  
  22069925.500 6      1082.299 6  -1157766.292 6   -873240.41648  22069917.50848
        46.500          35.250  
  24233779.328 5      2825.689 5  -2932817.824 5  -2268195.54446  24233775.84846
        40.000          24.500  
  23738746.211 5      3653.640 5  -3871609.976 5  -2995201.55346  23738738.86346
        40.750          24.750  
  22089762.742 7     -2188.898 7   2848465.566 7   2212996.22748  22089753.69548
        48.250          36.000  
  25084074.336 3     -2306.737 3   3199895.315 3   2485526.55245  25084064.41045
        36.250          15.500  
  20598342.703 7        37.764 7    300130.108 7    244301.00348  20598332.42648
        48.750          40.750  
  24784161.484 4      3164.261 4   -450627.972 4   -343008.67845  24784148.80545
        37.500          16.250  
  20648633.789 7      -629.970 7   1056337.172 7    828353.47548  20648624.15648
        51.250          40.500  
  21427034.469 7      1642.692 7  -1639911.127 7  -1253699.05848  21427022.72748
        50.250          39.000  
  24025996.992 5      1249.315 5  -1186346.575 5   -913890.71346  24025990.75846
        39.250          19.000  
  24635820.773 5     -3776.557 5   5089897.317 5   3949871.57945  24635813.60245
        40.750          16.750  
 11  3 24 16 29  0.0000000  0 12G03G06G09G14G15G16G18G19G21G22G27G29
  22188579.930 6      1447.773 6  -1658594.735 6  -1263745.20247  22188571.46947
        47.500          31.250  
  22066860.641 6      1073.635 6  -1173870.811 6   -885789.39648  22066852.82448
        45.250          35.500  
  24225724.461 5      2822.147 5  -2975150.036 5  -2301181.62646  24225720.45346
        40.250          23.250  
  23728323.570 5      3651.487 5  -3926382.279 5  -3037881.24146  23728315.75446
        41.750          22.500  
  22096032.055 7     -2196.414 7   2881411.771 7   2238668.56948  22096023.06648
        48.500          35.500  
  25090666.000 2     -2309.600 2   3234539.313 2   2512521.85245  25090656.19145
        35.500          16.750  
  20598247.648 7        33.198 7    299632.144 7    243912.96948  20598237.78148
        48.500          41.000  
  24775141.828 4      3160.488 4   -498035.299 4   -379949.43045  24775128.14845
        39.000          18.250  
  20650449.313 7      -636.039 7   1065877.751 7    835787.67848  20650439.56348
        51.000          40.750  
  21422357.758 7      1638.235 7  -1664484.656 7  -1272847.24548  21422346.42648
        50.750          39.250  
  24022449.195 4      1242.932 4  -1204990.552 4   -928418.45746  24022443.37146
        38.750          19.250  
  24646602.219 5     -3776.941 5   5146551.433 5   3994017.55445  24646594.63745
        41.500          17.750  
 11  3 24 16 29 15.0000000  0 12G03G06G09G14G15G16G18G19G21G22G27G29
  22184473.383 6      1438.483 6  -1680171.977 6  -1280558.64347  22184465.44947
        47.000          31.500  
  22063821.164 6      1064.925 6  -1189844.689 6   -898236.58848  22063812.99648
        47.500          35.750  
  24217678.922 4      2818.550 4  -3017428.279 4  -2334125.65846  24217674.50446
        39.000          24.750  
  23717907.039 5      3649.269 5  -3981121.313 5  -3080534.98846  23717899.34046
        40.750          22.500  
  22102322.594 7     -2203.943 7   2914470.920 7   2264428.92148  22102314.42648
        48.000          36.750  
  25097266.703 2     -2312.466 2   3269226.298 2   2539550.63545  25097256.54345
        34.500          16.750  
  20598165.844 7        28.596 7    299203.207 7    243578.73148  20598156.44548
        49.250          40.750  
  24766131.945 4      3156.651 4   -545385.060 4   -416845.38846  24766117.91446
        39.000          19.000  
  20652282.555 7      -642.145 7   1075509.932 7    843293.26748  20652272.51248
        51.000          41.250  
  21417694.117 7      1633.738 7  -1688990.721 7  -1291942.88048  21417683.31348
        50.250          39.000  
  24018920.266 4      1236.488 4  -1223537.878 4   -942870.91346  24018914.26646
        38.750          19.250  
  24657384.141 5     -3777.333 5   5203211.430 5   4038168.14045  24657376.91045
        41.500          17.750  
 11  3 24 16 29 30.0000000  0 12G03G06G09G14G15G16G18G19G21G22G27G29
  22180393.711 6      1429.214 6  -1701610.190 6  -1297263.74247  22180385.77747
        46.500          31.500  
  22060805.883 6      1056.242 6  -1205688.314 6   -910582.27448  22060797.94948
        45.500          34.750  
  24209644.133 5      2814.942 5  -3059652.410 5  -2367027.52946  24209639.53946
        39.500          22.500  
  23707497.000 5      3647.059 5  -4035827.203 5  -3123162.91046  23707489.18446
        41.000          22.250  
  22108635.211 7     -2211.427 7   2947642.326 7   2290276.74848  22108626.63348
        48.750          35.250  
  25103874.461 1     -2315.283 1   3303955.537 1   2566612.36245  25103864.59445
        33.750          14.750  
  20598097.461 7        24.039 7    298842.617 7    243297.74048  20598087.94548
        49.000          41.000  
  24757132.336 5      3152.819 5   -592677.345 5   -453696.47246  24757119.71546
        39.250          19.250  
  20654132.742 7      -648.221 7   1085233.252 7    850869.86948  20654122.93448
        51.250          41.000  
  21413043.766 7      1629.268 7  -1713429.736 7  -1310986.27048  21413032.84448
        50.500          38.750  
  24015408.180 4      1230.059 4  -1241988.766 4   -957248.20346  24015403.11746
        38.500          20.000  
  24668167.695 5     -3777.689 5   5259876.768 5   4082322.88945  24668160.17245
        41.500          18.500  
 11  3 24 16 29 45.0000000  0 12G03G06G09G14G15G16G18G19G21G22G27G29
  22176341.133 6      1419.909 6  -1722908.824 6  -1313860.08847  22176333.02347
        46.250          31.000  
  22057815.992 6      1047.533 6  -1221401.303 6   -922826.16548  22057808.05948
        45.500          35.250  
  24201619.172 5      2811.303 5  -3101821.950 5  -2399886.86146  24201614.87146
        40.500          23.500  
  23697092.703 5      3644.813 5  -4090499.405 5  -3165764.59546  23697085.59046
        40.500          22.750  
  22114968.695 7     -2218.899 7   2980925.811 7   2316211.91348  22114960.23448
        48.750          36.000  
  25110491.781 1     -2318.089 1   3338726.873 1   2593706.92745  25110481.73845
        33.500          13.750  
  20598042.367 7        19.481 7    298550.406 7    243070.03348  20598032.32448
        49.250          40.750  
  24748143.023 5      3148.953 5   -639911.633 5   -490502.40946  24748132.92246
        39.500          19.500  
  20656000.508 7      -654.315 7   1095047.971 7    858517.68848  20655990.81648
        50.500          41.250  
  21408405.664 7      1624.800 7  -1737801.731 7  -1329977.43548  21408394.97748
        50.250          39.500  
  24011915.500 4      1223.606 4  -1260342.856 4   -971550.03346  24011910.14546
        38.250          19.750  
  24678951.813 5     -3778.034 5   5316547.277 5   4126481.62445  24678944.05545
        42.000          17.250  
 11  3 24 16 30  0.0000000  0 12G03G06G09G14G15G16G18G19G21G22G27G29
  22172314.352 6      1410.612 6  -1744068.008 6  -1330347.76447  22172306.71147
        47.000          30.500  
  22054850.961 6      1038.818 6  -1236983.572 6   -934968.20148  22054843.02748
        46.750          35.250  
  24193606.031 5      2807.636 5  -3143936.486 5  -2432703.31946  24193600.09046
        40.500          23.750  
  23686695.375 5      3642.567 5  -4145137.911 5  -3208340.01846  23686687.79346
        41.250          22.750  
  22121323.766 7     -2226.341 7   3014320.928 7   2342234.05848  22121315.24648
        48.250          36.250  
  25117116.906 2     -2320.858 2   3373539.746 2   2620833.78445  25117107.03945
        34.000          14.750  
  20597999.125 7        14.920 7    298326.613 7    242895.64248  20597989.25848
        49.000          41.000  
  24739165.859 5      3145.070 5   -687087.679 5   -527262.95646  24739156.52046
        39.500          20.000  
  20657885.359 7      -660.413 7   1104954.163 7    866236.78448  20657875.60948
        50.750          40.500  
  21403780.414 7      1620.325 7  -1762106.600 7  -1348916.28548  21403769.78548
        50.250          39.000  
  24008441.008 5      1217.134 5  -1278599.866 5   -985776.31346  24008436.88346
        39.500          20.250  
  24689736.930 5     -3778.350 5   5373222.529 5   4170644.11346  24689728.82046
        42.000          19.000  
 11  3 24 16 30 15.0000000  0 12G03G06G09G14G15G16G18G19G21G22G27G29
  22168314.469 6      1401.283 6  -1765087.256 6  -1346726.40047  22168307.12147
        46.250          30.500  
  22051910.172 6      1030.090 6  -1252434.917 6   -947008.21848  22051902.47348
        46.750          35.000  
  24185602.430 5      2803.932 5  -3185995.469 5  -2465476.50046  24185596.89846
        41.250          24.750  
  23676305.281 5      3640.291 5  -4199742.281 5  -3250888.82446  23676297.40646
        41.250          22.250  
  22127699.930 7     -2233.785 7   3047827.708 7   2368343.21448  22127691.52748
        49.000          36.250  
  25123750.195 1     -2323.613 1   3408393.945 1   2647992.86845  25123738.86345
        33.500          16.250  
  20597969.695 7        10.362 7    298171.190 7    242774.53248  20597960.18048
        50.500          41.000  
  24730199.617 5      3141.164 5   -734205.140 5   -563977.84346  24730190.39546
        39.500          21.500  
  20659788.250 7      -666.527 7   1114952.072 7    874027.35248  20659777.97348
        50.000          40.750  
  21399168.570 7      1615.847 7  -1786344.307 7  -1367802.80248  21399157.47348
        51.000          39.500  
  24004986.141 5      1210.639 5  -1296759.459 5   -999926.60946  24004980.14146
        40.000          21.250  
  24700523.266 5     -3778.659 5   5429902.420 5   4214810.14946  24700514.86346
        41.500          19.250  
 11  3 24 16 30 30.0000000  0 12G03G06G09G14G15G16G18G19G21G22G27G29
  22164341.492 6      1391.981 6  -1785966.968 6  -1362996.30947  22164333.20747
        44.250          30.250  
  22048995.438 7      1021.387 7  -1267755.718 7   -958946.51548  22048986.85948
        48.000          35.500  
  24177609.953 5      2800.236 5  -3227999.012 5  -2498206.46446  24177604.18846
        41.750          24.000  
  23665920.719 5      3638.024 5  -4254312.642 5  -3293411.13746  23665912.96146
        41.750          24.750  
  22134097.203 7     -2241.164 7   3081445.173 7   2394538.62548  22134088.44948
        48.750          36.000  
  25130389.492 1     -2326.315 1   3443288.665 1   2675183.50745  25130379.39145
        33.500          13.750  
  20597952.922 7         5.848 7    298083.472 7    242706.16948  20597942.41048
        49.250          41.000  
  24721244.641 5      3137.270 5   -781264.193 5   -600647.21346  24721236.76646
        39.750          21.500  
  20661707.883 7      -672.625 7   1125041.447 7    881889.18348  20661697.78148
        49.500          40.500  
  21394569.102 7      1611.409 7  -1810515.438 7  -1386637.44048  21394557.88748
        50.750          39.500  
  24001549.477 5      1204.169 5  -1314821.987 5  -1014001.29146  24001543.77046
        40.500          22.000  
  24711309.906 5     -3778.910 5   5486586.062 5   4258979.14646  24711301.50446
        41.000          19.000  
 11  3 24 16 30 45.0000000  0 12G03G06G09G14G15G16G18G19G21G22G27G29
  22160394.953 6      1382.610 6  -1806706.118 6  -1379156.68447  22160386.78547
        45.250          30.000  
  22046105.289 6      1012.613 6  -1282944.905 6   -970782.25448  22046096.47748
        47.500          35.500  
  24169627.133 5      2796.448 5  -3269945.728 5  -2530892.16046  24169621.66046
        41.000          23.000  
  23655542.922 5      3635.681 5  -4308847.862 5  -3335906.09046  23655534.98846
        40.500          24.750  
  22140515.102 7     -2248.583 7   3115173.922 7   2420820.74648  22140506.81648
        48.250          35.500  
  25137037.352 1     -2329.046 1   3478224.357 1   2702406.08445  25137028.12945
        32.000          15.500  
  20597949.383 7         1.273 7    298064.375 7    242691.27548  20597939.63348
        49.500          40.500  
  24712299.977 5      3133.292 5   -828263.574 5   -637270.08746  24712293.68446
        40.250          22.750  
  20663645.344 7      -678.767 7   1135222.955 7    889822.80748  20663635.35948
        50.500          40.000  
  21389982.336 7      1606.903 7  -1834618.979 7  -1405419.41348  21389971.12148
        50.750          39.250  
  23998130.602 5      1197.614 5  -1332786.195 5  -1027999.36046  23998125.36346
        40.000          22.250  
  24722097.133 5     -3779.199 5   5543274.040 5   4303151.47946  24722089.78546
        41.500          19.000  
 11  3 24 16 31  0.0000000  0 12G03G06G09G14G15G16G18G19G21G22G27G29
  22156475.219 6      1373.264 6  -1827305.079 6  -1395207.82747  22156466.64147
        45.000          30.000  
  22043239.281 6      1003.866 6  -1298002.893 6   -982515.75148  22043230.99648
        47.500          34.500  
  24161656.055 5      2792.662 5  -3311835.665 5  -2563533.61246  24161650.40646
        40.750          22.750  
  23645171.766 5      3633.330 5  -4363347.816 5  -3378373.55446  23645163.65646
        41.500          24.250  
  22146954.938 7     -2255.960 7   3149013.325 7   2447189.08748  22146946.06648
        48.250          34.750  
  25143692.750 1     -2331.725 1   3513200.238 1   2729660.02045  25143684.05545
        32.250          14.750  
  20597958.617 7        -3.263 7    298113.321 7    242729.40848  20597948.63348
        49.750          41.000  
  24703368.109 5      3129.324 5   -875203.427 5   -673846.55946  24703361.46546
        40.250          22.500  
  20665600.375 7      -684.883 7   1145496.206 7    897827.92348  20665590.33248
        50.500          40.250  
  21385407.922 7      1602.434 7  -1858655.484 7  -1424149.15648  21385396.82448
        50.750          39.500  
  23994730.727 5      1191.075 5  -1350652.317 5  -1041920.96746  23994725.13746
        40.500          22.000  
  24732885.086 5     -3779.437 5   5599965.598 5   4347326.64545  24732877.62145
        40.000          18.500  
 11  3 24 16 31 15.0000000  0 12G03G06G09G14G15G16G18G19G21G22G27G29
  22152581.836 6      1363.901 6  -1847763.602 6  -1411149.52547  22152573.43447
        45.500          30.250  
  22040398.711 7       995.116 7  -1312929.629 7   -994146.98248  22040390.77748
        48.000          34.250  
  24153694.742 5      2788.860 5  -3353668.561 5  -2596130.64346  24153689.62146
        40.750          23.000  
  23634807.578 5      3630.974 5  -4417812.423 5  -3420813.44446  23634799.58646
        41.750          23.750  
  22153415.547 7     -2263.306 7   3182962.921 7   2473643.30648  22153406.14848
        48.250          35.500  
  25150355.953 1     -2334.370 1   3548215.788 1   2756944.92545  25150347.96145
        29.750          16.250  
  20597980.875 7        -7.785 7    298230.097 7    242820.40148  20597970.65648
        49.750          41.000  
  24694447.508 5      3125.350 5   -922083.676 5   -710376.58546  24694441.27346
        40.750          23.750  
  20667572.977 7      -691.010 7   1155861.357 7    905904.65748  20667562.81648
        50.000          40.250  
  21380847.023 7      1597.971 7  -1882625.050 7  -1442826.74248  21380836.16048
        50.750          39.750  
  23991350.156 5      1184.517 5  -1368420.066 5  -1055765.94646  23991344.85946
        41.000          22.500  
  24743674.695 5     -3779.653 5   5656660.387 5   4391504.32346  24743666.23446
        39.750          19.250  
 11  3 24 16 31 30.0000000  0 12G03G06G09G14G15G16G18G19G21G22G27G29
  22148716.008 6      1354.239 6  -1868077.184 6  -1426978.29347  22148707.89847
        45.250          30.250  
  22037584.313 6       986.067 6  -1327720.632 6  -1005672.43048  22037576.02748
        47.500          35.000  
  24145745.969 5      2784.732 5  -3395439.540 5  -2628679.41146  24145740.55546
        40.000          22.750  
  23624450.523 5      3628.318 5  -4472237.200 5  -3463222.33346  23624442.94146
        41.750          25.250  
  22159897.602 7     -2270.922 7   3217026.757 7   2500186.53448  22159888.26248
        48.500          36.250  
  25157026.12511     -2338.03111                    329063.70755  25157019.65655
        28.750          16.250  
  20598017.141 7       -12.590 7    298418.955 7    242967.55148  20598007.44948
        49.750          41.000  
  24685538.750 5      3121.061 5   -968899.587 5   -746856.50446  24685532.34046
        41.000          26.000  
  20669563.867 7      -697.429 7   1166322.792 7    914056.41148  20669553.76648
        50.000          40.500  
  21376299.281 7      1593.217 7  -1906523.313 7  -1461448.75348  21376288.12548
        50.500          40.000  
  23987988.227 5      1177.655 5  -1386084.894 5  -1069530.73246  23987983.04746
        39.750          22.250  
  24754464.336 4     -3780.135 4   5713362.414 4   4435687.63845  24754456.98845
        38.750          18.250  
 11  3 24 16 31 45.0000000  0 12G03G06G09G14G15G16G18G19G21G22G27G29
  22144876.445 6      1345.117 6  -1888253.937 6  -1442700.43747  22144868.51247
        46.000          29.750  
  22034794.094 6       977.556 6  -1342383.966 6  -1017098.41148  22034785.69148
        47.500          34.500  
  24137808.008 5      2781.121 5  -3437156.358 5  -2661186.01246  24137801.83246
        41.250          22.500  
  23614100.234 5      3626.186 5  -4526629.987 5  -3505606.27446  23614092.47746
        42.250          24.000  
  22166399.852 7     -2277.976 7   3251196.391 7   2526812.20648  22166391.09848
        48.500          36.500  
  25163704.18011     -2341.09411    467529.31411    356409.88955  25163697.59455
        27.500          14.750  
  20598065.008 7       -16.836 7    298671.496 7    243164.34048  20598055.08248
        50.500          41.000  
  24676640.953 5      3117.295 5  -1015659.012 5   -783292.38547  24676633.84047
        41.250          26.500  
  20671570.938 7      -703.308 7   1176872.411 7    922276.87448  20671561.65648
        50.250          40.750  
  21371763.656 7      1589.017 7  -1930358.574 7  -1480021.68748  21371752.38348
        50.000          39.750  
  23984644.063 5      1171.326 5  -1403654.779 5  -1083221.53146  23984639.64546
        40.000          22.250  
  24765253.148 4     -3780.051 4   5770063.184 4   4479869.93345  24765246.32845
        38.250          18.500  
 11  3 24 16 32  0.0000000  0 12G03G06G09G14G15G16G18G19G21G22G27G29
  22141064.242 6      1335.746 6  -1908290.122 6  -1458313.05447  22141055.66447
        45.500          30.750  
  22032029.109 7       968.798 7  -1356915.931 7  -1028422.02648  22032020.64848
        48.250          34.750  
  24129881.180 5      2777.247 5  -3478815.068 5  -2693647.30946  24129874.71146
        42.000          23.500  
  23603756.273 6      3623.789 6  -4580986.827 6  -3547962.22046  23603748.16446
        42.750          25.250  
  22172922.805 7     -2285.238 7   3285474.965 7   2553522.76848  22172913.93448
        48.750          36.500  
  25170388.03911     -2343.20311                                
        28.000  
  20598125.938 7       -21.326 7    298991.384 7    243413.59448  20598115.54348
        50.750          41.000  
  24667754.969 5      3113.271 5  -1062358.071 5   -819681.24047  24667747.32847
        42.000          27.000  
  20673596.344 7      -709.438 7   1187513.978 7    930568.99348  20673586.00848
        50.000          40.500  
  21367240.359 7      1584.579 7  -1954127.255 7  -1498542.73148  21367229.43848
        50.750          39.250  
  23981320.016 4      1164.742 4  -1421125.909 4  -1096835.38246  23981314.89546
        39.000          22.750  
  24776043.063 2     -3780.189 2   5826766.023 2   4524053.88245  24776037.47345
        35.500          17.750  
 11  3 24 16 32 15.0000000  0 12G03G06G09G14G15G16G18G19G21G22G27G29
  22137278.234 6      1326.324 6  -1928184.981 6  -1473815.54547  22137269.48047
        45.750          30.000  
  22029288.719 7       959.985 7  -1371315.703 7  -1039642.63148  22029280.25848
        48.000          35.750  
  24121965.109 6      2773.297 6  -3520414.527 6  -2726062.44346  24121958.11346
        42.750          22.750  
  23593419.383 6      3621.335 6  -4635306.845 6  -3590289.47546  23593411.62546
        43.000          26.000  
  22179467.141 7     -2292.527 7   3319862.872 7   2580318.51148  22179457.80148
        48.750          36.000  
  25177083.10211     -2345.73411    537833.16611                
        29.000  
  20598199.398 7       -25.855 7    299379.211 7    243715.79548  20598190.00048
        49.000          41.000  
  24658880.852 5      3109.180 5  -1108995.770 5   -856022.28046  24658872.91846
        42.000          25.750  
  20675638.883 7      -715.604 7   1198248.039 7    938933.18448  20675628.72348
        50.000          40.500  
  21362730.422 7      1580.092 7  -1977828.641 7  -1517011.35148  21362719.32448
        50.250          39.250  
  23978014.336 5      1158.098 5  -1438497.373 5  -1110371.59346  23978009.56646
        39.250          22.500  
  24786834.148 2     -3780.350 2   5883471.273 2   4568239.69845  24786828.09045
        35.250          17.250  
 11  3 24 16 32 30.0000000  0 12G03G06G09G14G15G16G18G19G21G22G27G29
  22133519.313 6      1316.927 6  -1947938.892 6  -1489208.20847  22133510.67647
        45.500          29.750  
  22026573.219 7       951.217 7  -1385583.965 7  -1050760.76148  22026564.99248
        47.750          35.000  
  24114060.258 5      2769.364 5  -3561954.986 5  -2758431.62246  24114053.02746
        42.250          22.500  
  23583090.000 5      3618.898 5  -4689590.312 5  -3632588.25146  23583081.59846
        41.750          26.000  
  22186031.305 7     -2299.759 7   3354359.251 7   2607198.78548  22186022.72748
        48.250          36.250  
  25183784.82811         0.00011    573042.00911                
        30.500  
  20598285.938 7       -30.333 7    299834.208 7    244070.33448  20598276.71548
        49.000          40.750  
  24650016.797 5      3105.108 5  -1155572.383 5   -892315.72746  24650009.50846
        42.000          25.250  
  20677699.039 7      -721.737 7   1209074.090 7    947369.05448  20677688.99648
        50.250          40.750  
  21358232.695 7      1575.645 7  -2001463.313 7  -1535427.97748  21358221.59848
        50.000          39.500  
  23974727.500 5      1151.479 5  -1455769.565 5  -1123830.41646  23974722.84846
        40.500          24.750  
  24797625.063 1     -3780.450 1   5940178.019 1   4612426.64545  24797619.29745
        33.750          17.750  
 11  3 24 16 32 45.0000000  0 12G03G06G09G14G15G16G18G19G21G22G27G29
  22129786.250 6      1307.684 6  -1967554.155 6  -1504492.82547  22129778.37547
        45.500          31.000  
  22023882.711 7       942.589 7  -1399722.794 7  -1061778.03248  22023874.48448
        48.000          35.000  
  24106166.227 6      2765.559 6  -3603438.368 6  -2790756.29346  24106158.05946
        43.000          23.000  
  23572766.258 6      3616.605 6  -4743839.390 6  -3674860.21546  23572758.38346
        42.500          25.750  
  22192615.578 7     -2306.800 7   3388961.249 7   2634161.35948  22192607.29348
        48.500          36.250  
  25190492.961 1     -2349.571 1    608285.576 1                
        31.500  
  20598385.219 7       -34.631 7    300353.666 7    244475.09648  20598375.11748
        48.750          41.250  
  24641165.375 5      3101.179 5  -1202090.064 5   -928563.24147  24641157.79347
        42.250          27.250  
  20679776.477 7      -727.718 7   1219989.868 7    955874.84248  20679766.31648
        50.500          40.000  
  21353747.266 7      1571.365 7  -2025033.791 7  -1553794.58648  21353736.40248
        50.500          39.250  
  23971459.086 5      1145.009 5  -1472944.699 5  -1137213.61746  23971454.14146
        39.500          24.500  
  24808414.531 1     -3780.361 1   5996883.435 1   4656612.55345  24808410.34845
        32.500          17.250  
 11  3 24 16 33  0.0000000  0 12G03G06G09G14G15G16G18G19G21G22G27G29
  22126081.758 6      1298.065 6  -1987025.134 6  -1519665.02347  22126073.00447
        45.500          30.000  
  22021218.211 6       933.594 6  -1413726.705 6  -1072690.17248  22021209.51648
        47.500          35.250  
  24098284.477 6      2761.364 6  -3644858.832 6  -2823031.93946  24098275.89846
        42.500          22.000  
  23562450.805 5      3613.907 5  -4798047.990 5  -3717100.64647  23562443.22347
        42.250          26.500  
  22199221.531 7     -2314.203 7   3423674.298 7   2661210.46948  22199213.30548
        48.750          36.250  
  25197207.078 1     -2352.233 1    643569.066 1                
        32.250  
  20598497.117 7       -39.308 7    300943.288 7    244934.53148  20598487.89548
        47.750          40.500  
  24632325.906 5      3096.865 5  -1248543.041 5   -964760.34347  24632317.44547
        42.000          26.500  
  20681871.383 7      -734.081 7   1231001.086 7    964455.00148  20681861.69148
        49.750          40.500  
  21349275.445 7      1566.719 7  -2048534.582 7  -1572106.89448  21349263.70348
        50.500          39.500  
  23968210.383 5      1138.144 5  -1490016.852 5  -1150516.57246  23968204.85246
        40.000          24.750  
  24819205.539 1     -3780.626 1   6053592.825 1   4700801.57945  24819201.94145
        30.000          16.750  
 11  3 24 16 33 15.0000000  0 12G03G06G09G14G15G16G18G19G21G22G27G29
  22122403.148 6      1288.617 6  -2006354.390 6  -1534726.77647  22122394.86347
        45.750          30.000  
  22018578.609 6       924.764 6  -1427598.171 6  -1083499.11048  22018569.91448
        47.250          35.000  
  24090413.383 5      2757.313 5  -3686218.523 5  -2855260.28446  24090403.92646
        42.250          22.000  
  23552143.273 6      3611.376 6  -4852218.635 6  -3759311.49547  23552134.75447
        42.500          27.250  
  22205847.430 7     -2321.400 7   3458495.300 7   2688343.68848  22205839.20348
        48.000          35.500  
  25203928.055 1     -2354.686 1    678889.356 1                
        33.500  
  20598622.063 7       -43.803 7    301600.335 7    245446.51348  20598612.02048
        49.000          40.750  
  24623497.938 5      3092.702 5  -1294933.578 5  -1000908.79347  24623489.35947
        42.250          27.000  
  20683984.484 7      -740.265 7   1242105.066 7    973107.44248  20683974.61748
        50.500          40.250  
  21344816.273 7      1562.262 7  -2071968.513 7  -1590367.08848  21344805.17648
        51.000          39.750  
  23964980.313 5      1131.445 5  -1506988.530 5  -1163741.23746  23964975.89546
        40.250          24.000  
  24829996.54711     -3780.89111   2959463.24511   2289791.44255  24829993.41855
        29.250          17.250  
 11  3 24 16 33 30.0000000  0 12G03G06G09G14G15G16G18G19G21G22G27G29
  22118752.438 6      1279.139 6  -2025541.473 6  -1549677.75747  22118743.27347
        45.750          30.000  
  22015963.672 7       915.924 7  -1441337.033 7  -1094204.71348  22015955.44548
        48.250          35.500  
  24082554.438 6      2753.229 6  -3727516.962 6  -2887440.88146  24082544.98046
        42.500          21.500  
  23541841.930 5      3608.816 5  -4906350.870 5  -3801492.43447  23541833.76247
        42.250          27.000  
  22212493.859 7     -2328.577 7   3493423.952 7   2715560.79748  22212485.86748
        48.500          35.250  
  25210656.266 1     -2357.133 1    714246.355 1                
        33.250  
  20598759.883 7       -48.285 7    302324.615 7    246010.89348  20598750.30948
        49.500          41.000  
  24614681.930 6      3088.512 6  -1341261.252 6  -1037008.24447  24614673.17647
        42.500          26.750  
  20686115.289 7      -746.468 7   1253302.083 7    981832.38648  20686105.83248
        50.500          41.000  
  21340369.344 7      1557.774 7  -2095335.130 7  -1608574.83848  21340358.18848
        50.750          39.250  
  23961770.164 5      1124.722 5  -1523859.357 5  -1176887.32946  23961765.27746
        40.250          24.250  
  24840788.93011     -3781.15611   3016174.46411   2333981.86655  24840784.74655
        28.000          15.500  
 11  3 24 16 33 45.0000000  0 11G03G06G09G14G15G16G18G19G21G22G27   
  22115128.117 6      1269.773 6  -2044588.068 6  -1564519.27147  22115119.01247
        46.250          30.250  
  22013374.367 7       907.182 7  -1454944.768 7  -1104808.15048  22013365.90648
        48.000          35.000  
  24074707.266 6      2749.226 6  -3768755.350 6  -2919574.65546  24074697.10546
        42.500          21.500  
  23531548.281 5      3606.349 5  -4960446.106 5  -3843644.54447  23531539.64547
        41.750          26.750  
  22219161.320 7     -2335.634 7   3528458.463 7   2742860.39548  22219152.39148
        48.500          35.500  
  25217390.828 1     -2359.444 1    749638.021 1                
        33.000  
  20598909.977 7       -52.661 7    303114.530 7    246626.40748  20598900.57848
        48.500          41.000  
  24605877.906 6      3084.409 6  -1387527.385 6  -1073059.77546  24605869.03546
        43.000          26.250  
  20688263.313 7      -752.559 7   1264590.474 7    990628.51549  20688253.68049
        50.750          41.750  
  21335935.508 7      1553.396 7  -2118636.072 7  -1626731.41148  21335924.46948
        50.000          38.500  
  23958578.969 5      1118.092 5  -1540630.741 5  -1189955.91646  23958573.73046
        41.000          25.250  
 11  3 24 16 34  0.0000000  0 11G03G06G09G14G15G16G18G19G21G22G27   
  22111530.727 6      1260.198 6  -2063491.036 6  -1579248.86347  22111521.73847
        45.500          30.750  
  22010810.859 7       898.230 7  -1468418.223 7  -1115306.95548  22010801.98848
        47.750          35.250  
  24066872.086 6      2744.990 6  -3809930.197 6  -2951658.93746  24066862.27746
        43.000          21.500  
  23521261.438 6      3603.656 6  -5014500.945 6  -3885765.16647  23521252.91847
        43.000          26.500  
  22225848.492 6     -2342.870 6   3563601.507 6   2770244.56748  22225839.91448
        47.500          34.750  
  25224132.367 1     -2361.930 1    785066.972 1                
        32.000  
  20599073.586 7       -57.228 7    303972.953 7    247295.30348  20599064.07048
        48.750          40.500  
  24597086.523 5      3080.091 5  -1433728.752 5  -1109060.80747  24597076.94947
        41.500          27.000  
  20690429.609 7      -758.852 7   1275973.259 7    999498.21448  20690419.80148
        50.500          40.500  
  21331514.484 7      1548.820 7  -2141868.370 7  -1644834.49948  21331503.09448
        50.000          39.000  
  23955406.789 5      1111.246 5  -1557299.430 5  -1202944.49546  23955401.72746
        40.750          24.250  
 11  3 24 16 34 15.0000000  0 11G03G06G09G14G15G16G18G19G21G22G27   
  22107960.422 6      1250.680 6  -2082251.230 6  -1593867.19447  22107951.96147
        45.750          31.250  
  22008272.109 6       889.365 6  -1481758.693 6  -1125702.13448  22008264.11748
        47.250          35.500  
  24059048.258 6      2740.812 6  -3851042.383 6  -2983694.38346  24059039.44546
        42.750          21.000  
  23510982.156 6      3601.038 6  -5068516.517 6  -3927855.18947  23510974.86747
        42.500          26.750  
  22232556.305 6     -2349.995 6   3598851.431 6   2797712.01848  22232547.78548
        47.500          35.500  
  25230879.617 1     -2364.299 1    820531.458 1                
        31.500  
  20599249.508 7       -61.707 7    304898.563 7    248016.55248  20599239.81648
        48.000          40.500  
  24588306.438 5      3075.837 5  -1479866.303 5  -1145012.12247  24588296.92247
        42.250          27.000  
  20692613.477 7      -765.065 7   1287449.227 7   1008440.51148  20692603.55148
        50.500          40.750  
  21327106.359 7      1544.353 7  -2165033.664 7  -1662885.37248  21327095.02748
        50.500          38.500  
  23952255.172 5      1104.469 5  -1573866.462 5  -1215853.83546  23952248.99646
        41.250          23.250  
 11  3 24 16 34 30.0000000  0 11G03G06G09G14G15G16G18G19G21G22G27   
  22104418.781 6      1240.890 6  -2100864.577 6  -1608371.11347  22104409.91047
        46.250          31.500  
  22005759.695 7       880.212 7  -1494961.871 7  -1135990.33248  22005751.29348
        48.750          35.500  
  24051237.617 6      2736.334 6  -3892087.398 6  -3015677.51946  24051228.68846
        43.000          21.500  
  23500712.297 5      3598.122 5  -5122488.352 5  -3969911.13647  23500704.42247
        41.500          27.000  
  22239284.727 7     -2357.378 7   3634212.107 7   2825265.75848  22239276.91048
        47.750          35.500  
  25237633.945 1     -2366.910 1    856035.103 1                
        30.250  
  20599439.484 7       -66.456 7    305895.403 7    248793.30548  20599429.96948
        49.250          40.750  
  24579539.258 5      3071.286 5  -1525935.593 5  -1180910.25047  24579529.74247
        41.500          26.500  
  20694815.664 7      -771.564 7   1299022.682 7   1017458.77448  20694805.97348
        50.250          41.000  
  21322711.750 7      1539.607 7  -2188127.771 7  -1680880.78348  21322700.30148
        49.750          39.000  
  23949122.289 5      1097.402 5  -1590327.488 5  -1228680.58846  23949117.10946
        41.250          25.250  
 11  3 24 16 34 45.0000000  0 11G03G06G09G14G15G16G18G19G21G22G27   
  22100902.367 6      1231.919 6  -2119343.360 6  -1622770.16247  22100893.96547
        46.000          32.000  
  22003270.695 6       871.882 6  -1508040.094 6  -1146181.15648  22003262.00048
        47.500          35.000  
  24043438.484 6      2732.654 6  -3933077.203 6  -3047617.60046  24043428.85246
        43.500          22.250  
  23490447.211 5      3596.012 5  -5176428.536 5  -4011942.41647  23490439.27747
        42.250          27.750  
  22246032.570 7     -2363.905 7   3669670.684 7   2852895.79848  22246024.69548
        48.000          35.000  
  25244395.375 1     -2368.682 1    891565.333 1                
        30.750  
  20599640.141 7       -70.364 7    306950.866 7    249615.74248  20599630.33248
        49.250          40.750  
  24570783.320 5      3067.545 5  -1571948.767 5  -1216764.64747  24570774.15647
        42.000          27.750  
  20697034.328 7      -777.239 7   1310681.262 7   1026543.38048  20697024.63748
        51.000          40.750  
  21318328.453 7      1535.680 7  -2211162.969 7  -1698830.28048  21318316.88748
        50.750          39.250  
  23946008.094 5      1091.151 5  -1606694.753 5  -1241434.28746  23946002.03546
        40.750          25.000  
 11  3 24 16 35  0.0000000  0 11G03G06G09G14G15G16G18G19G21G22G27   
  22097413.828 6      1222.127 6  -2137675.267 6  -1637054.76647  22097405.42647
        46.250          32.000  
  22000807.852 7       862.735 7  -1520981.114 7  -1156265.07448  22000799.68448
        48.000          35.500  
  24035650.945 5      2728.128 5  -3973999.125 5  -3079504.80846  24035642.71946
        42.250          22.250  
  23480190.539 6      3593.065 6  -5230324.516 6  -4053939.24847  23480183.13347
        42.500          26.750  
  22252801.281 6     -2371.237 6   3705239.246 6   2880611.54048  22252792.99648
        47.500          35.250  
  25251163.016 1     -2371.244 1    927133.988 1                
        31.750  
  20599854.750 7       -75.083 7    308077.115 7    250493.33448  20599844.88348
        48.500          41.000  
  24562041.570 6      3062.968 6  -1617893.281 6  -1252565.54546  24562030.88346
        42.750          26.000  
  20699271.539 7      -783.727 7   1322437.173 7   1035703.81748  20699261.43848
        51.000          41.000  
  21313958.219 7      1530.949 7  -2234127.199 7  -1716724.47848  21313946.71148
        50.500          39.500  
  23942913.938 5      1084.066 5  -1622955.737 5  -1254105.17546  23942907.93846
        42.250          26.000  
 11  3 24 16 35 15.0000000  0 11G03G06G09G14G15G16G18G19G21G22G27   
  22093952.328 6      1212.617 6  -2155864.528 6  -1651228.21347  22093944.57047
        46.500          32.500  
  21998370.539 6       853.867 6  -1533789.123 6  -1166245.35048  21998362.43048
        47.000          35.250  
  24027875.578 6      2723.869 6  -4014857.166 6  -3111342.23646  24027867.82046
        42.500          22.000  
  23469943.547 5      3590.388 5  -5284180.330 5  -4095904.78947  23469934.50047
        42.250          27.250  
  22259589.906 7     -2378.247 7   3740912.946 7   2908409.20648  22259581.62148
        48.000          35.250  
  25257938.461 1     -2373.479 1    962736.174 1                
        33.500  
  20600081.703 7       -79.509 7    309269.745 7    251422.65148  20600071.77748
        48.750          41.250  
  24553310.547 5      3058.663 5  -1663773.222 5  -1288316.12446  24553299.56646
        42.000          26.000  
  20701526.453 7      -789.930 7   1334286.125 7   1044936.75648  20701516.41048
        51.000          40.500  
  21309600.867 7      1526.508 7  -2257024.817 7  -1734566.77548  21309589.35948
        50.500          39.000  
  23939838.289 5      1077.259 5  -1639114.617 5  -1266696.49446  23939832.64146
        41.000          23.750  
 11  3 24 16 35 30.0000000  0 12G03G06G09G14G15G16G18G19G21G22G27G29
  22090518.969 6      1202.969 6  -2173909.065 6  -1665288.89247  22090510.74247
        46.500          32.000  
  21995959.344 7       844.873 7  -1546462.225 7  -1176120.50348  21995951.00048
        48.000          35.000  
  24020113.844 6      2719.453 6  -4055648.963 6  -3143128.05346  24020105.67646
        43.000          21.500  
  23459702.352 6      3587.573 6  -5337993.924 6  -4137837.44947  23459694.00847
        43.250          27.750  
  22266398.711 7     -2385.358 7   3776693.315 7   2936289.99148  22266390.71948
        48.000          35.500  
  25264720.758 2     -2375.821 2    998373.493 2                
        34.500  
  20600321.836 7       -84.045 7    310530.415 7    252404.98449  20600311.85249
        48.750          41.500  
  24544593.023 6      3054.204 6  -1709586.275 6  -1324014.59347  24544581.80947
        42.500          28.500  
  20703799.211 7      -796.268 7   1346230.145 7   1054243.77548  20703789.16848
        51.500          40.750  
  21305256.602 7      1521.937 7  -2279853.875 7  -1752355.65248  21305245.27048
        50.750          40.000  
  23936783.672 5      1070.308 5  -1655169.243 5  -1279206.57746  23936777.26246
        41.250          22.500  
  24927121.85911     -3780.01611   3469848.34811                
        31.750  
 11  3 24 16 35 45.0000000  0 12G03G06G09G14G15G16G18G19G21G22G27G29
  22087112.070 6      1193.515 6  -2191811.783 6  -1679239.07047  22087103.84447
        46.500          32.500  
  21993572.992 7       836.061 7  -1559003.145 7  -1185892.65948  21993564.59048
        48.250          35.500  
  24012363.539 6      2715.207 6  -4096377.062 6  -3174864.20446  24012355.19546
        43.000          22.250  
  23449469.008 6      3584.935 6  -5391767.952 6  -4179739.24347  23449461.48447
        42.750          28.000  
  22273226.820 7     -2392.252 7   3812577.102 7   2964251.36348  22273218.82848
        48.250          35.500  
  25271507.641 2     -2377.934 2   1034042.507 2                
        35.000  
  20600573.977 7       -88.372 7    311855.994 7    253437.89849  20600564.16849
        49.250          41.500  
  24535887.023 6      3049.929 6  -1755335.204 6  -1359663.09146  24535876.57046
        42.500          26.000  
  20706089.461 7      -802.403 7   1358266.184 7   1063622.49448  20706079.94548
        50.250          41.250  
  21300924.961 7      1517.572 7  -2302617.457 7  -1770093.50148  21300913.74648
        50.250          39.250  
  23933747.273 5      1063.540 5  -1671122.337 5  -1291637.55446  23933740.74646
        42.000          22.750  
  24937912.03111         0.00011   3526552.48011                
        32.250  
 11  3 24 16 36  0.0000000  0 12G03G06G09G14G15G16G18G19G21G22G27G29
  22083732.117 6      1183.990 6  -2209571.635 6  -1693077.92147  22083724.47747
        46.000          33.000  
  21991211.773 7       827.182 7  -1571410.875 7  -1195561.02248  21991203.19548
        49.000          35.750  
  24004625.336 6      2710.864 6  -4137040.026 6  -3206549.61146  24004617.98846
        42.500          22.500  
  23439244.367 6      3582.211 6  -5445501.109 6  -4221609.21547  23439236.72747
        43.250          27.000  
  22280075.188 6     -2399.199 6   3848565.082 6   2992293.92548  22280067.19548
        47.250          35.000  
  25278302.680 3     -2380.090 3   1069743.851 3                
        35.750  
  20600838.844 7       -92.762 7    313247.420 7    254522.12348  20600828.80148
        47.750          41.000  
  24527193.172 5      3045.571 5  -1801018.766 5  -1395260.65747  24527182.60247
        41.750          26.750  
  20708397.867 7      -808.606 7   1370395.276 7   1073073.72448  20708387.88348
        50.500          41.000  
  21296605.977 7      1513.145 7  -2325314.634 7  -1787779.60848  21296594.70348
        50.750          39.000  
  23930732.156 5      1056.688 5  -1686972.660 5  -1303988.44146  23930725.16046
        41.250          24.250  
  24948701.516 2     -3780.097 2   3583253.932 2   2775861.55355  24948698.21155
        34.000          17.750  
 11  3 24 16 36 15.0000000  0 12G03G06G09G14G15G16G18G19G21G22G27G29
  22080379.945 6      1174.445 6  -2227188.303 6  -1706805.19847  22080371.60247
        45.000          33.000  
  21988875.945 7       818.295 7  -1583685.304 7  -1205125.52848  21988867.77748
        48.500          35.500  
  23996899.617 6      2706.497 6  -4177637.473 6  -3238183.97146  23996891.62546
        42.750          22.500  
  23429027.234 6      3579.465 6  -5499193.079 6  -4263447.09447  23429019.47747
        43.750          27.500  
  22286943.398 7     -2406.112 7   3884656.761 7   3020417.28048  22286935.11348
        47.750          35.250  
  25285103.594 3     -2382.223 3   1105477.200 3                
        37.000  
  20601116.148 7       -97.153 7    314704.709 7    255657.66349  20601106.10549
        50.000          41.500  
  24518512.047 5      3041.192 5  -1846636.649 5  -1430807.03147  24518502.12147
        41.750          26.500  
  20710723.570 7      -814.824 7   1382617.637 7   1082597.63748  20710713.35248
        50.500          40.500  
  21292299.297 7      1508.712 7  -2347945.311 7  -1805413.89948  21292288.02348
        50.500          39.000  
  23927735.281 5      1049.822 5  -1702719.987 5  -1316259.08846  23927728.69546
        42.000          25.500  
  24959491.813 1     -3779.887 1   3639952.232 1   2820041.92445  24959488.15645
        33.500          16.250  
 11  3 24 16 36 30.0000000  0 12G03G06G09G14G15G16G18G19G21G22G27G29
  22077055.039 6      1164.860 6  -2244661.206 6  -1720420.45447  22077046.52047
        45.000          33.000  
  21986565.602 7       809.369 7  -1595825.841 7  -1214585.69148  21986557.25848
        48.250          35.000  
  23989186.406 6      2702.061 6  -4218168.393 6  -3269766.48846  23989179.00046
        42.500          22.000  
  23418818.344 6      3576.658 6  -5552842.943 6  -4305252.16147  23418809.76647
        42.750          26.500  
  22293831.164 6     -2413.052 6   3920852.539 6   3048621.76248  22293823.23048
        47.500          35.250  
  25291909.227 3     -2384.362 3   1141242.631 3                
        37.250  
  20601405.813 7      -101.579 7    316228.394 7    256844.94948  20601395.94548
        49.500          41.250  
  24509843.703 5      3036.746 5  -1892187.836 5  -1466301.44747  24509834.30547
        42.000          27.000  
  20713067.156 7      -821.082 7   1394933.863 7   1092194.67748  20713057.34848
        50.750          40.750  
  21288005.234 7      1504.244 7  -2370508.964 7  -1822995.96248  21287994.66448
        50.500          39.500  
  23924757.703 5      1042.903 5  -1718363.535 5  -1328448.85646  23924751.99646
        41.750          25.000  
  24970281.047 3     -3779.712 3   3696647.915 3   2864220.32145  24970276.57045
        35.750          17.750  
 11  3 24 16 36 45.0000000  0 12G03G06G09G14G15G16G18G19G21G22G27G29
  22073757.539 6      1155.249 6  -2261989.935 6  -1733923.35647  22073749.31347
        45.750          32.000  
  21984280.781 7       800.424 7  -1607832.202 7  -1223941.31648  21984272.78948
        48.500          35.250  
  23981487.289 5      2697.593 5  -4258632.291 5  -3301296.79246  23981479.18046
        42.250          22.000  
  23408616.961 6      3573.820 6  -5606450.251 6  -4347024.07347  23408608.50047
        43.500          27.750  
  22300739.039 6     -2419.988 6   3957152.357 6   3076907.31648  22300730.81348
        47.000          34.500  
  25298721.898 4     -2386.492 4   1177040.014 4                
        38.000  
  20601708.328 7      -105.999 7    317818.373 7    258083.88148  20601698.46148
        50.000          41.000  
  24501188.320 5      3032.271 5  -1937671.900 5  -1501743.54347  24501179.27347
        41.500          26.750  
  20715428.828 7      -827.363 7   1407344.304 7   1101865.14248  20715419.25448
        50.750          41.000  
  21283724.586 7      1499.776 7  -2393005.599 7  -1840525.80348  21283713.54748
        50.500          39.250  
  23921801.359 5      1035.963 5  -1733902.977 5  -1340557.49746  23921794.30546
        42.250          23.500  
  24981069.539 3     -3779.519 3   3753340.697 3   2908396.40445  24981065.12145
        36.750          17.250  
 11  3 24 16 37  0.0000000  0 12G03G06G09G14G15G16G18G19G21G22G27G29
  22070486.867 6      1145.680 6  -2279175.127 6  -1747314.41447  22070479.40247
        45.750          32.500  
  21982021.547 7       791.520 7  -1619705.006 7  -1233192.85248  21982013.67248
        48.750          35.500  
  23973799.867 6      2693.131 6  -4299029.254 6  -3332774.90246  23973792.05146
        42.750          22.000  
  23398424.203 6      3571.008 6  -5660015.369 6  -4388763.09947  23398415.44947
        43.250          26.500  
  22307665.789 6     -2426.844 6   3993555.024 6   3105273.00348  22307658.38348
        47.000          35.000  
  25305540.180 4     -2388.553 4   1212868.308 4                
        38.000  
  20602023.500 7      -110.370 7    319473.924 7    259373.91948  20602013.69148
        50.000          40.750  
  24492545.477 5      3027.826 5  -1983089.290 5  -1537133.69847  24492536.37147
        41.500          27.500  
  20717808.422 7      -833.595 7   1419848.224 7   1111608.44648  20717798.37948
        50.750          41.000  
  21279456.578 7      1495.339 7  -2415435.682 7  -1858003.78148  21279445.65648
        50.000          39.500  
  23918864.922 6      1029.050 6  -1749338.722 6  -1352585.34646  23918856.98846
        42.750          25.500  
  24991858.242 4     -3779.253 4   3810029.486 4   2952569.37645  24991852.71145
        37.750          17.750  
 11  3 24 16 37 15.0000000  0 12G03G06G09G14G15G16G18G19G21G22G27G29
  22067244.258 6      1136.067 6  -2296216.135 6  -1760593.12947  22067236.50047
        45.500          32.750  
  21979787.789 7       782.574 7  -1631443.618 7  -1242339.83348  21979779.97348
        48.500          35.500  
  23966125.117 6      2688.621 6  -4339358.564 6  -3364200.28446  23966117.71146
        42.750          22.250  
  23388238.031 6      3568.155 6  -5713537.693 6  -4430468.79247  23388230.44947
        44.000          27.000  
  22314612.609 6     -2433.709 6   4030060.665 6   3133718.92548  22314604.91048
        47.000          35.500  
  25312364.305 4     -2390.623 4   1248727.646 4                
        38.250  
  20602350.930 7      -114.769 7    321195.464 7    260715.37848  20602341.41448
        50.000          40.500  
  24483915.648 5      3023.328 5  -2028439.206 5  -1572471.26647  24483907.07047
        41.250          27.500  
  20720205.586 7      -839.866 7   1432446.208 7   1121425.04348  20720195.77748
        50.750          40.500  
  21275200.664 7      1490.883 7  -2437798.924 7  -1875429.67348  21275189.50848
        50.500          39.000  
  23915946.547 6      1022.097 6  -1764670.176 6  -1364531.92546  23915939.78546
        42.500          25.250  
  25002644.547 4     -3779.002 4   3866714.521 4   2996739.41345  25002639.95345
        38.250          17.750  
 11  3 24 16 37 30.0000000  0 12G03G06G09G14G15G16G18G19G21G22G27G29
  22064029.203 6      1126.438 6  -2313112.704 6  -1773759.29147  22064021.09447
        46.250          32.500  
  21977579.570 7       773.608 7  -1643047.736 7  -1251382.01248  21977571.22748
        48.000          36.000  
  23958463.531 6      2684.066 6  -4379619.555 6  -3395572.46546  23958455.94946
        42.750          22.500  
  23378062.594 6      3565.257 6  -5767016.550 6  -4472140.60047  23378054.01647
        43.500          26.500  
  22321579.406 6     -2440.573 6   4066669.264 6   3162245.07448  22321571.41448
        47.000          35.000  
  25319193.477 4     -2392.662 4   1284617.575 4                
        38.250  
  20602691.523 7      -119.182 7    322983.193 7    262108.41048  20602681.24648
        48.500          40.750  
  24475298.172 5      3018.788 5  -2073721.032 5  -1607755.78347  24475289.82847
        41.500          29.000  
  20722621.195 7      -846.162 7   1445138.638 7   1131315.23648  20722610.74248
        51.000          40.500  
  21270957.922 7      1486.407 7  -2460095.036 7  -1892803.26248  21270946.70748
        50.250          39.250  
  23913048.328 6      1015.105 6  -1779896.758 6  -1376396.76846  23913041.91846
        43.000          24.500  
  25013431.805 4     -3778.753 4   3923395.823 4   3040906.60345  25013426.09845
        38.500          18.250  
 11  3 24 16 37 45.0000000  0 12G03G06G09G14G15G16G18G19G21G22G27G29
  22060840.703 6      1116.826 6  -2329865.099 6  -1786813.10647  22060833.41447
        45.250          32.750  
  21975396.898 7       764.668 7  -1654517.759 7  -1260319.70448  21975388.67248
        48.500          36.750  
  23950815.117 5      2679.513 5  -4419812.255 5  -3426891.39746  23950808.06346
        42.250          23.750  
  23367893.984 6      3562.372 6  -5820452.135 6  -4513778.70347  23367885.34847
        44.000          28.000  
  22328565.234 6     -2447.388 6   4103380.085 6   3190850.88348  22328557.24248
        46.250          34.750  
  25326028.195 4     -2394.660 4   1320537.472 4                
        37.750  
  20603044.094 7      -123.548 7    324836.406 7    263552.46048  20603034.22748
        49.500          41.000  
  24466694.414 6      3014.265 6  -2118935.010 6  -1642987.43347  24466686.36347
        42.500          27.750  
  20725054.055 7      -852.423 7   1457924.976 7   1141278.61148  20725043.95348
        50.500          40.500  
  21266727.711 7      1481.964 7  -2482324.488 7  -1910124.90748  21266716.84848
        49.250          39.750  
  23910170.563 5      1008.133 5  -1795018.760 5  -1388180.14346  23910164.27046
        42.000          23.750  
  25024216.625 4     -3778.451 4   3980072.590 4   3085070.26145  25024211.68045
        38.750          17.750  
 11  3 24 16 38  0.0000000  0 12G03G06G09G14G15G16G18G19G21G22G27G29
  22057680.688 6      1107.185 6  -2346472.871 6  -1799754.24047  22057673.04747
        45.500          32.250  
  21973240.508 7       755.690 7  -1665853.116 7  -1269152.45648  21973231.75448
        49.000          36.000  
  23943179.523 5      2674.900 5  -4459935.758 5  -3458156.44046  23943172.87946
        41.750          24.250  
  23357733.672 6      3559.433 6  -5873843.633 6  -4555382.45547  23357725.15247
        43.750          27.000  
  22335570.250 6     -2454.212 6   4140193.269 6   3219536.45648  22335562.49248
        47.000          34.750  
  25332869.195 4     -2396.669 4   1356487.515 4                
        37.500  
  20603409.523 7      -127.942 7    326755.537 7    265047.87748  20603399.71548
        50.000          41.000  
  24458105.883 6      3009.691 6  -2164080.371 6  -1678165.60747  24458096.30947
        42.500          27.750  
  20727505.477 7      -858.723 7   1470805.820 7   1151315.61348  20727495.31648
        49.750          40.500  
  21262509.969 7      1477.498 7  -2504486.964 7  -1927394.36248  21262499.34048
        49.750          39.500  
  23907313.258 5      1001.118 5  -1810035.530 5  -1399881.52346  23907307.08246
        42.000          24.500  
  25035001.414 4     -3778.150 4   4036744.837 4   3129230.31245  25034996.82045
        39.000          15.500  
 11  3 24 16 38 15.0000000  0 12G03G06G09G14G15G16G18G19G21G22G27G29
  22054548.227 6      1097.541 6  -2362935.984 6  -1812582.64047  22054539.88347
        44.250          32.250  
  21971109.008 7       746.723 7  -1677053.957 7  -1277880.39348  21971100.48848
        49.250          36.250  
  23935557.188 5      2670.272 5  -4499989.832 5  -3489367.37546  23935551.65646
        41.250          22.750  
  23347582.125 6      3556.487 6  -5927190.931 6  -4596951.75546  23347573.43046
        44.000          26.000  
  22342594.938 6     -2461.001 6   4177108.278 6   3248301.37148  22342587.18048
        45.750          34.250  
  25339715.094 4     -2398.628 4   1392466.933 4                
        37.500  
  20603786.836 7      -132.318 7    328740.302 7    266594.44048  20603776.96948
        49.500          41.000  
  24449525.617 6      3005.110 6  -2209157.023 6  -1713290.24847  24449517.39147
        42.500          27.500  
  20729974.563 7      -865.005 7   1483780.898 7   1161426.05248  20729964.63748
        49.750          41.000  
  21258305.375 7      1473.045 7  -2526582.634 7  -1944611.76448  21258294.68848
        49.500          39.250  
  23904475.734 6       994.099 6  -1824947.010 6  -1411500.85546  23904469.38346
        42.750          26.250  
  25045785.305 5     -3777.822 5   4093412.160 5   3173386.63545  25045779.24645
        40.250          16.250  
 11  3 24 16 38 30.0000000  0 12G03G06G09G14G15G16G18G19G21G22G27G29
  22051442.570 6      1087.902 6  -2379254.517 6  -1825298.38447  22051434.57847
        45.500          31.000  
  21969003.125 7       737.764 7  -1688120.411 7  -1286503.61748  21968994.89848
        48.000          36.250  
  23927948.344 5      2665.627 5  -4539974.244 5  -3520524.03146  23927943.39846
        41.000          23.250  
  23337438.547 6      3553.536 6  -5980493.970 6  -4638486.57447  23337430.26247
        43.500          26.500  
  22349638.930 6     -2467.747 6   4214124.487 6   3277145.14648  22349631.05548
        46.000          34.250  
  25346568.453 3     -2400.559 3   1428475.321 3                
        37.000  
  20604177.047 7      -136.670 7    330790.345 7    268191.86348  20604167.35548
        49.500          40.500  
  24440960.977 6      3000.520 6  -2254164.824 6  -1748361.22347  24440953.16047
        42.500          27.500  
  20732461.195 7      -871.287 7   1496850.196 7   1171609.89848  20732451.27048
        50.000          40.500  
  21254113.953 7      1468.600 7  -2548611.635 7  -1961777.21148  21254102.91448
        49.500          40.000  
  23901658.508 6       987.076 6  -1839753.154 6  -1423038.07947  23901652.44947
        42.500          26.750  
  25056568.445 5     -3777.467 5   4150074.163 5   3217538.79645  25056561.68445
        40.750          16.250  
 11  3 24 16 38 45.0000000  0 12G03G06G09G14G15G16G18G19G21G22G27G29
  22048364.758 6      1078.271 6  -2395428.588 6  -1837901.55947  22048356.35547
        44.250          32.000  
  21966922.414 7       728.810 7  -1699052.559 7  -1295022.18148  21966914.42248
        49.000          35.500  
  23920352.227 5      2660.971 5  -4579888.803 5  -3551626.23746  23920347.80946
        40.500          25.500  
  23327304.164 6      3550.582 6  -6033752.695 6  -4679986.86447  23327295.52747
        43.250          27.000  
  22356702.438 6     -2474.464 6   4251241.452 6   3306067.42748  22356694.09448
        46.250          34.500  
  25353425.453 3     -2402.448 3   1464512.046 3                
        37.000  
  20604579.453 7      -141.008 7    332905.467 7    269840.00348  20604569.35248
        48.750          41.000  
  24432409.859 6      2995.926 6  -2299103.708 6  -1783378.51047  24432401.16447
        43.000          27.250  
  20734966.031 7      -877.557 7   1510013.546 7   1181867.04648  20734956.39848
        50.250          40.750  
  21249934.648 7      1464.175 7  -2570574.263 7  -1978890.93848  21249923.72748
        49.750          40.000  
  23898860.969 6       980.056 6  -1854453.988 6  -1434493.26747  23898854.73447
        43.000          27.250  
  25067349.703 5     -3777.071 5   4206730.226 5   3261686.31345  25067343.05945
        40.750          15.500  
 11  3 24 16 39  0.0000000  0 12G03G06G09G14G15G16G18G19G21G22G27G29
  22045314.422 6      1068.568 6  -2411457.112 6  -1850391.32747  22045306.31347
        43.500          32.000  
  21964867.758 7       719.784 7  -1709849.316 7  -1303435.24248  21964859.82448
        48.750          35.500  
  23912770.719 5      2656.216 5  -4619732.040 5  -3582672.87846  23912766.18446
        40.750          24.500  
  23317177.930 6      3547.536 6  -6086965.740 6  -4721451.54947  23317169.17647
        42.750          27.500  
  22363784.523 6     -2481.230 6   4288459.905 6   3335068.79548  22363776.94148
        46.750          35.000  
  25360288.875 3     -2404.370 3   1500577.600 3                
        36.250  
  20604994.289 7      -145.400 7    335086.474 7    271539.48548  20604984.77348
        49.500          41.000  
  24423872.266 6      2991.233 6  -2343972.205 6  -1818340.95547  24423862.57447
        42.500          26.750  
  20737489.484 7      -883.906 7   1523272.136 7   1192198.39948  20737479.44148
        50.000          40.750  
  21245767.719 7      1459.695 7  -2592469.683 7  -1995952.29648  21245756.68048
        49.500          39.250  
  23896083.602 6       972.953 6  -1869048.282 6  -1445865.43447  23896078.01247
        42.750          26.500  
  25078130.070 5     -3776.727 5   4263381.138 5   3305829.82145  25078123.19145
        40.250          14.750  
 11  3 24 16 39 15.0000000  0 12G03G06G09G14G15G16G18G19G21G22G27G29
  22042291.617 6      1058.938 6  -2427341.178 6  -1862768.51447  22042283.74247
        44.250          31.500  
  21962838.063 7       710.838 7  -1720511.892 7  -1311743.74748  21962830.42248
        49.500          35.500  
  23905202.273 5      2651.516 5  -4659504.786 5  -3613664.54546  23905197.38746
        42.250          25.500  
  23307060.086 6      3544.555 6  -6140134.057 6  -4762881.39347  23307051.85947
        43.500          27.250  
  22370885.867 6     -2487.888 6   4325778.229 6   3364147.99148  22370877.93448
        46.500          35.250  
  25367156.703 3     -2406.198 3   1536670.572 3                
        37.000  
  20605422.219 7      -149.700 7    337331.968 7    273289.20848  20605411.94148
        49.250          41.000  
  24415346.250 6      2986.608 6  -2388771.327 6  -1853249.32647  24415337.32047
        42.500          27.750  
  20740030.273 7      -890.168 7   1536624.662 7   1202602.94248  20740020.64148
        50.000          41.000  
  21241613.898 7      1455.290 7  -2614299.037 7  -2012962.17048  21241602.85948
        49.750          39.500  
  23893326.711 6       965.921 6  -1883537.095 6  -1457155.39146  23893320.82846
        42.500          26.000  
  25088909.156 5     -3776.281 5   4320025.347 5   3349968.03845  25088903.09845
        40.250          14.750  
 11  3 24 16 39 30.0000000  0 12G03G06G09G14G15G16G18G19G21G22G27G29
  22039296.813 6      1049.240 6  -2443079.778 6  -1875032.36147  22039288.58647
        44.500          32.000  
  21960835.180 7       701.829 7  -1731039.330 7  -1319946.95448  21960827.30548
        49.000          35.500  
  23897647.555 5      2646.734 5  -4699205.802 5  -3644600.41646  23897642.25846
        41.500          25.000  
  23296951.031 6      3541.498 6  -6193256.529 6  -4804275.52547  23296943.03947
        43.000          27.000  
  22378006.734 6     -2494.583 6   4363196.970 6   3393305.42448  22377998.74248
        46.250          35.000  
  25374030.711 4     -2408.057 4   1572791.422 4                
        37.500  
  20605861.555 7      -154.062 7    339642.895 7    275089.92348  20605851.45348
        50.000          41.000  
  24406835.063 6      2981.912 6  -2433500.009 6  -1888102.82347  24406825.37147
        42.500          27.750  
  20742589.000 7      -896.497 7   1550072.113 7   1213081.47048  20742579.19148
        50.250          41.000  
  21237472.625 7      1450.819 7  -2636061.326 7  -2029919.79548  21237461.58648
        49.000          40.250  
  23890589.531 6       958.816 6  -1897919.332 6  -1468362.31247  23890583.82447
        42.500          26.500  
  25099687.305 5     -3775.862 5   4376663.281 5   3394101.48345  25099681.30545
        40.000          15.500  
 11  3 24 16 39 45.0000000  0 12G03G06G09G14G15G16G18G19G21G22G27G29
  22036330.031 6      1039.552 6  -2458673.059 6  -1887182.97347  22036322.27347
        44.500          32.000  
  21958857.789 7       692.842 7  -1741431.962 7  -1328045.11048  21958849.56348
        48.500          35.500  
  23890106.234 5      2641.940 5  -4738834.902 5  -3675480.18747  23890101.11347
        41.000          27.000  
  23286850.930 5      3538.447 5  -6246333.228 5  -4845633.96147  23286843.23047
        42.250          27.000  
  22385146.273 6     -2501.233 6   4400715.458 6   3422540.58448  22385138.04748
        45.500          34.500  
  25380909.664 3     -2409.853 3   1608939.219 3                
        37.250  
  20606314.047 7      -158.394 7    342018.808 7    276941.27548  20606304.06348
        48.500          41.000  
  24398336.031 5      2977.214 5  -2478158.224 5  -1922901.40946  24398327.92246
        41.250          25.750  
  20745166.438 7      -902.802 7   1563614.148 7   1223633.69348  20745156.27748
        50.250          41.000  
  21233343.852 7      1446.382 7  -2657757.062 7  -2046825.54848  21233332.63748
        49.250          40.250  
  23887872.992 5       951.714 5  -1912195.040 5  -1479486.23446  23887866.99246
        41.750          26.250  
  25110463.641 5     -3775.409 5   4433294.409 5   3438229.66945  25110458.10945
        40.000          13.750  
 11  3 24 16 40  0.0000000  0 12G03G06G09G14G15G16G18G19G21G22G27G29
  22033390.523 6      1029.843 6  -2474120.705 6  -1899220.10747  22033382.12147
        45.000          32.250  
  21956905.977 7       683.811 7  -1751689.125 7  -1336037.71848  21956897.92648
        48.750          35.250  
  23882578.805 5      2637.089 5  -4778391.234 5  -3706303.26046  23882573.80146
        41.500          24.250  
  23276759.945 6      3535.341 6  -6299363.339 6  -4886956.11847  23276751.36747
        42.500          26.750  
  22392304.852 6     -2507.886 6   4438333.743 6   3451853.50148  22392296.50848
        45.500          34.000  
  25387794.523 4     -2411.670 4   1645114.273 4                
        38.250  
  20606778.328 7      -162.744 7    344459.974 7    278843.47749  20606768.46149
        49.750          41.500  
  24389851.438 5      2972.474 5  -2522745.338 5  -1957644.59446  24389842.80146
        41.250          26.250  
  20747761.430 7      -909.142 7   1577251.271 7   1234260.00448  20747751.44548
        49.750          41.000  
  21229228.320 7      1441.918 7  -2679385.827 7  -2063679.12748  21229217.57448
        49.000          39.500  
  23885176.930 6       944.571 6  -1926363.612 6  -1490526.66946  23885170.52046
        42.500          25.000  
  25121239.125 4     -3774.952 4   4489918.696 4   3482352.42145  25121233.30145
        39.000          14.750  
 11  3 24 16 40 15.0000000  0 12G03G06G09G14G15G16G18G19G21G22G27G29
  22030478.727 6      1020.178 6  -2489423.372 6  -1911144.26047  22030470.09047
        44.500          31.500  
  21954979.883 7       674.826 7  -1761811.518 7  -1343925.30948  21954971.48048
        49.750          35.500  
  23875065.086 5      2632.258 5  -4817875.098 5  -3737069.86346  23875059.73046
        40.750          24.750  
  23266677.273 6      3532.266 6  -6352347.330 6  -4928242.31347  23266668.93047
        42.500          27.500  
  22399482.094 6     -2514.474 6   4476050.853 6   3481243.43348  22399473.86748
        45.750          34.500  
  25394683.266 4     -2413.403 4   1681315.318 4                
        37.500  
  20607255.328 7      -167.055 7    346965.795 7    280796.05148  20607245.46148
        49.750          41.250  
  24381380.484 5      2967.757 5  -2567261.696 5  -1992332.63446  24381370.85246
        41.750          24.750  
  20750374.313 7      -915.428 7   1590982.698 7   1244959.79348  20750364.73848
        51.000          41.000  
  21225125.148 7      1437.506 7  -2700948.421 7  -2080481.13948  21225114.05148
        49.500          39.750  
  23882501.367 6       937.466 6  -1940425.603 6  -1501484.05246  23882494.95746
        42.500          26.000  
  25132012.492 4     -3774.434 4   4546535.212 4   3526469.27545  25132007.72345
        38.500          13.750  
 11  3 24 16 40 30.0000000  0 12G03G06G09G14G15G16G18G19G21G22G27G29
  22027593.617 6      1010.455 6  -2504580.194 6  -1922954.76947  22027585.68447
        45.500          31.500  
  21953079.266 7       665.801 7  -1771798.528 7  -1351707.39948  21953070.92248
        48.750          35.500  
  23867565.492 5      2627.360 5  -4857285.502 5  -3767779.23446  23867559.96146
        41.250          26.000  
  23256603.227 5      3529.132 5  -6405284.317 5  -4969491.90046  23256595.00046
        42.250          25.750  
  22406677.875 6     -2521.084 6   4513867.109 6   3510710.61948  22406670.11748
        45.000          34.000  
  25401576.664 3     -2415.139 3   1717542.396 3                
        37.250  
  20607744.430 7      -171.373 7    349536.394 7    282799.11348  20607734.50448
        50.250          41.000  
  24372923.211 5      2962.981 5  -2611706.413 5  -2026964.85446  24372913.28546
        40.500          26.000  
  20753005.258 7      -921.765 7   1604809.166 7   1255733.65148  20752996.03548
        50.500          41.000  
  21221034.438 7      1433.056 7  -2722444.254 7  -2097231.13148  21221023.34048
        49.750          40.000  
  23879845.859 5       930.301 5  -1954380.115 5  -1512357.71146  23879838.86346
        42.250          25.750  
  25142785.164 4     -3773.935 4   4603144.240 4   3570576.97344  25142779.92644
        37.500          10.750  
 11  3 24 16 40 45.0000000  0 12G03G06G09G14G15G16G18G19G21G22G27G29
  22024737.422 6      1000.735 6  -2519591.220 6  -1934651.68347  22024728.66847
        45.250          31.250  
  21951204.688 7       656.766 7  -1781650.014 7  -1359383.89648  21951196.16848
        48.750          35.250  
  23860079.578 5      2622.450 5  -4896622.253 5  -3798431.20346  23860073.69546
        40.750          24.750  
  23246538.688 6      3525.986 6  -6458174.107 6  -5010704.70847  23246530.34447
        43.250          26.500  
  22413892.867 6     -2527.662 6   4551782.042 6   3540254.68348  22413885.10948
        45.750          34.500  
  25408476.086 3     -2416.869 3   1753795.437 3                
        36.500  
  20608246.016 7      -175.686 7    352171.687 7    284852.57849  20608235.68049
        49.750          41.500  
  24364479.625 5      2958.185 5  -2656079.186 5  -2061541.02246  24364468.46946
        40.500          24.250  
  20755654.180 7      -928.106 7   1618730.762 7   1266581.62948  20755644.89848
        50.500          41.250  
  21216956.961 7      1428.609 7  -2743873.392 7  -2113929.15448  21216945.62948
        50.000          39.750  
  23877210.594 5       923.140 5  -1968227.215 5  -1523147.60847  23877204.18447
        41.250          26.500  
  25153556.758 3     -3773.424 3   4659745.601 3   3614676.32445  25153550.23045
        35.750          13.750  
 11  3 24 16 41  0.0000000  0 12G03G06G09G14G15G16G18G19G21G22G27G29
  22021908.797 6       990.984 6  -2534455.978 6  -1946234.60847  22021899.92647
        46.250          31.500  
  21949355.891 7       647.744 7  -1791366.178 7  -1366954.93648  21949347.48848
        48.750          35.500  
  23852608.383 5      2617.494 5  -4935884.663 5  -3829025.26246  23852603.08646
        42.000          25.500  
  23236483.547 6      3522.807 6  -6511016.210 6  -5051880.36046  23236475.02746
        42.500          26.000  
  22421127.211 6     -2534.223 6   4589795.386 6   3569875.44248  22421118.86748
        46.000          35.000  
  25415377.195 2     -2418.572 2   1790074.016 2                
        35.500  
  20608759.398 7      -180.006 7    354871.782 7    286956.54748  20608749.94148
        50.500          41.000  
  24356048.430 5      2953.366 5  -2700379.674 5  -2096060.86146  24356038.38746
        39.750          24.000  
  20758321.602 7      -934.465 7   1632747.730 7   1277503.93148  20758311.96948
        50.000          41.250  
  21212891.445 7      1424.161 7  -2765235.801 7  -2130575.17648  21212879.99648
        50.000          39.250  
  23874595.711 5       915.941 5  -1981966.328 5  -1533853.40346  23874588.83246
        42.250          25.250  
  25164328.008 3     -3772.893 3   4716338.993 3                
        36.000  
 11  3 24 16 41 15.0000000  0 12G03G06G09G14G15G16G18G19G21G22G27G29
  22019107.977 6       981.268 6  -2549174.995 6  -1957703.97247  22019099.16447
        45.500          32.000  
  21947532.328 7       638.719 7  -1800946.963 7  -1374420.49348  21947524.21948
        49.000          35.250  
  23845150.609 5      2612.535 5  -4975072.689 5  -3859561.32946  23845145.78146
        42.000          25.750  
  23226436.820 6      3519.633 6  -6563810.707 6  -5093018.86346  23226428.77046
        42.500          25.750  
  22428379.742 6     -2540.739 6   4627906.472 6   3599572.36548  22428371.45748
        46.000          34.500  
  25422284.914 2     -2420.215 2   1826377.247 2                
        35.000  
  20609285.797 7      -184.290 7    357636.135 7    289110.57848  20609276.04748
        49.000          40.500  
  24347632.250 5      2948.547 5  -2744607.886 5  -2130524.38546  24347621.56346
        40.250          24.500  
  20761007.102 7      -940.788 7   1646859.554 7   1288500.13948  20760997.70348
        50.500          41.000  
  21208838.711 7      1419.740 7  -2786531.897 7  -2147169.53548  21208827.67248
        50.000          40.000  
  23872001.992 5       908.761 5  -1995597.737 5  -1544475.26847  23871995.46547
        41.500          27.000  
  25175096.289 2     -3772.323 2   4772923.845 2                
        35.500  
 11  3 24 16 41 30.0000000  0 12G03G06G09G14G15G16G18G19G21G22G27G29
  22016334.570 6       971.537 6  -2563748.053 6  -1969059.59947  22016326.52047
        45.500          32.500  
  21945734.875 7       629.703 7  -1810392.509 7  -1381780.66448  21945726.94148
        48.000          35.500  
  23837708.789 5      2607.552 5  -5014185.975 5  -3890039.17646  23837702.55546
        41.500          25.250  
  23216399.156 6      3516.441 6  -6616557.326 6  -5134120.13446  23216390.87146
        43.500          25.000  
  22435650.469 6     -2547.239 6   4666115.052 6   3629345.25048  22435642.30148
        45.500          34.750  
  25429199.242 2     -2421.843 2   1862704.898 2                
        34.250  
  20609823.781 7      -188.560 7    360464.537 7    291314.52249  20609814.14849
        50.000          41.500  
  24339229.680 4      2943.710 4  -2788763.529 4  -2164931.36746  24339219.05146
        39.000          23.750  
  20763710.859 7      -947.113 7   1661066.247 7   1299570.27948  20763701.22748
        50.000          40.750  
  21204799.344 7      1415.319 7  -2807761.676 7  -2163712.21648  21204788.01248
        50.500          40.000  
  23869428.594 5       901.569 5  -2009121.270 5  -1555013.07346  23869422.41846
        41.750          25.500  
  25185875.594 1     -3771.716 1   4829499.591 1                
        33.500  
 11  3 24 16 41 45.0000000  0 12G03G06G09G14G15G16G18G19G21G22G27G29
  22013583.930 6       963.765 6  -2578204.521 6  -1980324.38747  22013575.00047
        46.750          32.500  
  21943957.469 7       622.640 7  -1819732.109 7  -1389058.28648  21943949.59448
        49.000          35.250  
  23830273.555 5      2604.509 5  -5053253.609 5  -3920481.46147  23830268.60947
        42.000          27.250  
  23206365.719 6      3515.199 6  -6669285.314 6  -5175206.85546  23206357.25846
        43.000          26.000  
  22442934.320 6     -2551.740 6   4704391.156 6   3659170.76048  22442926.21148
        46.000          34.500  
  25436112.141 2     -2421.466 2   1899026.892 2                
        34.250  
  20610368.844 7      -190.877 7    363327.697 7    293545.55048  20610359.03548
        50.000          41.250  
  24330835.172 4      2940.826 4  -2832875.926 4  -2199304.63146  24330824.60246
        38.750          22.500  
  20766426.422 7      -951.473 7   1675338.346 7   1310691.37948  20766416.67248
        51.000          41.000  
  21200766.352 7      1412.866 7  -2828954.669 7  -2180226.23348  21200754.66848
        50.000          39.500  
  23866870.258 5       896.331 5  -2022566.241 5  -1565489.66046  23866863.02746
        42.000          25.250  
  25196673.898 2     -3769.122 2   4886036.425 2                
        34.000  
 11  3 24 16 42  0.0000000  0 12G03G06G09G14G15G16G18G19G21G22G27G29
  22010866.367 6       952.184 6  -2592487.284 6  -1991453.81447  22010857.55547
        46.500          33.000  
  21942211.766 7       611.769 7  -1828908.636 7  -1396208.82748  21942203.30548
        48.750          35.500  
  23822859.008 5      2597.622 5  -5092217.940 5  -3950843.25147  23822854.82447
        42.000          27.250  
  23196345.813 6      3510.132 6  -6721937.292 6  -5216234.35947  23196338.17247
        44.000          26.500  
  22450241.570 6     -2560.030 6   4742791.601 6   3689093.15448  22450233.05148
        45.750          34.500  
  25443033.031 1     -2424.882 1   1935400.116 1                
        33.000  
  20610931.031 7      -196.988 7    366282.523 7    295848.00748  20610921.16448
        50.250          41.000  
  24322459.836 5      2934.103 5  -2876887.465 5  -2233599.31446  24322449.44146
        39.750          22.500  
  20769165.797 7      -959.655 7   1689733.166 7   1321908.10648  20769156.10548
        51.000          40.750  
  21196751.078 7      1406.602 7  -2850053.694 7  -2196667.02648  21196739.74648
        50.000          39.500  
  23864337.891 6       887.273 6  -2035875.334 6  -1575860.37347  23864331.30547
        43.250          27.000  
  25207439.453 1     -3770.317 1   4942591.185 1                
        31.500  
 11  3 24 16 42 15.0000000  0 12G03G06G09G14G15G16G18G19G21G22G27G29
  22008176.406 6       942.295 6  -2606621.709 6  -2002467.65247  22008167.77047
        46.500          32.500  
  21940491.789 7       602.588 7  -1837947.455 7  -1403252.08148  21940483.03548
        49.000          35.250  
  23815458.813 5      2592.403 5  -5131103.987 5  -3981144.04646  23815455.09846
        42.250          26.000  
  23186336.523 6      3506.736 6  -6774538.333 6  -5257222.15647  23186328.23847
        43.500          26.750  
  22457567.617 6     -2566.608 6   4781290.721 6   3719092.43848  22457559.21548
        45.500          34.000  
  25449958.453 1     -2426.587 1   1971798.920 1                
        32.250  
  20611506.094 7      -201.402 7    369303.559 7    298202.06049  20611496.22749
        50.000          41.500  
  24314098.992 4      2929.057 4  -2920823.318 4  -2267835.00746  24314088.36346
        38.250          22.750  
  20771923.258 7      -966.150 7   1704225.410 7   1333200.75848  20771913.62548
        50.250          40.250  
  21192749.469 7      1402.029 7  -2871084.132 7  -2213054.38648  21192737.90248
        50.000          40.000  
  23861826.422 6       879.887 6  -2049073.636 6  -1586144.75646  23861819.83646
        42.500          25.750  
  25218199.883 2     -3769.807 2   4999138.290 2                
        34.000  
 11  3 24 16 42 30.0000000  0 12G03G06G09G14G15G16G18G19G21G22G27G29
  22005514.453 6       932.496 6  -2620609.142 6  -2013366.94947  22005506.05147
        46.000          32.500  
  21938797.750 7       593.509 7  -1846850.087 7  -1410189.20848  21938789.64148
        49.500          35.500  
  23808073.602 6      2587.262 6  -5169912.918 6  -4011384.73746  23808069.59446
        43.000          26.250  
  23176336.203 6      3503.420 6  -6827089.638 6  -5298171.20946  23176328.15246
        44.000          26.000  
  22464912.406 6     -2573.067 6   4819886.722 6   3749167.22447  22464903.59447
        46.250          33.500  
  25456890.414 2     -2428.143 2   2008221.070 2                
        34.000  
  20612093.000 7      -205.696 7    372388.991 7    300606.28748  20612083.01648
        49.750          41.000  
  24305752.453 5      2924.100 5  -2964684.817 5  -2302012.79146  24305741.94146
        39.250          23.500  
  20774699.648 7      -972.546 7   1718813.606 7   1344568.16248  20774690.07448
        50.750          40.500  
  21188759.977 7      1397.574 7  -2892047.738 7  -2229389.65148  21188748.46948
        50.500          39.500  
  23859335.813 5       872.597 5  -2062162.588 5  -1596343.92247  23859328.75847
        40.500          26.500  
  25228960.578 1     -3769.173 1   5055675.883 1                
        33.750  
 11  3 24 16 42 45.0000000  0 12G03G06G09G14G15G16G18G19G21G22G27G29
  22002880.563 6       922.721 6  -2634449.953 6  -2024151.99747  22002872.27747
        45.500          33.000  
  21937129.516 7       584.427 7  -1855616.485 7  -1417020.17548  21937121.28948
        48.750          35.750  
  23800703.398 5      2582.116 5  -5208644.650 5  -4041565.29347  23800699.62547
        42.000          27.500  
  23166345.805 6      3500.109 6  -6879591.267 6  -5339081.55247  23166336.93447
        42.750          26.500  
  22472275.453 6     -2579.474 6   4858578.827 6   3779316.88847  22472266.23047
        47.000          33.500  
  25463824.883 1     -2429.676 1   2044666.208 1                
        33.000  
  20612691.977 7      -209.973 7    375538.587 7    303060.50248  20612682.40248
        49.500          40.500  
  24297419.906 5      2919.142 5  -3008471.953 5  -2336132.58746  24297410.09846
        40.000          22.750  
  20777493.875 7      -978.921 7   1733497.423 7   1356010.08448  20777483.77348
        51.000          39.750  
  21184783.430 7      1393.134 7  -2912944.744 7  -2245673.02948  21184771.98048
        50.000          39.500  
  23856865.430 5       865.308 5  -2075142.212 5  -1606457.92147  23856859.02047
        41.500          26.750  
  25239717.023 2     -3768.491 2   5112203.248 2                
        34.750  
 11  3 24 16 43  0.0000000  0 12G03G06G09G14G15G16G18G19G21G22G27G29
  22000274.719 6       912.938 6  -2648144.025 6  -2034822.71547  22000266.55147
        46.500          33.500  
  21935487.094 7       575.366 7  -1864246.975 7  -1423745.24148  21935478.86748
        49.000          35.500  
  23793348.352 5      2576.936 5  -5247298.696 5  -4071685.29947  23793343.52347
        42.000          27.000  
  23156364.758 6      3496.771 6  -6932042.827 6  -5379952.87347  23156356.70747
        43.500          26.500  
  22479656.406 6     -2585.866 6   4897366.822 6   3809541.28548  22479647.59448
        46.500          34.750  
  25470765.99211     -2431.20811    505713.93511                
        32.500  
  20613303.711 7      -214.237 7    378752.143 7    305564.57148  20613294.25448
        50.000          41.000  
  24289102.734 4      2914.157 4  -3052184.301 4  -2370194.13546  24289092.57446
        38.750          22.500  
  20780306.266 7      -985.291 7   1748276.781 7   1367526.45048  20780296.39848
        50.250          39.750  
  21180819.477 7      1388.702 7  -2933775.278 7  -2261904.60448  21180808.08648
        50.250          39.500  
  23854417.047 6       858.009 6  -2088012.353 6  -1616486.59746  23854409.58246
        42.750          26.000  
  25250470.422 3     -3767.797 3   5168720.210 3                
        36.000  
 11  3 24 16 43 15.0000000  0 12G03G06G09G14G15G16G18G19G21G22G27G29
  21997696.750 6       903.167 6  -2661691.528 6  -2045379.20647  21997688.46547
        46.500          33.000  
  21933870.438 7       566.330 7  -1872741.926 7  -1430364.69948  21933862.27048
        49.000          36.000  
  23786007.180 6      2571.756 6  -5285875.039 6  -4101744.78247  23786002.17647
        43.000          26.500  
  23146393.656 6      3493.443 6  -6984444.469 6  -5420785.30347  23146383.96547
        44.500          27.000  
  22487055.266 6     -2592.208 6   4936249.946 6   3839839.79047  22487046.57047
        45.500          33.500  
  25477709.813 1     -2432.630 1    542203.389 1                
        33.500  
  20613927.523 7      -218.480 7    382029.340 7    308118.22149  20613918.24249
        49.000          41.500  
  24280798.234 5      2909.171 5  -3095821.868 5  -2404197.40246  24280788.19146
        40.500          24.500  
  20783136.844 7      -991.646 7   1763151.474 7   1379117.10548  20783126.91848
        50.500          40.000  
  21176868.031 7      1384.288 7  -2954539.597 7  -2278084.59348  21176856.75848
        50.250          39.000  
  23851988.953 6       850.715 6  -2100773.072 6  -1626430.00847  23851981.60547
        43.000          26.750  
  25261221.289 3     -3767.063 3   5225226.153 3                
        36.750  
 11  3 24 16 43 30.0000000  0 12G03G06G09G14G15G16G18G19G21G22G27G29
  21995146.430 6       893.384 6  -2675092.293 6  -2055821.37047  21995138.32047
        46.500          33.250  
  21932279.633 7       557.259 7  -1881100.814 7  -1436878.12348  21932271.23048
        48.250          35.750  
  23778681.258 6      2566.536 6  -5324373.073 6  -4131743.21446  23778676.02046
        42.750          26.000  
  23136431.016 6      3490.088 6  -7036795.790 6  -5461578.51947  23136422.43847
        43.000          27.250  
  22494471.914 6     -2598.529 6   4975227.886 6   3870212.19047  22494464.15647
        46.750          33.500  
  25484660.070 2     -2434.052 2    578714.175 2                
        35.500  
  20614563.273 7      -222.720 7    385370.138 7    310721.44149  20614553.58249
        50.000          41.750  
  24272509.242 5      2904.163 5  -3139384.317 5  -2438142.15046  24272498.73046
        40.750          24.000  
  20785985.117 7      -998.018 7   1778121.743 7   1390782.24448  20785975.77748
        50.250          40.000  
  21172929.352 7      1379.875 7  -2975237.725 7  -2294212.99748  21172917.90248
        50.250          39.000  
  23849581.102 6       843.406 6  -2113424.159 6  -1636287.99347  23849574.16447
        43.000          26.750  
  25271971.633 4     -3766.309 4   5281720.787 4                
        38.500  
 11  3 24 16 43 45.0000000  0 12G03G06G09G14G15G16G18G19G21G22G27G29
  21992624.422 6       883.568 6  -2688345.816 6  -2066148.79147  21992616.89847
        47.000          33.250  
  21930715.094 7       548.161 7  -1889323.232 7  -1443285.20048  21930706.98448
        48.250          36.250  
  23771370.055 5      2561.267 5  -5362792.077 5  -4161680.07546  23771364.64146
        41.500          25.750  
  23126478.898 6      3486.681 6  -7089096.011 6  -5502331.90547  23126470.02747
        44.000          27.250  
  22501907.891 6     -2604.863 6   5014300.829 6   3900658.59847  22501899.78147
        46.000          33.500  
  25491612.055 2     -2435.490 2    615246.518 2                
        34.500  
  20615211.406 7      -226.977 7    388774.791 7    313374.40648  20615201.53948
        50.000          41.250  
  24264233.289 5      2899.114 5  -3182871.021 5  -2472027.86146  24264223.65646
        40.750          26.000  
  20788852.516 7     -1004.412 7   1793187.927 7   1402522.11048  20788842.59048
        50.500          40.000  
  21169003.266 7      1375.431 7  -2995869.185 7  -2310289.45048  21168991.93448
        50.000          39.000  
  23847194.555 6       836.058 6  -2125965.024 6  -1646060.08747  23847188.02747
        44.500          26.750  
  25282717.375 4     -3765.574 4   5338204.401 4                
        38.750  
 11  3 24 16 44  0.0000000  0 12G03G06G09G14G15G16G18G19G21G22G27G29
  21990130.820 6       873.759 6  -2701452.204 6  -2076361.55947  21990122.88747
        46.750          33.250  
  21929176.156 7       539.071 7  -1897409.290 7  -1449586.03748  21929167.98848
        48.000          36.750  
  23764074.406 5      2555.988 5  -5401131.890 5  -4191555.24147  23764068.81647
        41.500          26.500  
  23116535.781 6      3483.279 6  -7141345.201 6  -5543045.54947  23116527.43847
        42.500          27.750  
  22509360.836 6     -2611.157 6   5053468.181 6   3931178.58547  22509353.31347
        46.750          33.250  
  25498568.664 2     -2436.884 2    651799.778 2                
        34.250  
  20615871.219 7      -231.215 7    392243.013 7    316076.91248  20615861.70348
        49.500          41.250  
  24255972.594 5      2894.060 5  -3226281.918 5  -2505854.49846  24255962.66846
        42.000          25.500  
  20791737.742 7     -1010.794 7   1808349.834 7   1414336.57448  20791727.93448
        50.500          40.250  
  21165089.758 7      1371.016 7  -3016434.420 7  -2326314.30248  21165078.95348
        50.250          39.750  
  23844829.484 6       828.712 6  -2138395.710 6  -1655746.33747  23844822.60547
        44.500          27.750  
  25293464.617 4     -3764.793 4   5394676.299 4                
        38.750  
 11  3 24 16 44 15.0000000  0 12G03G06G09G14G15G16G18G19G21G22G27G29
  21987664.727 6       863.938 6  -2714411.277 6  -2086459.54847  21987656.44147
        46.000          33.250  
  21927663.961 7       529.987 7  -1905359.096 7  -1455780.71048  21927655.32448
        48.500          36.000  
  23756793.773 6      2550.673 6  -5439391.981 6  -4221368.26747  23756787.71547
        42.750          27.500  
  23106603.398 6      3479.850 6  -7193542.950 6  -5583719.09347  23106594.76247
        43.500          26.500  
  22516832.680 6     -2617.433 6   5092729.680 6   3961771.91848  22516824.57048
        45.500          33.750  
  25505527.141 1     -2438.254 1    688373.585 1                
        32.000  
  20616543.281 7      -235.450 7    395774.761 7    318828.91848  20616533.70748
        50.000          41.000  
  24247726.945 5      2888.972 5  -3269616.495 5  -2539621.68047  24247717.25447
        42.000          27.750  
  20794641.438 7     -1017.191 7   1823607.701 7   1426225.80348  20794631.04348
        49.750          40.000  
  21161189.047 7      1366.593 7  -3036933.308 7  -2342287.44848  21161177.71548
        50.000          39.500  
  23842484.875 6       821.342 6  -2150715.835 6  -1665346.42847  23842477.93847
        43.750          27.000  
  25304207.852 5     -3764.005 5   5451136.372 5                
        39.750  
 11  3 24 16 44 30.0000000  0 12G03G06G09G14G15G16G18G19G21G22G27G29
  21985226.539 7       854.116 7  -2727223.016 7  -2096442.73147  21985218.60547
        47.750          33.000  
  21926177.352 7       520.896 7  -1913172.541 7  -1461869.12148  21926168.77348
        49.000          36.000  
  23749528.203 6      2545.319 6  -5477571.763 6  -4251118.73747  23749522.37947
        42.500          26.500  
  23096680.031 6      3476.383 6  -7245688.698 6  -5624352.13147  23096671.39547
        43.750          27.000  
  22524321.602 6     -2623.709 6   5132085.321 6   3992438.61148  22524313.90248
        46.250          34.000  
  25512488.195 1     -2439.613 1    724967.787 1                
        30.000  
  20617227.352 7      -239.683 7    399370.007 7    321630.40148  20617217.71948
        49.250          41.000  
  24239495.266 5      2883.853 5  -3312874.297 5  -2573329.03147  24239485.51647
        41.500          27.250  
  20797563.008 7     -1023.595 7   1838961.631 7   1438189.89148  20797552.84848
        50.500          39.750  
  21157300.953 7      1362.151 7  -3057365.578 7  -2358208.69048  21157289.56348
        49.500          39.250  
  23840161.344 6       813.953 6  -2162925.126 6  -1674860.15546  23840154.87546
        43.250          25.750  
  25314949.773 5     -3763.196 5   5507584.313 5                
        40.000  
 11  3 24 16 44 45.0000000  0 12G03G06G09G14G15G16G18G19G21G22G27G29
  21982815.391 6       844.699 6  -2739893.497 6  -2106315.84347  21982807.45747
        46.250          33.000  
  21924715.008 7       512.177 7  -1920855.189 7  -1467855.60948  21924706.84048
        48.500          36.000  
  23742276.906 5      2540.352 5  -5515677.039 5  -4280811.13747  23742271.60947
        40.000          26.500  
  23086765.852 6      3473.314 6  -7297788.410 6  -5664949.28647  23086757.27347
        43.500          29.500  
  22531827.734 6     -2629.545 6   5171528.502 6   4023173.52748  22531819.74248
        47.250          33.750  
  25519454.28911     -2440.97311    761575.77511                
        30.000  
  20617922.578 7      -243.510 7    403022.664 7    324476.62348  20617913.18048
        50.000          41.250  
  24231277.508 6      2879.129 6  -3356061.239 6  -2606981.17647  24231267.87547
        42.500          27.500  
  20800501.609 7     -1029.597 7   1854405.585 7   1450224.12548  20800492.03548
        50.500          39.500  
  21153424.336 7      1358.136 7  -3077737.613 7  -2374082.99148  21153412.94548
        50.500          39.250  
  23837857.859 6       806.963 6  -2175029.577 6  -1684292.19447  23837851.03947
        43.500          26.500  
  25325685.313 5     -3761.965 5   5564013.787 5                
        41.000  
 11  3 24 16 45  0.0000000  0 12G03G06G09G14G15G16G18G19G21G22G27G29
  21980433.445 6       834.445 6  -2752410.177 6  -2116069.09848  21980425.45348
        46.500          33.750  
  21923280.203 7       502.681 7  -1928395.410 7  -1473731.12048  21923272.09448
        49.000          36.250  
  23735042.938 5      2534.535 5  -5553695.061 5  -4310435.56246  23735036.64546
        42.250          25.500  
  23076862.477 6      3469.408 6  -7349829.535 6  -5705500.78347  23076854.25047
        43.500          27.000  
  22539352.523 6     -2636.170 6   5211071.059 6   4053985.87548  22539344.12148
        47.250          34.500  
  25526428.10911     -2442.57811                                
        29.000  
  20618630.586 7      -248.147 7    406744.869 7    327377.03448  20618621.30548
        49.750          41.000  
  24223075.219 6      2873.564 6  -3399164.692 6  -2640568.25647  24223064.82447
        43.250          27.500  
  20803460.430 7     -1036.419 7   1869951.868 7   1462338.10748  20803450.73848
        49.750          39.500  
  21149561.258 7      1353.292 7  -3098036.994 7  -2389900.68848  21149550.33648
        50.000          39.750  
  23835576.406 6       799.143 6  -2187016.726 6  -1693632.82946  23835569.64546
        42.500          26.000  
  25336422.367 5     -3761.531 5   5620436.750 5                
        41.250  
 11  3 24 16 45 15.0000000  0 12G03G06G09G14G15G16G18G19G21G22G27G29
  21978079.586 6       824.590 6  -2764779.034 6  -2125707.18347  21978071.82847
        46.500          32.500  
  21921871.375 7       493.553 7  -1935798.704 7  -1479499.93648  21921863.09048
        48.500          36.500  
  23727823.633 5      2529.094 5  -5591631.467 5  -4339996.37847  23727817.69147
        41.500          26.500  
  23066969.563 6      3465.889 6  -7401817.864 6  -5746011.13647  23066961.10247
        43.000          27.000  
  22546895.023 6     -2642.362 6   5250706.492 6   4084870.59348  22546886.27048
        46.750          34.000  
  25533402.64811     -2443.93811    834862.43611                
        27.500  
  20619351.008 7      -252.368 7    410530.392 7    330326.78448  20619341.66848
        49.000          41.000  
  24214887.539 6      2868.394 6  -3442190.595 6  -2674094.90347  24214877.78947
        43.750          28.250  
  20806436.922 7     -1042.842 7   1885594.506 7   1474527.15748  20806427.05548
        49.250          40.000  
  21145710.977 7      1348.861 7  -3118269.903 7  -2405666.59348  21145699.87948
        49.750          40.000  
  23833316.000 5       791.716 5  -2198892.459 5  -1702886.64446  23833310.00046
        41.000          25.750  
  25347156.945 5     -3760.665 5   5676846.732 5                
        41.500  
 11  3 24 16 45 30.0000000  0 11G03G06G09G14G15G18G19G21G22G27G29   
  21975753.680 6       814.746 6  -2777000.219 6  -2135230.18447  21975746.27347
        46.000          32.750  
  21920488.391 7       484.457 7  -1943065.560 7  -1485162.43148  21920480.75048
        48.250          36.750  
  23720620.266 5      2523.629 5  -5629485.901 5  -4369493.31946  23720614.38346
        42.000          26.000  
  23057085.891 6      3462.355 6  -7453753.194 6  -5786480.20447  23057078.25047
        44.250          27.750  
  22554455.328 6     -2648.539 6   5290434.570 6   4115827.51448  22554446.39848
        46.500          34.500  
  20620083.898 7      -256.583 7    414379.130 7    333325.79748  20620073.68048
        48.750          40.500  
  24206714.555 6      2863.204 6  -3485138.659 6  -2707560.91747  24206704.98047
        43.500          27.750  
  20809431.828 7     -1049.255 7   1901333.330 7   1486791.16648  20809421.84448
        50.500          40.250  
  21141873.508 7      1344.441 7  -3138436.513 7  -2421380.83348  21141862.05948
        49.500          39.500  
  23831077.500 6       784.282 6  -2210656.689 6  -1712053.57746  23831071.55946
        42.500          23.500  
  25357887.180 5     -3759.779 5   5733243.420 5                
        40.250  
 11  3 24 16 45 45.0000000  0 11G03G06G09G14G15G18G19G21G22G27G29   
  21973458.648 6       804.107 6  -2789061.830 6  -2144628.85147  21973451.12547
        47.000          33.000  
  21919133.813 7       474.553 7  -1950183.853 7  -1490709.16648  21919126.58248
        48.750          36.000  
  23713434.242 5      2517.355 5  -5667246.220 5  -4398916.94547  23713428.82847
        41.000          27.000  
  23047216.102 6      3458.011 6  -7505623.358 6  -5826898.49147  23047207.75847
        44.250          27.750  
  22562034.617 6     -2655.481 6   5330266.790 6   4146865.57948  22562025.92248
        47.250          34.500  
  20620830.422 7      -261.570 7    418302.686 7    336383.10548  20620820.32048
        49.750          41.000  
  24198559.250 6      2857.215 6  -3527996.889 6  -2740956.91647  24198549.44147
        44.000          27.500  
  20812447.883 7     -1056.466 7   1917180.319 7   1499139.45048  20812437.78148
        51.000          39.750  
  21138050.758 7      1339.226 7  -3158524.902 7  -2437034.12148  21138039.54348
        50.500          39.750  
  23828862.203 5       776.048 5  -2222297.402 5  -1721124.26846  23828856.26246
        41.000          25.750  
  25368618.461 5     -3759.663 5   5789638.363 5                
        41.000  
 11  3 24 16 46  0.0000000  0 11G03G06G09G14G15G18G19G21G22G27G29   
  21971189.703 6       795.038 6  -2800987.406 6  -2153921.51147  21971182.00447
        45.500          32.250  
  21917802.672 7       466.229 7  -1957177.287 7  -1496158.59648  21917794.68048
        48.750          36.000  
  23706263.367 6      2512.625 6  -5704935.591 6  -4428285.28947  23706256.66447
        43.250          27.000  
  23037353.000 6      3455.227 6  -7557451.761 6  -5867284.23847  23037344.42247
        43.750          28.250  
  22569630.055 6     -2660.835 6   5370179.313 6   4177966.21447  22569621.53547
        47.500          33.500  
  20621586.578 7      -264.985 7    422277.459 7    339480.32848  20621576.94548
        48.500          41.000  
  24190416.367 6      2852.765 6  -3570788.359 6  -2774300.88847  24190406.55947
        43.500          28.500  
  20815480.102 7     -1062.118 7   1933112.093 7   1511553.80548  20815469.82448
        51.000          40.250  
  21134238.602 7      1335.593 7  -3178558.800 7  -2452644.94048  21134227.56348
        50.750          39.500  
  23826666.414 5       769.374 5  -2233838.018 5  -1730116.94746  23826660.12146
        39.750          25.750  
  25379341.539 5     -3757.954 5   5846007.673 5                
        41.250  
 11  3 24 16 46 15.0000000  0 11G03G06G09G14G15G18G19G21G22G27G29   
  21968948.242 6       785.164 6  -2812764.860 6  -2163098.75847  21968940.77747
        44.250          33.000  
  21916498.328 7       457.093 7  -1964033.681 7  -1501501.24748  21916490.10248
        49.000          36.750  
  23699106.734 5      2507.057 5  -5742541.441 5  -4457588.52947  23699100.09047
        42.250          27.000  
  23027500.531 6      3451.615 6  -7609225.991 6  -5907627.76647  23027492.48047
        43.500          27.500  
  22577242.633 6     -2666.953 6   5410183.607 6   4209138.36248  22577233.70348
        47.000          33.750  
  20622354.797 7      -269.195 7    426315.378 7    342626.75149  20622345.51649
        47.750          41.500  
  24182288.008 6      2847.497 6  -3613500.820 6  -2807583.30347  24182278.66847
        43.000          29.000  
  20818529.141 7     -1068.556 7   1949140.434 7   1524043.41648  20818519.39148
        50.750          39.750  
  21130439.234 7      1331.159 7  -3198526.189 7  -2468203.94548  21130428.13748
        50.500          40.250  
  23824491.805 5       761.885 5  -2245266.293 5  -1739022.09046  23824485.45346
        40.000          25.000  
  25390056.445 5     -3757.019 5   5902362.960 5                
        40.750  
 11  3 24 16 46 30.0000000  0 11G03G06G09G14G15G18G19G21G22G27G29   
  21966739.148 6       774.094 6  -2824376.267 6  -2172146.62047  21966731.15647
        44.500          32.750  
  21915223.117 7       446.771 7  -1970735.248 7  -1506723.25848  21915215.12548
        48.750          36.500  
  23691970.250 6      2500.287 6  -5780045.740 6  -4486812.64646  23691963.37146
        42.750          24.500  
  23017662.203 6      3446.799 6  -7660927.979 6  -5947915.00447  23017653.68447
        44.000          28.250  
  22584875.930 6     -2674.235 6   5450297.139 6   4240395.63047  22584867.46947
        47.250          33.500  
  20623138.750 7      -274.582 7    430434.106 7    345836.14248  20623128.53148
        48.750          41.250  
  24174179.109 6      2841.023 6  -3656116.167 6  -2840790.04047  24174169.12547
        43.750          28.500  
  20821601.945 7     -1076.176 7   1965283.080 7   1536622.08448  20821591.66848
        50.500          40.500  
  21126655.438 7      1325.551 7  -3218409.449 7  -2483697.38948  21126644.10548
        50.000          39.250  
  23822341.813 5       753.207 5  -2256564.392 5  -1747825.78846  23822335.57846
        39.500          26.000  
  25400748.266 5     -3757.255 5   5958721.779 5                
        40.250  
 11  3 24 16 46 45.0000000  0 11G03G06G09G14G15G18G19G21G22G27G29   
  21964554.789 6       765.139 6  -2835853.346 6  -2181089.79747  21964546.85547
        45.500          32.000  
  21913971.375 7       438.563 7  -1977313.688 7  -1511849.32748  21913963.14848
        48.750          36.000  
  23684846.352 6      2495.602 6  -5817479.765 6  -4515982.00746  23684839.35546
        42.500          24.500  
  23007830.797 6      3444.076 6  -7712589.117 6  -5988170.40947  23007822.62947
        43.750          27.250  
  22592523.992 6     -2679.387 6   5490487.942 6   4271713.11647  22592515.12147
        46.500          33.000  
  20623931.664 7      -277.841 7    434601.718 7    349083.62248  20623921.85548
        48.750          41.000  
  24166081.680 6      2836.644 6  -3698665.825 6  -2873945.59047  24166071.98847
        43.750          28.750  
  20824688.914 7     -1081.687 7   1981508.391 7   1549265.17248  20824679.16448
        51.000          40.000  
  21122881.516 7      1322.055 7  -3238240.274 7  -2499149.97148  21122870.18448
        50.500          40.000  
  23820211.039 4       746.629 4  -2267763.834 4  -1756552.62146  23820203.98446
        38.500          24.750  
  25411468.234 5     -3755.361 5   6015052.190 5                
        39.750  
 11  3 24 16 47  0.0000000  0 11G03G06G09G14G15G18G19G21G22G27G29   
  21962398.125 6       755.539 6  -2847186.432 6  -2189920.78547  21962390.42647
        45.250          32.750  
  21912745.148 7       429.720 7  -1983759.488 7  -1516872.03848  21912736.74648
        49.250          36.250  
  23677737.594 5      2490.253 5  -5854833.567 5  -4545088.85146  23677730.65646
        42.000          24.750  
  22998010.469 6      3440.702 6  -7764199.643 6  -6028386.38347  22998002.12547
        44.000          27.750  
  22600188.977 6     -2685.144 6   5530765.108 6   4303097.88747  22600179.75447
        47.000          33.250  
  20624735.828 7      -281.732 7    438827.694 7    352376.57848  20624726.13748
        49.000          40.500  
  24157999.742 6      2831.616 6  -3741140.058 6  -2907042.36747  24157989.87547
        43.750          30.000  
  20827793.781 7     -1087.837 7   1997825.943 7   1561980.13248  20827784.20748
        50.750          39.750  
  21119119.695 7      1317.923 7  -3258009.119 7  -2514554.26348  21119108.36348
        50.250          40.000  
  23818100.250 4       739.402 4  -2278854.866 4  -1765194.97646  23818093.89846
        39.000          24.500  
  25422183.453 5     -3754.081 5   6071363.401 5                
        39.500  
 11  3 24 16 47 15.0000000  0 11G03G06G09G14G15G18G19G21G22G27G29   
  21960269.750 6       745.715 6  -2858372.157 6  -2198636.93947  21960261.17247
        46.750          33.500  
  21911544.078 7       420.644 7  -1990069.141 7  -1521788.66348  21911535.55948
        48.500          36.250  
  23670645.977 5      2484.661 5  -5892103.476 5  -4574130.32246  23670638.04346
        42.000          24.750  
  22988199.289 6      3437.093 6  -7815756.036 6  -6068560.17247  22988191.35547
        43.250          28.250  
  22607870.125 6     -2691.098 6   5571131.580 6   4334552.25347  22607861.19547
        46.750          33.000  
  20625551.828 7      -285.839 7    443115.281 7    355717.55248  20625542.19548
        48.500          40.500  
  24149932.094 6      2826.345 6  -3783535.229 6  -2940077.54847  24149922.52047
        44.500          29.000  
  20830917.539 7     -1094.215 7   2014239.171 7   1574769.65248  20830907.55548
        50.750          40.500  
  21115370.406 7      1313.579 7  -3277712.797 7  -2529907.77248  21115358.78148
        49.500          40.250  
  23816010.820 5       731.943 5  -2289834.005 5  -1773750.13546  23816004.23446
        39.250          25.000  
  25432895.852 4     -3753.002 4   6127658.431 4                
        38.250  
 11  3 24 16 47 30.0000000  0 11G03G06G09G14G15G18G19G21G22G27G29   
  21958169.508 6       735.828 6  -2869409.574 6  -2207237.52747  21958161.04747
        45.000          32.500  
  21910369.328 7       411.519 7  -1996241.928 7  -1526598.63848  21910361.57048
        48.250          36.000  
  23663569.758 5      2478.985 5  -5929288.249 5  -4603105.46146  23663561.76646
        41.750          24.500  
  22978398.469 6      3433.398 6  -7867257.013 6  -6108690.77647  22978390.47747
        43.250          28.000  
  22615569.289 6     -2697.092 6   5611587.954 6   4366076.67647  22615560.30147
        47.250          33.250  
  20626379.375 7      -289.998 7    447465.257 7    359107.13748  20626369.80148
        48.000          40.000  
  24141879.938 6      2820.995 6  -3825850.152 6  -2973050.18847  24141870.42247
        44.000          29.000  
  20834059.211 7     -1100.649 7   2030748.908 7   1587634.36048  20834049.34448
        50.750          40.250  
  21111633.289 7      1309.172 7  -3297350.383 7  -2545209.78048  21111621.95748
        50.000          40.750  
  23813943.008 5       724.410 5  -2300700.157 5  -1782217.27346  23813936.24646
        40.000          23.500  
  25443603.305 5     -3751.969 5   6183937.960 5   4802352.99855  25443596.54355
        39.750          18.250  
 11  3 24 16 47 45.0000000  0 11G03G06G09G14G15G18G19G21G22G27G29   
  21956097.664 7       725.918 7  -2880298.339 7  -2215722.29147  21956088.73447
        48.000          33.250  
  21909220.672 7       402.362 7  -2002277.355 7  -1531301.56448  21909213.03148
        48.500          36.250  
  23656510.102 5      2473.252 5  -5966387.029 5  -4632013.57746  23656501.58246
        41.750          25.250  
  22968609.297 6      3429.671 6  -7918702.075 6  -6148777.82247  22968601.07047
        43.750          28.250  
  22623284.727 6     -2703.094 6   5652134.371 6   4397671.25747  22623276.09047
        47.000          33.500  
  20627219.313 7      -294.180 7    451877.957 7    362545.58448  20627209.44548
        49.500          39.750  
  24133842.180 6      2815.604 6  -3868084.219 6  -3005959.82247  24133833.54347
        43.250          29.500  
  20837219.070 7     -1107.121 7   2047355.724 7   1600574.72448  20837209.61348
        50.500          40.000  
  21107909.297 7      1304.744 7  -3316921.550 7  -2560460.03548  21107897.73048
        50.250          40.750  
  23811896.617 5       716.838 5  -2311452.726 5  -1790595.87446  23811889.62146
        40.500          22.500  
  25454310.227 3     -3750.940 3   6240202.056 3   4846195.00945  25454303.81645
        37.250          17.250  
 11  3 24 16 48  0.0000000  0 11G03G06G09G14G15G18G19G21G22G27G29   
  21954053.695 7       716.068 7  -2891039.366 7  -2224091.92547  21954045.17647
        48.000          33.000  
  21908098.344 7       393.260 7  -2008176.252 7  -1535898.12048  21908090.05948
        47.750          35.750  
  23649466.258 5      2467.538 5  -6003400.100 5  -4660854.92146  23649457.91446
        42.000          24.500  
  22958830.398 6      3425.975 6  -7970091.697 6  -6188821.66347  22958821.64547
        43.500          27.500  
  22631018.117 6     -2709.016 6   5692769.616 6   4429335.04748  22631008.83648
        46.750          34.000  
  20628070.914 7      -298.297 7    456352.409 7    366032.16948  20628060.69548
        48.750          40.000  
  24125821.250 6      2810.239 6  -3910237.806 6  -3038806.73647  24125811.67647
        43.750          28.750  
  20840397.992 7     -1113.541 7   2064058.836 7   1613590.12548  20840387.71548
        51.000          39.500  
  21104197.445 7      1300.371 7  -3336427.108 7  -2575659.16748  21104185.99648
        49.750          40.500  
  23809871.891 5       709.313 5  -2322092.426 5  -1798886.53846  23809864.95346
        40.000          24.500  
  25465012.672 3     -3749.835 3   6296449.577 3   4890024.17045  25465007.37545
        36.750          17.250  
 11  3 24 16 48 15.0000000  0 11G03G06G09G14G15G18G19G21G22G27G29   
  21952038.211 7       706.167 7  -2901631.869 7  -2232345.83347  21952029.80947
        48.000          33.000  
  21907001.875 7       384.116 7  -2013937.987 7  -1540387.78448  21906993.64848
        47.750          35.500  
  23642439.359 6      2461.763 6  -6040326.551 6  -4689628.74746  23642431.66046
        42.500          25.000  
  22949062.086 6      3422.227 6  -8021425.097 6  -6228821.68147  22949053.62547
        43.000          27.500  
  22638767.250 6     -2714.953 6   5733493.917 6   4461068.24548  22638758.61348
        46.500          34.000  
  20628934.109 7      -302.442 7    460889.036 7    369567.19048  20628923.77348
        48.500          40.250  
  24117815.039 6      2804.824 6  -3952310.168 6  -3071590.37747  24117805.40647
        44.000          29.000  
  20843594.703 7     -1119.991 7   2080858.697 7   1626680.90748  20843583.95748
        50.750          40.000  
  21100498.227 7      1295.968 7  -3355866.625 7  -2590806.82748  21100486.95348
        50.500          41.000  
  23807869.078 4       701.740 4  -2332618.525 4  -1807088.68546  23807862.66846
        38.750          23.250  
  25475713.023 3     -3748.735 3   6352680.608 3   4933840.45845  25475707.78545
        36.500          16.750  
 11  3 24 16 48 30.0000000  0 12G03G06G09G14G15G16G18G19G21G22G27G29
  21950048.484 6       696.955 6  -2912086.192 6  -2240492.06447  21950040.37547
        47.500          32.500  
  21905930.031 7       375.667 7  -2019572.989 7  -1544778.71148  21905921.45348
        48.750          35.750  
  23635427.914 5      2456.660 5  -6077176.447 5  -4718342.93146  23635419.74646
        41.500          24.750  
  22939302.602 6      3419.150 6  -8072712.349 6  -6268785.74447  22939293.78947
        43.000          27.500  
  22646531.563 6     -2720.175 6   5774296.538 6   4492862.46248  22646523.04348
        46.750          34.000  
  25624381.62511     -2458.06311    219218.09711                
        33.500  
  20629807.336 7      -305.889 7    465477.377 7    373142.51148  20629797.35248
        49.250          40.250  
  24109822.711 6      2800.075 6  -3994311.300 6  -3104318.50847  24109813.19547
        44.750          30.000  
  20846808.156 7     -1125.752 7   2097744.982 7   1639839.03448  20846797.82048
        51.250          40.250  
  21096809.398 7      1292.255 7  -3375250.447 7  -2605911.09948  21096798.18448
        49.750          40.500  
  23805885.508 5       694.844 5  -2343041.192 5  -1815210.24446  23805879.21546
        41.000          22.500  
  25486407.414 3     -3746.929 3   6408884.545 3   4977635.65945  25486402.76245
        36.500          17.250  
 11  3 24 16 48 45.0000000  0 12G03G06G09G14G15G16G18G19G21G22G27G29
  21948089.305 6       686.347 6  -2922381.391 6  -2248514.29847  21948081.13747
        47.500          32.500  
  21904885.734 7       365.829 7  -2025060.425 7  -1549054.64148  21904877.50848
        48.500          35.500  
  23628433.906 5      2450.140 5  -6113928.545 5  -4746980.92246  23628426.09046
        42.000          25.250  
  22929555.672 6      3414.655 6  -8123932.181 6  -6308697.27947  22929546.80147
        43.750          27.000  
  22654315.031 6     -2726.764 6   5815197.997 6   4524733.69048  22654305.75048
        46.000          34.000  
  25631397.656 1     -2458.739 1    256099.179 1                
        32.250  
  20630694.250 7      -310.717 7    470138.127 7    376774.25448  20630684.32448
        49.250          39.750  
  24101847.281 6      2793.927 6  -4036220.207 6  -3136974.77147  24101838.29347
        43.500          30.000  
  20850042.211 7     -1132.906 7   2114738.578 7   1653080.78448  20850031.93448
        51.250          40.000  
  21093135.672 7      1287.162 7  -3394557.884 7  -2620955.85148  21093124.22348
        50.500          40.000  
  23803925.734 5       686.556 5  -2353339.532 5  -1823234.92346  23803919.14846
        41.000          22.000  
  25497100.688 3     -3746.494 3   6465081.953 3   5021425.72145  25497097.38345
        35.750          16.250  
 11  3 24 16 49  0.0000000  0 12G03G06G09G14G15G16G18G19G21G22G27G29
  21946158.563 6       676.374 6  -2932527.006 6  -2256419.97647  21946150.21947
        47.250          32.500  
  21903867.648 6       356.621 6  -2030409.745 6  -1553222.95348  21903859.01248
        47.500          35.750  
  23621457.078 5      2444.231 5  -6150592.010 5  -4775549.84247  23621450.19947
        42.000          27.000  
  22919819.750 6      3410.779 6  -8175093.872 6  -6348563.50747  22919810.76247
        43.000          27.750  
  22662115.594 6     -2732.689 6   5856188.327 6   4556674.17848  22662106.84048
        46.250          34.000  
  25638416.852 1     -2459.708 1    292994.804 1                
        31.500  
  20631592.898 7      -314.916 7    474861.861 7    380455.07748  20631583.09048
        48.250          40.000  
  24093888.633 6      2788.387 6  -4078046.008 6  -3169566.28747  24093878.88347
        43.000          29.000  
  20853294.430 7     -1139.429 7   2131830.007 7   1666398.76248  20853284.27048
        51.500          40.000  
  21089474.344 7      1282.691 7  -3413798.243 7  -2635948.33548  21089462.77748
        50.250          39.500  
  23801987.742 5       678.886 5  -2363522.829 5  -1831169.94946  23801981.21546
        39.500          22.500  
  25507791.500 2     -3745.413 2   6521263.151 2   5065203.17445  25507788.19545
        35.500          16.250  
 11  3 24 16 49 15.0000000  0 12G03G06G09G14G15G16G18G19G21G22G27G29
  21944256.281 7       666.446 7  -2942523.697 7  -2264209.60447  21944248.28947
        48.000          32.750  
  21902875.547 7       347.451 7  -2035621.509 7  -1557284.07848  21902867.49648
        48.500          35.500  
  23614497.063 6      2438.339 6  -6187167.098 6  -4804049.88646  23614490.24246
        42.500          25.000  
  22910094.813 6      3406.935 6  -8226197.894 6  -6388384.80247  22910086.11747
        43.250          26.750  
  22669932.477 6     -2738.557 6   5897266.677 6   4588683.25648  22669923.60548
        46.250          34.000  
  25645439.703 1     -2460.607 1    329903.903 1                
        30.750  
  20632504.094 7      -319.063 7    479647.811 7    384184.37648  20632494.10948
        49.250          39.500  
  24085944.508 6      2782.879 6  -4119789.192 6  -3202093.41247  24085935.22747
        42.500          28.500  
  20856565.289 7     -1145.905 7   2149018.576 7   1679792.43848  20856555.24648
        51.000          40.250  
  21085825.398 7      1278.282 7  -3432972.480 7  -2650889.30048  21085814.24248
        49.500          40.000  
  23800071.617 5       671.255 5  -2373591.661 5  -1839015.79546  23800065.26646
        40.750          22.000  
  25518478.750 2     -3744.266 2   6577427.142 2   5108967.23345  25518475.44545
        35.500          16.750  
 11  3 24 16 49 30.0000000  0 12G03G06G09G14G15G16G18G19G21G22G27G29
  21942382.719 6       656.525 6  -2952371.578 6  -2271883.28347  21942373.90647
        47.000          32.500  
  21901910.313 6       338.316 6  -2040696.251 6  -1561238.43448  21901901.85248
        47.250          36.000  
  23607554.211 6      2432.441 6  -6223653.716 6  -4832481.01746  23607547.39146
        43.000          25.750  
  22900380.898 6      3403.093 6  -8277244.289 6  -6428161.19147  22900372.49647
        43.250          27.250  
  22677765.945 6     -2744.366 6   5938432.170 6   4620760.23948  22677757.19148
        46.500          34.500  
  25652466.172 1     -2461.456 1    366825.743 1                
        32.000  
  20633426.500 7      -323.163 7    484495.260 7    387961.60848  20633416.63348
        48.500          40.000  
  24078016.367 5      2777.369 5  -4161449.724 5  -3234556.13647  24078007.43847
        42.250          27.750  
  20859854.289 7     -1152.358 7   2166303.953 7   1693261.54848  20859844.59848
        50.500          40.750  
  21082188.898 7      1273.898 7  -3452080.957 7  -2665779.02048  21082177.62548
        49.000          39.750  
  23798177.461 5       663.635 5  -2383546.189 5  -1846772.58746  23798170.69946
        40.500          22.500  
  25529163.250 2     -3743.083 2   6633573.386 2   5152717.41645  25529159.77045
        35.000          15.500  
 11  3 24 16 49 45.0000000  0 12G03G06G09G14G15G16G18G19G21G22G27G29
  21940536.898 6       646.641 6  -2962071.192 6  -2279441.42847  21940528.20347
        44.500          32.750  
  21900970.555 6       329.201 6  -2045634.274 6  -1565086.24848  21900962.03548
        47.000          35.750  
  23600627.172 6      2426.552 6  -6260052.000 6  -4860843.28246  23600621.17246
        43.000          25.750  
  22890677.617 6      3399.275 6  -8328233.416 6  -6467892.95247  22890668.98047
        43.250          27.250  
  22685615.594 6     -2750.120 6   5979683.977 6   4652904.47148  22685606.89848
        46.000          33.750  
  25659494.844 1     -2462.251 1    403759.506 1                
        32.000  
  20634360.438 6      -327.224 6    489403.624 6    391786.29348  20634350.57048
        47.250          40.500  
  24070104.680 5      2771.882 5  -4203027.951 5  -3266954.73947  24070095.16447
        42.250          27.250  
  20863162.391 7     -1158.787 7   2183685.760 7   1706805.80148  20863151.93848
        51.500          40.750  
  21078565.141 7      1269.551 7  -3471124.221 7  -2680617.93148  21078554.16048
        49.000          40.000  
  23796304.336 5       656.038 5  -2393386.763 5  -1854440.55946  23796298.51246
        41.000          22.750  
  25539844.313 2     -3741.830 2   6689700.835 2   5196452.97045  25539841.41845
        34.750          14.750  
 11  3 24 16 50  0.0000000  0 12G03G06G09G14G15G16G18G19G21G22G27G29
  21938718.711 6       636.726 6  -2971622.086 6  -2286883.68847  21938710.71947
        44.250          33.000  
  21900056.758 6       320.061 6  -2050435.186 6  -1568827.23148  21900048.64848
        47.250          36.000  
  23593717.695 6      2420.588 6  -6296360.827 6  -4889135.86946  23593712.16446
        42.750          26.250  
  22880985.781 6      3395.381 6  -8379164.137 6  -6507579.20247  22880977.55547
        43.500          27.000  
  22693482.078 6     -2755.895 6   6021022.398 6   4685116.20248  22693473.14848
        46.000          34.000  
  25666523.375 1     -2463.047 1    440705.215 1                
        32.750  
  20635306.344 6      -331.320 6    494373.422 6    395658.85148  20635296.00848
        47.000          40.500  
  24062208.234 6      2766.329 6  -4244522.879 6  -3299288.41747  24062199.18847
        42.500          28.000  
  20866488.305 7     -1165.253 7   2201164.549 7   1720425.61948  20866478.26248
        51.000          40.000  
  21074953.688 7      1265.164 7  -3490101.683 7  -2695405.56748  21074942.76648
        49.000          40.250  
  23794454.461 5       648.387 5  -2403112.567 5  -1862019.12346  23794447.69946
        40.000          22.000  
  25550520.742 2     -3740.598 2   6745809.801 2   5240174.04645  25550518.96145
        34.500          15.500  
 11  3 24 16 50 15.0000000  0 12G03G06G09G14G15G16G18G19G21G22G27G29
  21936929.742 6       626.776 6  -2981023.734 6  -2294209.64647  21936921.69147
        44.000          32.250  
  21899169.672 6       310.877 6  -2055098.348 6  -1572460.86548  21899161.09448
        47.500          36.000  
  23586826.219 6      2414.576 6  -6332579.472 6  -4917358.17646  23586819.16446
        43.000          26.250  
  22871305.195 6      3391.449 6  -8430035.871 6  -6547219.49847  22871297.08647
        43.500          26.750  
  22701365.016 6     -2761.681 6   6062447.609 6   4717395.56347  22701356.20347
        46.000          33.250  
  25673557.305 1     -2463.857 1    477663.074 1                
        33.250  
  20636263.438 6      -335.447 6    499405.132 6    399579.65348  20636253.45348
        47.250          40.750  
  24054327.805 5      2760.731 5  -4285933.849 5  -3331556.70047  24054318.69947
        42.000          27.250  
  20869833.211 7     -1171.749 7   2218740.784 7   1734121.36448  20869823.16848
        51.750          40.750  
  21071355.367 7      1260.753 7  -3509012.973 7  -2710141.64648  21071343.97748
        48.500          39.750  
  23792625.258 4       640.694 4  -2412722.983 4  -1869507.76346  23792618.96546
        38.750          22.750  
  25561194.297 2     -3739.387 2   6801900.599 2   5283880.98745  25561192.80945
        34.000          15.500  
 11  3 24 16 50 30.0000000  0 12G03G06G09G14G15G16G18G19G21G22G27G29
  21935169.375 6       616.693 6  -2990274.125 6  -2301417.75347  21935161.50047
        45.500          32.000  
  21898308.828 7       301.575 7  -2059621.976 7  -1575985.77848  21898300.60248
        47.750          36.500  
  23579951.156 6      2408.408 6  -6368705.592 6  -4945508.38346  23579944.45346
        42.500          26.250  
  22861635.828 6      3387.377 6  -8480846.529 6  -6586812.20147  22861628.24647
        44.250          27.000  
  22709265.078 6     -2767.565 6   6103961.092 6   4749743.70447  22709255.79747
        46.000          33.500  
  25680595.711 2     -2464.759 2    514634.459 2                
        35.500  
  20637233.328 7      -339.690 7    504500.476 7    403550.04348  20637223.40248
        49.250          40.750  
  24046463.688 5      2754.983 5  -4327258.591 5  -3363757.76947  24046454.64147
        41.250          26.750  
  20873197.133 7     -1178.374 7   2236416.392 7   1747894.55048  20873186.97348
        51.750          40.500  
  21067769.328 7      1256.216 7  -3527856.209 7  -2724824.69148  21067758.17248
        48.750          39.500  
  23790818.563 5       632.867 5  -2422215.987 5  -1876904.94046  23790811.91846
        39.500          22.500  
  25571865.727 2     -3738.275 2   6857974.724 2   5327574.93145  25571863.65245
        34.500          17.250  
 11  3 24 16 50 45.0000000  0 12G03G06G09G14G15G16G18G19G21G22G27G29
  21933436.523 6       606.950 6  -2999378.380 6  -2308511.98447  21933429.11747
        45.250          32.000  
  21897473.602 6       292.607 6  -2064011.080 6  -1579405.86648  21897465.37548
        45.500          36.000  
  23573093.266 6      2402.554 6  -6404743.899 6  -4973590.14846  23573086.44546
        43.000          25.500  
  22851977.586 6      3383.624 6  -8531600.894 6  -6626361.02847  22851970.41447
        44.250          27.750  
  22717180.484 6     -2773.077 6   6145557.251 6   4782156.26047  22717171.61347
        44.500          33.500  
  25687634.938 4     -2465.300 4    551613.962 4                
        38.500  
  20638214.234 7      -343.581 7    509654.197 7    407565.92048  20638204.48448
        48.750          40.500  
  24038615.078 5      2749.564 5  -4368502.055 5  -3395895.50446  24038606.26646
        40.000          26.000  
  20876578.430 7     -1184.654 7   2254186.197 7   1761741.13148  20876568.50448
        52.000          40.500  
  21064196.070 6      1252.022 6  -3546636.535 6  -2739458.71248  21064184.62148
        47.250          39.500  
  23789033.922 4       625.374 4  -2431596.604 4  -1884214.49146  23789026.80946
        39.000          24.000  
  25582532.977 1     -3736.799 1   6914026.702 1   5371251.67345  25582531.07845
        33.000          15.500  
 11  3 24 16 51  0.0000000  0 12G03G06G09G14G15G16G18G19G21G22G27G29
  21931733.063 6       597.020 6  -3008333.683 6  -2315490.14347  21931725.18847
        45.750          32.500  
  21896664.641 6       283.450 6  -2068262.835 6  -1582718.93248  21896656.35548
        46.500          36.000  
  23566253.789 5      2396.486 5  -6440691.191 5  -5001601.00446  23566245.56346
        42.250          24.250  
  22842331.492 6      3379.655 6  -8582295.713 6  -6665863.45847  22842323.03147
        44.000          27.000  
  22725111.344 6     -2778.773 6   6187238.841 6   4814635.39647  22725103.23447
        45.000          33.250  
  25694675.602 5     -2466.011 5    588604.127 5                
        39.500  
  20639206.453 7      -347.658 7    514869.068 7    411629.44648  20639196.29348
        49.250          40.750  
  24030783.063 5      2743.926 5  -4409660.942 5  -3427967.33546  24030774.07446
        40.750          26.250  
  20879978.453 7     -1191.129 7   2272053.128 7   1775663.40148  20879968.82048
        52.000          40.750  
  21060634.375 7      1247.640 7  -3565351.127 7  -2754041.52348  21060622.86748
        47.750          39.750  
  23787270.961 4       617.678 4  -2440861.777 4  -1891434.09546  23787263.61346
        39.000          21.750  
  25593194.297 1     -3735.503 1   6970059.240 1   5414913.17545  25593193.68845
        32.250          14.750  
 11  3 24 16 51 15.0000000  0 12G03G06G09G14G15G16G18G19G21G22G27G29
  21930056.875 6       587.102 6  -3017140.206 6  -2322352.37247  21930049.05947
        46.500          33.000  
  21895881.461 7       274.301 7  -2072377.344 7  -1585925.04448  21895873.05948
        47.750          36.500  
  23559429.492 6      2390.407 6  -6476547.290 6  -5029540.78146  23559422.55546
        43.750          25.500  
  22832695.242 6      3375.680 6  -8632930.915 6  -6705319.43047  22832687.25047
        44.500          27.500  
  22733059.797 6     -2784.425 6   6229005.212 6   4847180.59247  22733051.57047
        46.000          32.250  
  25701717.297 5     -2466.684 5    625604.393 5                
        40.750  
  20640210.758 7      -351.725 7    520144.942 7    415740.50548  20640200.36348
        48.500          40.500  
  24022966.461 5      2738.284 5  -4450735.197 5  -3459973.22847  24022957.94147
        40.500          26.500  
  20883396.719 7     -1197.602 7   2290017.156 7   1789661.32948  20883386.61748
        50.500          40.250  
  21057085.586 7      1243.271 7  -3584000.194 7  -2768573.25948  21057074.19548
        49.500          39.500  
  23785529.609 4       609.983 4  -2450011.522 4  -1898563.77146  23785522.32046
        39.000          21.500  
  25603851.66411     -3734.20711   5450651.70711   4230959.20955  25603852.64155
        29.500          14.750  
 11  3 24 16 51 30.0000000  0 12G03G06G09G14G15G16G18G19G21G22G27G29
  21928409.438 6       577.228 6  -3025798.624 6  -2329099.20147  21928401.97347
        47.000          33.250  
  21895124.453 7       265.214 7  -2076355.550 7  -1589024.95648  21895116.22748
        48.500          36.250  
  23552623.563 6      2384.360 6  -6512312.694 6  -5057409.90946  23552616.68446
        43.000          24.500  
  22823071.438 6      3371.750 6  -8683507.165 6  -6744729.48647  22823063.68047
        45.250          28.500  
  22741023.711 6     -2789.994 6   6270855.122 6   4879790.87947  22741014.95747
        44.500          33.000  
  25708758.109 3     -2467.271 3    662613.455 3                
        37.250  
  20641225.781 7      -355.720 7    525480.745 7    419898.26548  20641215.79748
        49.250          40.500  
  24015166.219 5      2732.676 5  -4491725.336 5  -3491913.57647  24015157.58247
        40.750          26.750  
  20886833.250 7     -1204.018 7   2308077.433 7   1803734.25448  20886823.73448
        51.500          40.500  
  21053549.594 7      1238.964 7  -3602584.659 7  -2783054.65848  21053538.02748
        49.000          39.500  
  23783810.430 4       602.333 4  -2459046.517 4  -1905604.00546  23783802.49646
        39.000          20.750  
  25614507.88311     -3731.92211                   4274588.52655  25614508.32855
        28.500          14.750  
 11  3 24 16 51 45.0000000  0 12G03G06G09G14G15G16G18G19G21G22G27G29
  21926790.977 6       567.066 6  -3034304.619 6  -2335727.25547  21926782.86747
        47.500          33.000  
  21894393.672 6       255.841 6  -2080193.164 6  -1592015.31648  21894385.79748
        46.750          35.750  
  23545835.664 6      2377.995 6  -6547982.623 6  -5085204.65246  23545828.25846
        43.000          26.000  
  22813458.922 6      3367.514 6  -8734019.882 6  -6784090.02147  22813450.81347
        45.500          28.250  
  22749004.133 6     -2795.833 6   6312792.611 6   4912469.41047  22748995.49647
        43.500          33.500  
  25715799.617 3     -2468.119 3    699635.242 3                
        36.750  
  20642253.469 7      -360.002 7    530880.780 7    424106.07748  20642243.54348
        49.750          40.500  
  24007383.227 5      2726.762 5  -4532626.769 5  -3523784.80546  24007374.59046
        40.500          25.500  
  20890289.570 7     -1210.715 7   2326238.165 7   1817885.45448  20890279.64548
        51.500          40.500  
  21050025.922 7      1234.374 7  -3621100.267 7  -2797482.39548  21050014.47348
        48.000          39.500  
  23782113.555 5       594.388 5  -2467962.334 5  -1912551.40246  23782106.50046
        39.750          21.500  
  25625160.10911     -3730.60911   5562617.63611   4318201.71655  25625159.50055
        30.500          13.750  
 11  3 24 16 52  0.0000000  0 12G03G06G09G14G15G16G18G19G21G22G27G29
  21925200.586 6       557.171 6  -3042662.179 6  -2342239.65247  21925192.77047
        47.500          32.750  
  21893689.680 6       246.733 6  -2083894.160 6  -1594899.20548  21893681.39548
        47.500          36.500  
  23539065.758 6      2371.869 6  -6583560.660 6  -5112927.76846  23539059.05546
        43.000          25.000  
  22803858.336 6      3363.529 6  -8784472.824 6  -6823403.97747  22803849.81647
        45.000          29.250  
  22757000.852 6     -2801.382 6   6354813.335 6   4945212.80547  22756992.21547
        45.000          33.500  
  25722844.063 2     -2468.680 2    736665.436 2                
        35.000  
  20643292.445 7      -364.003 7    536340.832 7    428360.65948  20643282.40248
        49.500          41.000  
  23999616.039 5      2721.105 5  -4573443.347 5  -3555589.92146  23999607.57846
        39.500          25.250  
  20893763.813 7     -1217.149 7   2344495.394 7   1832111.85548  20893754.18048
        52.000          40.750  
  21046514.938 7      1230.053 7  -3639551.070 7  -2811859.64348  21046503.13748
        49.000          39.750  
  23780438.547 5       586.704 5  -2476762.889 5  -1919408.97046  23780431.25846
        39.750          22.500  
  25635807.648 1     -3730.223 1   5618570.977 1   4361794.24644  25635806.62944
        28.250          12.500  
 11  3 24 16 52 15.0000000  0 12G03G06G09G14G15G16G18G19G21G22G27G29
  21923638.164 7       547.407 7  -3050873.287 7  -2348637.92147  21923630.11347
        48.000          33.000  
  21893011.305 7       237.761 7  -2087460.583 7  -1597678.24948  21893002.90248
        48.000          36.500  
  23532312.461 6      2365.844 6  -6619048.327 6  -5140580.47246  23532305.75846
        42.750          25.750  
  22794268.531 6      3359.661 6  -8834867.736 6  -6862672.71547  22794260.30547
        45.000          28.750  
  22765012.445 6     -2806.783 6   6396915.083 6   4978019.32448  22765003.98448
        45.250          34.000  
  25729891.875 3     -2469.072 3    773701.517 3                
        36.500  
  20644342.234 7      -367.864 7    541858.786 7    432660.35848  20644332.54348
        49.250          40.500  
  23991864.328 4      2715.559 4  -4614176.725 4  -3587330.18947  23991855.86747
        38.500          27.250  
  20897255.867 7     -1223.449 7   2362847.127 7   1846411.88748  20897245.88348
        51.500          40.750  
  21043015.398 7      1225.876 7  -3657939.204 7  -2826188.05648  21043004.06648
        50.000          39.500  
  23778784.734 5       579.143 5  -2485450.031 5  -1926178.17946  23778778.73446
        40.500          22.000  
  25646450.39811     -3729.83611   5674500.61111   4405363.17554  25646449.78954
        27.500          12.500  
 11  3 24 16 52 30.0000000  0 12G03G06G09G14G15G16G18G19G21G22G27G29
  21922104.195 7       537.315 7  -3058933.015 7  -2354918.24747  21922095.79347
        47.750          33.000  
  21892358.563 6       228.455 6  -2090887.414 6  -1600348.51448  21892350.98048
        47.000          36.000  
  23525577.984 6      2359.456 6  -6654440.172 6  -5168158.50746  23525571.80946
        42.500          25.750  
  22784690.938 6      3355.424 6  -8885199.095 6  -6901891.93747  22784682.53547
        45.000          29.750  
  22773040.391 6     -2812.485 6   6439102.351 6   5010892.48848  22773032.16448
        44.750          34.500  
  25736943.055 3     -2469.780 3    810748.216 3                
        37.250  
  20645404.523 7      -372.054 7    547439.601 7    437009.03148  20645394.53948
        49.250          40.750  
  23984130.180 5      2709.662 5  -4654821.648 5  -3619001.53446  23984121.54346
        39.750          24.000  
  20900767.367 7     -1230.087 7   2381298.439 7   1860789.51748  20900757.09048
        51.500          40.250  
  21039529.148 7      1221.358 7  -3676259.576 7  -2840463.67048  21039517.93448
        49.000          40.000  
  23777154.078 5       571.233 5  -2494018.526 5  -1932854.91146  23777147.84446
        40.000          22.500  
  25657090.26611     -3726.25011                                
        28.500  
 11  3 24 16 52 45.0000000  0 11G03G06G09G14G15G16G18G19G21G22G27   
  21920599.070 7       527.333 7  -3066843.008 7  -2361081.89347  21920590.43447
        47.750          33.000  
  21891733.211 7       219.269 7  -2094176.456 7  -1602911.41448  21891725.16048
        48.000          36.500  
  23518860.188 6      2353.171 6  -6689737.743 6  -5195663.09146  23518854.83246
        42.500          24.500  
  22775124.281 6      3351.298 6  -8935468.562 6  -6941062.93447  22775116.52347
        45.000          29.250  
  22781084.047 6     -2818.034 6   6481372.866 6   5043830.52148  22781076.05548
        44.500          34.750  
  25743994.133 3     -2470.336 3    847803.260 3                
        37.000  
  20646478.266 7      -376.109 7    553081.241 7    441405.11148  20646468.04748
        49.750          40.750  
  23976412.211 5      2703.864 5  -4695379.614 5  -3650605.14046  23976403.69146
        39.750          25.750  
  20904297.117 7     -1236.608 7   2399847.563 7   1875243.35648  20904287.13348
        51.250          40.500  
  21036055.422 7      1216.961 7  -3694513.997 7  -2854687.89348  21036044.20748
        50.000          39.750  
  23775546.250 5       563.430 5  -2502469.982 5  -1939440.46146  23775539.78146
        40.500          22.250  
 11  3 24 16 53  0.0000000  0 11G03G06G09G14G15G16G18G19G21G22G27   
  21919121.734 6       517.385 6  -3074603.786 6  -2367129.25747  21919113.97747
        47.500          32.500  
  21891133.789 7       210.110 7  -2097328.111 7  -1605367.25548  21891125.68048
        47.750          37.000  
  23512161.422 5      2346.890 5  -6724941.095 5  -5223094.24846  23512156.06646
        42.250          25.250  
  22765570.383 6      3347.190 6  -8985676.408 6  -6980185.91047  22765562.09847
        45.750          29.500  
  22789143.328 6     -2823.532 6   6523725.850 6   5076832.80548  22789135.68848
        44.750          33.750  
  25751046.281 3     -2470.843 3    884865.898 3                
        36.250  
  20647563.227 7      -380.142 7    558783.373 7    445848.32548  20647553.24248
        49.500          40.500  
  23968710.500 5      2698.081 5  -4735850.822 5  -3682141.12046  23968702.44946
        39.500          25.750  
  20907844.758 7     -1243.096 7   2418494.009 7   1889773.04048  20907835.12548
        51.000          40.000  
  21032594.391 7      1212.599 7  -3712702.985 7  -2868861.13848  21032583.05948
        49.000          39.500  
  23773959.961 5       555.656 5  -2510804.829 5  -1945935.13246  23773953.78546
        39.750          22.000  
 11  3 24 16 53 15.0000000  0 11G03G06G09G14G15G16G18G19G21G22G27   
  21917674.008 6       507.403 6  -3082214.826 6  -2373059.94747  21917665.95747
        47.500          33.250  
  21890559.719 7       200.925 7  -2100341.988 7  -1607715.74648  21890551.72748
        48.000          36.500  
  23505479.563 5      2340.554 5  -6760049.404 5  -5250451.35746  23505475.84846
        41.750          24.500  
  22756028.070 6      3343.028 6  -9035821.832 6  -7019260.25247  22756020.02047
        45.000          30.250  
  22797218.758 6     -2829.048 6   6566161.566 6   5109899.56447  22797210.53147
        45.000          33.500  
  25758100.711 3     -2471.357 3    921936.248 3                
        36.750  
  20648659.563 7      -384.191 7    564546.238 7    450338.85548  20648649.87148
        50.000          40.000  
  23961025.297 4      2692.242 4  -4776234.452 4  -3713608.87946  23961017.30546
        39.000          25.750  
  20911412.016 7     -1249.616 7   2437238.252 7   1904378.92248  20911401.91448
        51.500          40.000  
  21029145.672 7      1208.218 7  -3730826.250 7  -2882983.16048  21029133.93048
        49.250          39.750  
  23772396.500 5       547.840 5  -2519022.436 5  -1952338.44746  23772390.09046
        40.500          21.750  
 11  3 24 16 53 30.0000000  0 11G03G06G09G14G15G16G18G19G21G22G27   
  21916254.203 6       497.437 6  -3089676.387 6  -2378874.16547  21916246.03547
        47.500          32.750  
  21890012.563 7       191.760 7  -2103218.387 7  -1609957.10348  21890004.51248
        48.250          36.750  
  23498817.570 5      2334.212 5  -6795062.577 5  -5277734.33746  23498813.32846
        41.500          25.000  
  22746497.609 6      3338.871 6  -9085904.895 6  -7058285.99447  22746488.85547
        45.000          30.000  
  22805309.594 6     -2834.519 6   6608679.352 6   5143030.27947  22805301.25047
        45.750          33.500  
  25765155.883 4     -2471.815 4    959013.473 4                
        37.750  
  20649767.977 7      -388.213 7    570369.429 7    454876.40948  20649757.87548
        49.750          41.000  
  23953357.180 5      2686.408 5  -4816530.579 5  -3745008.43646  23953349.36346
        40.000          24.000  
  20914997.625 7     -1256.125 7   2456080.122 7   1919060.88148  20914987.52348
        51.750          40.250  
  21025709.609 7      1203.855 7  -3748884.073 7  -2897054.19348  21025697.86748
        49.750          40.500  
  23770855.422 5       540.032 5  -2527122.915 5  -1958650.52146  23770848.83646
        41.500          22.250  
 11  3 24 16 53 45.0000000  0 11G03G06G09G14G15G16G18G19G21G22G27   
  21914863.031 7       487.486 7  -3096988.671 7  -2384572.05247  21914854.92247
        48.750          33.000  
  21889491.242 7       182.602 7  -2105957.412 7  -1612091.41248  21889483.36748
        48.000          36.750  
  23492172.609 5      2327.851 5  -6829980.348 5  -5304942.96846  23492168.19146
        42.000          24.250  
  22736979.008 6      3334.699 6  -9135925.381 6  -7097262.97747  22736970.43047
        46.000          29.750  
  22813415.969 6     -2839.953 6   6651278.651 6   5176224.50647  22813408.03547
        44.500          33.250  
  25772212.297 2     -2472.246 2    996097.164 2                
        35.500  
  20650887.383 7      -392.218 7    576252.699 7    459460.76448  20650877.39848
        49.000          40.000  
  23945705.289 4      2680.556 4  -4856738.913 4  -3776339.57746  23945697.00446
        39.000          25.000  
  20918601.836 7     -1262.613 7   2475019.313 7   1933818.67248  20918591.73448
        51.500          40.000  
  21022285.594 7      1199.504 7  -3766876.629 7  -2911074.36348  21022273.67648
        49.250          40.500  
  23769335.891 5       532.227 5  -2535106.320 5  -1964871.32946  23769328.54346
        41.500          21.750  
 11  3 24 16 54  0.0000000  0 11G03G06G09G14G15G16G18G19G21G22G27   
  21913499.727 7       477.518 7  -3104151.433 7  -2390153.44347  21913491.85247
        48.500          33.000  
  21888996.477 7       173.428 7  -2108558.830 7  -1614118.51248  21888988.01648
        48.000          36.750  
  23485546.797 5      2321.447 5  -6864802.059 5  -5332076.76946  23485541.55946
        42.000          24.750  
  22727472.750 6      3330.485 6  -9185882.658 6  -7136190.70847  22727464.46547
        46.250          30.000  
  22821538.367 6     -2845.386 6   6693959.443 6   5209482.22747  22821529.67247
        45.500          33.250  
  25779269.555 1     -2472.679 1   1033187.356 1                
        33.500  
  20652018.516 7      -396.231 7    582196.166 7    464092.02948  20652008.76648
        49.500          40.250  
  23938070.328 4      2674.671 4  -4896858.984 4  -3807601.95446  23938062.68846
        38.250          23.500  
  20922224.234 7     -1269.123 7   2494056.153 7   1948652.55648  20922214.07448
        52.000          39.750  
  21018873.883 7      1195.138 7  -3784803.696 7  -2925043.50748  21018862.55148
        49.750          40.500  
  23767839.680 5       524.393 5  -2542972.215 5  -1971000.57646  23767832.39146
        41.500          22.500  
 11  3 24 16 54 15.0000000  0 11G03G06G09G14G15G16G18G19G21G22G27   
  21912165.430 7       467.532 7  -3111164.409 7  -2395618.10348  21912157.20348
        48.500          34.250  
  21888527.656 6       164.244 6  -2111022.495 6  -1616038.25948  21888519.66448
        46.500          37.000  
  23478939.016 6      2314.997 6  -6899527.021 6  -5359135.15046  23478933.77746
        42.500          25.000  
  22717977.766 6      3326.253 6  -9235776.452 6  -7175068.97247  22717969.30547
        46.000          29.750  
  22829675.430 6     -2850.805 6   6736721.510 6   5242803.28647  22829667.14547
        44.500          33.500  
  25786328.195 2     -2473.096 2   1070283.788 2                
        34.000  
  20653160.648 7      -400.260 7    588200.065 7    468770.38848  20653150.60548
        49.500          39.750  
  23930452.844 4      2668.758 4  -4936890.361 4  -3838795.20546  23930444.67646
        38.250          24.500  
  20925865.859 7     -1275.655 7   2513190.976 7   1963562.78548  20925855.46548
        51.500          39.750  
  21015474.789 7      1190.761 7  -3802665.108 7  -2938961.48148  21015463.51648
        49.500          40.000  
  23766364.859 5       516.537 5  -2550720.265 5  -1977038.01046  23766358.15646
        42.250          22.500  
 11  3 24 16 54 30.0000000  0 11G03G06G09G14G15G16G18G19G21G22G27   
  21910858.984 7       457.586 7  -3118028.199 7  -2400966.52347  21910850.99247
        48.250          33.000  
  21888084.734 6       155.108 6  -2113349.108 6  -1617851.21548  21888076.56648
        46.500          36.250  
  23472349.367 5      2308.569 5  -6934155.559 5  -5386118.40846  23472343.30946
        42.250          24.500  
  22708495.758 6      3322.045 6  -9285607.122 6  -7213898.05147  22708487.12147
        45.750          29.750  
  22837828.156 6     -2856.161 6   6779563.927 6   5276186.95248  22837819.98848
        45.500          33.750  
  25793389.500 3     -2473.440 3   1107385.383 3                
        36.000  
  20654314.789 7      -404.233 7    594263.567 7    473495.18748  20654304.45348
        49.750          39.500  
  23922852.359 4      2662.871 4  -4976833.432 4  -3869919.65046  23922843.95746
        38.000          25.000  
  20929525.320 7     -1282.136 7   2532423.020 7   1978548.77848  20929515.10248
        51.750          40.250  
  21012088.844 7      1186.429 7  -3820461.538 7  -2952828.83248  21012077.27748
        49.000          40.750  
  23764913.141 6       508.720 6  -2558351.059 6  -1982984.05446  23764905.50046
        42.500          22.500  
 11  3 24 16 54 45.0000000  0 11G03G06G09G14G15G16G18G19G21G22G27   
  21909581.094 6       447.608 6  -3124742.323 6  -2406198.31647  21909573.51247
        47.250          32.250  
  21887668.273 7       145.928 7  -2115538.024 7  -1619556.87248  21887660.22348
        48.750          36.500  
  23465777.898 6      2302.072 6  -6968686.638 6  -5413025.71946  23465772.25046
        42.500          24.750  
  22699025.391 6      3317.772 6  -9335373.708 6  -7252677.19447  22699016.81347
        46.000          30.250  
  22845996.297 6     -2861.535 6   6822486.948 6   5309633.42547  22845987.77747
        45.250          33.000  
  25800450.711 3     -2473.797 3   1144492.340 3                
        36.250  
  20655479.805 7      -408.244 7    600387.232 7    478266.86748  20655469.58648
        49.750          39.500  
  23915268.211 5      2656.922 5  -5016687.257 5  -3900974.58446  23915259.51646
        39.750          24.000  
  20933203.297 7     -1288.661 7   2551752.938 7   1993611.03048  20933193.72348
        51.750          40.000  
  21008714.922 7      1182.063 7  -3838192.481 7  -2966645.14248  21008703.41448
        50.000          40.750  
  23763483.555 5       500.849 5  -2565863.799 5  -1988838.12046  23763476.14846
        40.500          22.500  
 11  3 24 16 55  0.0000000  0 11G03G06G09G14G15G16G18G19G21G22G27   
  21908331.727 6       437.649 6  -3131307.064 6  -2411313.69747  21908323.79347
        47.500          33.250  
  21887277.781 6       136.766 6  -2117589.509 6  -1621155.44748  21887269.90648
        47.000          36.500  
  23459225.523 5      2295.566 5  -7003120.135 5  -5439856.98246  23459219.46546
        40.500          23.000  
  22689567.016 6      3313.498 6  -9385076.173 6  -7291406.36647  22689558.78947
        45.250          28.500  
  22854179.625 6     -2866.880 6   6865490.153 6   5343142.38747  22854171.04747
        45.000          33.000  
  25807512.406 3     -2474.120 3   1181604.145 3                
        36.000  
  20656656.602 7      -412.234 7    606570.745 7    483085.17748  20656646.32448
        49.750          40.000  
  23907702.109 4      2650.969 4  -5056451.790 4  -3931959.89646  23907692.35946
        38.750          25.250  
  20936900.359 7     -1295.175 7   2571180.558 7   2008749.43248  20936890.49248
        51.750          40.500  
  21005353.172 7      1177.716 7  -3855858.228 7  -2980410.66248  21005341.78148
        49.500          41.250  
  23762076.797 5       492.984 5  -2573258.559 5  -1994600.27546  23762068.92246
        40.250          22.500  
 11  3 24 16 55 15.0000000  0 11G03G06G09G14G15G16G18G19G21G22G27   
  21907111.031 7       427.667 7  -3137722.071 7  -2416312.41347  21907102.62947
        48.000          32.250  
  21886913.883 7       127.595 7  -2119503.442 7  -1622646.83148  21886905.53948
        47.750          36.500  
  23452691.563 5      2289.034 5  -7037455.640 5  -5466611.91446  23452684.91846
        42.250          22.500  
  22680121.391 6      3309.209 6  -9434714.307 6  -7330085.41647  22680113.04747
        46.000          29.500  
  22862378.086 6     -2872.188 6   6908572.978 6   5376713.38747  22862369.68447
        44.000          33.250  
  25814575.586 2     -2474.410 2   1218720.297 2                
        34.500  
  20657844.664 7      -416.214 7    612813.956 7    487950.01748  20657834.73848
        50.250          40.000  
  23900152.625 5      2644.987 5  -5096126.600 5  -3962875.31446  23900142.69946
        40.500          25.500  
  20940615.898 7     -1301.688 7   2590705.881 7   2023963.95048  20940605.91448
        51.750          40.000  
  21002003.680 7      1173.362 7  -3873458.663 7  -2994125.27748  21001992.34848
        49.250          41.000  
  23760691.914 6       485.104 6  -2580535.113 6  -2000270.28746  23760683.80546
        42.500          21.500  
 11  3 24 16 55 30.0000000  0 11G03G06G09G14G15G16G18G19G21G22G27   
  21905918.828 7       417.690 7  -3143987.422 7  -2421194.51347  21905910.60247
        47.750          32.750  
  21886575.453 7       118.428 7  -2121279.865 7  -1624031.06548  21886567.63748
        48.000          36.000  
  23446176.758 6      2282.467 6  -7071692.641 6  -5493290.05646  23446170.05546
        42.500          25.000  
  22670687.406 6      3304.896 6  -9484287.751 6  -7368714.05747  22670679.41447
        46.000          29.500  
  22870591.367 6     -2877.482 6   6951735.206 6   5410346.24847  22870582.96547
        45.500          33.000  
  25821638.125 2     -2474.663 2   1255840.239 2                
        34.500  
  20659044.117 7      -420.197 7    619116.907 7    492861.40248  20659034.19148
        50.500          40.250  
  23892620.344 5      2638.990 5  -5135711.449 5  -3993720.63446  23892609.77346
        41.250          26.250  
  20944349.875 7     -1308.206 7   2610328.978 7   2039254.65348  20944340.12548
        51.750          40.000  
  20998666.734 7      1169.012 7  -3890993.840 7  -3007789.05448  20998655.52048
        49.500          40.750  
  23759329.164 6       477.216 6  -2587693.350 6  -2005848.13646  23759321.52346
        42.500          22.000  
 11  3 24 16 55 45.0000000  0 11G03G06G09G14G15G16G18G19G21G22G27   
  21904755.492 7       407.679 7  -3150102.606 7  -2425959.60047  21904746.91447
        48.750          33.000  
  21886263.977 6       109.233 6  -2122918.356 6  -1625307.82948  21886255.86748
        46.500          36.500  
  23439680.773 6      2275.857 6  -7105830.501 6  -5519890.96846  23439674.48046
        42.500          25.750  
  22661266.695 6      3300.534 6  -9533795.763 6  -7407291.71147  22661258.35247
        45.750          30.500  
  22878819.844 6     -2882.784 6   6994976.965 6   5444041.09547  22878811.26647
        44.000          33.000  
  25828704.742 2     -2474.957 2   1292964.590 2                
        34.000  
  20660255.203 7      -424.200 7    625479.911 7    497819.57348  20660245.04348
        50.000          40.000  
  23885104.711 5      2632.946 5  -5175205.646 5  -4024495.30346  23885095.13746
        40.750          26.000  
  20948102.813 7     -1314.753 7   2630050.273 7   2054621.88148  20948093.59048
        52.000          40.000  
  20995342.313 7      1164.635 7  -3908463.369 7  -3021401.68048  20995330.80548
        48.500          40.500  
  23757990.211 6       469.294 6  -2594732.767 6  -2011333.37946  23757981.69146
        42.500          22.000  
 11  3 24 16 56  0.0000000  0 11G03G06G09G14G15G16G18G19G21G22G27   
  21903620.219 7       397.742 7  -3156068.728 7  -2430608.53847  21903611.99247
        48.000          33.000  
  21885978.102 6       100.106 6  -2124419.942 6  -1626477.91348  21885970.10948
        46.000          36.250  
  23433203.578 5      2269.284 5  -7139869.766 5  -5546415.04947  23433197.57847
        41.250          26.500  
  22651858.273 6      3296.224 6  -9583239.124 6  -7445818.99047  22651849.40247
        44.750          28.500  
  22887062.898 6     -2887.988 6   7038296.788 6   5477796.75147  22887055.02347
        44.000          32.250  
  25835771.133 3     -2475.147 3   1330091.796 3                
        35.750  
  20661476.828 7      -428.133 7    631901.906 7    502823.71448  20661466.78548
        49.750          39.750  
  23877606.789 5      2626.951 5  -5214609.915 5  -4055199.92046  23877596.68846
        40.000          25.750  
  20951874.320 7     -1321.239 7   2649868.855 7   2070064.91948  20951864.57048
        51.250          40.000  
  20992030.570 7      1160.329 7  -3925868.301 7  -3034963.96748  20992019.18048
        49.250          40.750  
  23756672.922 5       461.430 5  -2601654.218 5  -2016726.73046  23756664.57846
        40.500          21.500  
 11  3 24 16 56 15.0000000  0 11G03G06G09G14G15G16G18G19G21G22G27   
  21902513.156 6       387.757 6  -3161885.085 6  -2435140.77247  21902505.39847
        47.500          32.500  
  21885718.211 7        90.928 7  -2125783.856 7  -1627540.70648  21885710.33648
        48.000          36.500  
  23426745.102 6      2262.624 6  -7173809.120 6  -5572861.28446  23426739.51246
        42.750          25.750  
  22642461.828 6      3291.834 6  -9632616.641 6  -7484294.95947  22642452.89847
        45.750          29.750  
  22895321.773 6     -2893.235 6   7081695.315 6   5511613.75347  22895313.89847
        43.750          32.750  
  25842837.789 3     -2475.376 3   1367222.439 3                
        37.000  
  20662710.211 7      -432.122 7    638383.738 7    507874.48648  20662700.10948
        49.750          39.750  
  23870125.008 5      2620.878 5  -5253923.090 5  -4085833.53747  23870115.66847
        40.750          28.000  
  20955664.273 7     -1327.781 7   2669785.575 7   2085584.42248  20955654.75848
        52.000          40.000  
  20988731.070 7      1155.964 7  -3943207.769 7  -3048475.22848  20988719.50448
        49.500          40.500  
  23755378.102 5       453.497 5  -2608456.679 5  -2022027.31946  23755369.52346
        39.750          21.250  
 11  3 24 16 56 30.0000000  0 11G03G06G09G14G15G16G18G19G21G22G27   
  21901434.984 7       377.742 7  -3167551.222 7  -2439555.94747  21901427.81347
        47.750          32.250  
  21885485.461 7        81.732 7  -2127009.831 7  -1628496.01948  21885476.88348
        48.750          36.000  
  23420305.742 5      2255.918 5  -7207647.890 5  -5599229.14046  23420300.27046
        41.000          25.750  
  22633078.648 6      3287.403 6  -9681927.679 6  -7522719.12747  22633069.48447
        44.750          30.500  
  22903595.672 6     -2898.472 6   7125172.394 6   5545491.95347  22903587.44547
        44.000          33.250  
  25849903.844 1     -2475.584 1   1404356.207 1                
        29.500  
  20663955.125 7      -436.105 7    644925.314 7    512971.81248  20663945.19948
        49.750          39.500  
  23862660.891 5      2614.776 5  -5293144.727 5  -4116395.82547  23862651.96147
        41.250          26.500  
  20959473.023 7     -1334.336 7   2689800.622 7   2101180.53948  20959463.56648
        51.500          40.250  
  20985443.797 7      1151.586 7  -3960481.562 7  -3061935.32148  20985432.52348
        49.250          40.750  
  23754106.141 5       445.544 5  -2615139.842 5  -2027234.97446  23754097.09446
        41.000          20.250  
 11  3 24 16 56 45.0000000  0 10G03G06G09G14G15G18G19G21G22G27      
  21900386.016 6       367.432 6  -3173062.708 6  -2443850.61447  21900378.49247
        47.000          32.250  
  21885279.211 7        72.240 7  -2128093.425 7  -1629340.39448  21885271.16048
        48.250          36.750  
  23413887.172 6      2248.892 6  -7241381.267 6  -5625514.88347  23413881.23047
        43.250          27.000  
  22623708.094 6      3282.662 6  -9731167.609 6  -7561087.87747  22623699.28147
        45.500          29.500  
  22911884.523 6     -2903.986 6   7168732.179 6   5579434.60348  22911876.12148
        44.250          33.750  
  20665212.391 7      -440.387 7    651531.126 7    518119.18948  20665202.40648
        50.000          39.250  
  23855215.773 5      2608.357 5  -5332270.089 5  -4146883.08947  23855206.25847
        41.250          26.750  
  20963301.313 7     -1341.191 7   2709918.490 7   2116856.78948  20963291.97348
        51.750          40.000  
  20982169.648 7      1146.926 7  -3977685.451 7  -3075340.94948  20982158.37548
        49.250          40.500  
  23752858.852 5       437.283 5  -2621699.080 5  -2032346.03146  23752849.51246
        41.000          19.250  
 11  3 24 16 57  0.0000000  0 10G03G06G09G14G15G18G19G21G22G27      
  21899364.867 6       357.775 6  -3178429.327 6  -2448032.40547  21899357.28547
        47.000          33.000  
  21885098.578 7        63.397 7  -2129044.378 7  -1630081.40948  21885090.05948
        48.500          36.250  
  23407486.273 6      2242.490 6  -7275018.621 6  -5651725.79647  23407479.68847
        43.000          27.000  
  22614349.867 6      3278.563 6  -9780346.047 6  -7599408.71547  22614340.64547
        46.000          29.500  
  22920187.734 6     -2908.832 6   7212364.663 6   5613433.90347  22920179.56647
        45.000          33.000  
  20666480.195 7      -444.013 7    658191.317 7    523308.93948  20666469.97748
        50.250          39.750  
  23847787.070 5      2602.573 5  -5371308.690 5  -4177302.75047  23847777.84847
        41.000          27.000  
  20967147.688 7     -1347.396 7   2730129.424 7   2132605.55248  20967138.23048
        51.500          40.500  
  20978907.492 7      1142.908 7  -3994829.066 7  -3088699.60748  20978896.21948
        49.500          40.750  
  23751632.578 5       429.657 5  -2628143.937 5  -2037368.00846  23751622.59446
        40.750          20.000  
 11  3 24 16 57 15.0000000  0 10G03G06G09G14G15G18G19G21G22G27      
  21898372.211 6       347.791 6  -3183646.186 6  -2452097.49647  21898363.75047
        47.000          32.500  
  21884943.555 7        54.239 7  -2129857.970 7  -1630715.38848  21884935.32848
        48.500          36.500  
  23401103.945 6      2235.743 6  -7308554.765 6  -5677857.84547  23401098.29747
        43.500          28.000  
  22605003.789 6      3274.125 6  -9829457.916 6  -7637677.68547  22604995.09447
        45.500          29.750  
  22928505.727 6     -2913.975 6   7256074.290 6   5647493.31747  22928497.67647
        43.500          33.500  
  20667758.461 7      -447.948 7    664910.538 7    528544.68648  20667748.41848
        50.000          39.750  
  23840376.109 5      2596.437 5  -5410255.249 5  -4207650.68447  23840366.24247
        41.250          27.750  
  20971012.664 7     -1353.926 7   2750438.311 7   2148430.64348  20971002.91448
        51.500          40.500  
  20975657.477 7      1138.574 7  -4011907.675 7  -3102007.62448  20975646.37948
        48.500          40.500  
  23750429.477 6       421.706 6  -2634469.521 6  -2042297.04446  23750418.26246
        43.000          20.000  
 11  3 24 16 57 30.0000000  0 10G03G06G09G14G15G18G19G21G22G27      
  21897408.203 6       337.810 6  -3188713.338 6  -2456045.92747  21897399.50847
        47.250          32.750  
  21884814.703 7        45.076 7  -2130534.117 7  -1631242.27248  21884806.53548
        48.500          36.000  
  23394741.383 6      2228.968 6  -7341989.280 6  -5703910.71847  23394735.44147
        43.500          27.000  
  22595671.133 6      3269.655 6  -9878502.743 6  -7675894.42847  22595662.02747
        45.250          29.750  
  22936837.344 6     -2919.082 6   7299860.514 6   5681612.41547  22936829.70347
        43.750          33.000  
  20669048.133 7      -451.882 7    671688.771 7    533826.41848  20669037.85548
        50.000          40.000  
  23832982.219 5      2590.279 5  -5449109.440 5  -4237926.66047  23832972.29347
        40.750          27.500  
  20974895.617 7     -1360.458 7   2770845.181 7   2164332.08348  20974886.51248
        51.500          40.750  
  20972420.148 7      1134.234 7  -4028921.187 7  -3115264.91348  20972408.87548
        49.250          40.500  
  23749248.016 6       413.745 6  -2640675.692 6  -2047132.98546  23749237.68046
        43.000          20.000  
 11  3 24 16 57 45.0000000  0 10G03G06G09G14G15G18G19G21G22G27      
  21896472.328 6       327.818 6  -3193630.602 6  -2459877.57847  21896463.51647
        47.500          32.250  
  21884712.047 7        35.899 7  -2131072.606 7  -1631661.88248  21884703.93848
        48.000          36.000  
  23388398.469 6      2222.144 6  -7375321.443 6  -5729883.82346  23388392.41046
        43.000          26.250  
  22586351.102 6      3265.147 6  -9927479.954 6  -7714058.46547  22586341.99647
        45.000          30.000  
  22945184.273 6     -2924.196 6   7343723.451 6   5715791.28047  22945176.45747
        43.750          33.250  
  20670349.000 7      -455.832 7    678526.255 7    539154.31548  20670339.07448
        50.500          40.000  
  23825606.211 5      2584.088 5  -5487870.755 5  -4268130.27147  23825596.22747
        41.750          27.750  
  20978797.656 7     -1367.003 7   2791350.232 7   2180310.02548  20978788.14148
        51.500          40.750  
  20969195.008 7      1129.892 7  -4045869.560 7  -3128471.44348  20969183.38348
        49.500          40.750  
  23748089.805 6       405.753 6  -2646761.994 6  -2051875.54646  23748079.76246
        43.250          21.000  
 11  3 24 16 58  0.0000000  0 10G03G06G09G14G15G18G19G21G22G27      
  21895564.992 6       317.832 6  -3198398.082 6  -2463592.51647  21895556.70747
        47.000          33.000  
  21884635.898 7        26.737 7  -2131473.658 7  -1631974.39948  21884627.55548
        48.500          35.750  
  23382075.617 6      2215.311 6  -7408551.102 6  -5755777.05947  23382068.21147
        43.250          26.750  
  22577043.695 6      3260.643 6  -9976389.603 6  -7752169.86447  22577035.23447
        45.250          30.500  
  22953545.344 6     -2929.273 6   7387662.543 6   5750029.48847  22953537.87947
        44.500          32.750  
  20671661.859 7      -459.754 7    685422.567 7    544528.06048  20671651.58248
        49.500          40.500  
  23818247.938 5      2577.890 5  -5526539.102 5  -4298261.41547  23818238.12947
        41.750          27.750  
  20982718.273 7     -1373.542 7   2811953.358 7   2196364.39148  20982708.81648
        52.000          40.500  
  20965982.203 7      1125.554 7  -4062752.871 7  -3141627.26648  20965970.69548
        49.500          40.500  
  23746954.297 6       397.765 6  -2652728.464 6  -2056524.73646  23746944.72346
        42.750          22.500  
 11  3 24 16 58 15.0000000  0 10G03G06G09G14G15G18G19G21G22G27      
  21894686.156 6       307.828 6  -3203015.500 6  -2467190.51447  21894678.51647
        47.000          32.250  
  21884585.820 7        17.559 7  -2131737.047 7  -1632179.65148  21884577.59448
        49.000          36.750  
  23375771.820 6      2208.424 6  -7441677.465 6  -5781589.81446  23375763.77046
        43.500          25.500  
  22567749.484 6      3256.096 6 -10025231.041 6  -7790228.11047  22567741.37547
        44.500          31.000  
  22961921.703 6     -2934.345 6   7431677.717 6   5784326.98047  22961913.59447
        42.750          32.750  
  20672985.195 7      -463.696 7    692378.012 7    549947.87748  20672975.27048
        49.750          40.500  
  23810907.500 5      2571.650 5  -5565113.848 5  -4328319.64547  23810896.93047
        41.000          27.000  
  20986657.672 7     -1380.098 7   2832654.822 7   2212495.37348  20986647.68848
        52.000          40.750  
  20962781.594 7      1121.203 7  -4079570.917 7  -3154732.24348  20962770.32048
        49.500          39.750  
  23745840.984 6       389.753 6  -2658574.759 6  -2061080.30346  23745832.75846
        43.250          22.000  
 11  3 24 16 58 30.0000000  0 10G03G06G09G14G15G18G19G21G22G27      
  21893835.570 7       297.837 7  -3207483.052 7  -2470671.73147  21893828.22347
        47.750          33.000  
  21884561.813 7         8.396 7  -2131862.984 7  -1632277.79548  21884553.58648
        48.750          36.750  
  23369488.156 6      2201.540 6  -7474700.563 6  -5807322.06747  23369479.10947
        43.750          27.000  
  22558467.984 6      3251.545 6 -10074004.219 6  -7828233.17447  22558459.69947
        44.750          30.750  
  22970311.828 6     -2939.379 6   7475768.409 6   5818683.31147  22970303.54347
        43.750          32.500  
  20674320.602 7      -467.615 7    699392.244 7    555413.50348  20674310.44148
        50.000          40.500  
  23803584.773 5      2565.412 5  -5603595.028 5  -4358304.94347  23803574.84847
        41.250          27.750  
  20990615.680 7     -1386.632 7   2853454.297 7   2228702.73848  20990606.10548
        52.000          40.250  
  20959593.586 7      1116.871 7  -4096323.975 7  -3167786.57648  20959582.60548
        50.000          40.250  
  23744752.031 6       381.751 6  -2664301.024 6  -2065542.30446  23744743.33646
        43.000          22.250  
 11  3 24 16 58 45.0000000  0 10G03G06G09G14G15G18G19G21G22G27      
  21893014.219 6       287.859 6  -3211800.942 6  -2474036.33447  21893006.75447
        46.250          33.000  
  21884564.141 7        -0.752 7  -2131851.697 7  -1632269.01248  21884555.68048
        49.750          36.500  
  23363224.164 6      2194.631 6  -7507620.030 6  -5832973.60047  23363214.70747
        44.000          27.500  
  22549200.031 6      3246.988 6 -10122709.040 6  -7866184.96347  22549191.33647
        44.000          30.500  
  22978716.539 6     -2944.386 6   7519934.201 6   5853098.17147  22978708.13747
        44.000          32.750  
  20675666.055 7      -471.525 7    706465.115 7    560924.81748  20675656.01248
        49.500          40.250  
  23796280.305 5      2559.166 5  -5641982.520 5  -4388217.27447  23796269.79347
        41.250          27.750  
  20994592.250 7     -1393.163 7   2874351.738 7   2244986.43948  20994582.85248
        50.750          39.500  
  20956418.188 7      1112.548 7  -4113012.188 7  -3180790.37748  20956406.85548
        50.000          40.500  
  23743685.148 6       373.748 6  -2669907.245 6  -2069910.81246  23743676.51246
        43.250          22.500  
 11  3 24 16 59  0.0000000  0 10G03G06G09G14G15G18G19G21G22G27      
  21892221.383 6       277.865 6  -3215968.922 6  -2477284.10747  21892213.44947
        47.000          33.000  
  21884592.477 7        -9.916 7  -2131702.961 7  -1632153.13448  21884584.13348
        49.750          36.500  
  23356979.148 6      2187.683 6  -7540435.279 6  -5858543.89646  23356969.92646
        43.750          26.250  
  22539944.563 6      3242.402 6 -10171345.071 6  -7904083.14147  22539936.21947
        44.750          31.000  
  22987135.188 6     -2949.387 6   7564175.004 6   5887571.48247  22987126.66847
        43.750          33.000  
  20677023.164 7      -475.446 7    713596.798 7    566481.96548  20677013.35548
        49.750          40.250  
  23788992.820 5      2552.882 5  -5680275.745 5  -4418056.12447  23788982.42647
        41.250          28.250  
  20998587.555 7     -1399.717 7   2895347.500 7   2261346.74848  20998578.03948
        51.000          40.250  
  20953254.766 7      1108.217 7  -4129635.436 7  -3193743.55448  20953244.02048
        49.500          40.500  
  23742641.063 6       365.715 6  -2675392.977 6  -2074185.40846  23742633.12946
        43.250          23.000  
 11  3 24 16 59 15.0000000  0 10G03G06G09G14G15G18G19G21G22G27      
  21891456.977 6       267.876 6  -3219987.056 6  -2480415.13847  21891449.16047
        47.500          33.500  
  21884646.586 7       -19.070 7  -2131416.909 7  -1631930.24348  21884638.41848
        50.250          36.250  
  23350754.266 6      2180.719 6  -7573146.064 6  -5884032.79447  23350745.62947
        43.500          28.500  
  22530702.688 6      3237.797 6 -10219912.029 6  -7941927.51747  22530694.34447
        44.000          31.250  
  22995568.328 6     -2954.349 6   7608490.244 6   5922102.78547  22995559.92647
        43.250          31.500  
  20678391.883 7      -479.340 7    720786.903 7    572084.63348  20678382.01648
        49.500          40.250  
  23781724.031 5      2546.585 5  -5718474.526 5  -4447821.38347  23781713.22747
        42.000          27.250  
  21002601.398 7     -1406.263 7   2916441.448 7   2277783.57348  21002591.76648
        51.000          39.750  
  20950103.344 7      1103.900 7  -4146193.932 7  -3206646.27448  20950092.71548
        49.250          40.500  
  23741620.797 6       357.693 6  -2680758.367 6  -2078366.24646  23741611.86746
        43.000          22.500  
 11  3 24 16 59 30.0000000  0 10G03G06G09G14G15G18G19G21G22G27      
  21890720.914 6       257.898 6  -3223855.522 6  -2483429.54148  21890712.51248
        47.250          34.000  
  21884727.352 7       -28.214 7  -2130993.697 7  -1631600.48448  21884718.94948
        49.500          36.000  
  23344549.750 6      2173.738 6  -7605752.138 6  -5909440.11547  23344540.58647
        44.500          27.250  
  22521474.180 6      3233.189 6 -10268409.866 6  -7979718.02447  22521465.89547
        45.250          31.750  
  23004015.445 6     -2959.286 6   7652879.539 6   5956691.81747  23004006.28147
        43.000          31.500  
  20679770.828 7      -483.224 7    728035.265 7    577732.69848  20679760.72748
        49.500          40.500  
  23774473.094 5      2540.279 5  -5756578.709 5  -4477512.94447  23774462.69947
        41.500          26.500  
  21006634.078 7     -1412.794 7   2937633.362 7   2294296.74048  21006624.97348
        50.250          40.000  
  20946964.859 7      1099.583 7  -4162687.676 7  -3219498.54348  20946953.64548
        48.750          40.250  
  23740622.422 6       349.668 6  -2686003.385 6  -2082453.27346  23740614.02046
        43.500          22.750  
 11  3 24 16 59 45.0000000  0 10G03G06G09G14G15G18G19G21G22G27      
  21890013.047 6       247.895 6  -3227573.940 6  -2486327.01848  21890005.28948
        47.500          34.000  
  21884834.133 7       -37.389 7  -2130432.860 7  -1631163.47748  21884826.14148
        49.000          36.250  
  23338364.914 6      2166.701 6  -7638252.652 6  -5934765.18947  23338356.27747
        43.750          27.500  
  22512258.367 6      3228.525 6 -10316837.737 6  -8017454.00347  22512249.96547
        44.750          32.000  
  23012476.070 6     -2964.233 6   7697343.034 6   5991338.65547  23012467.60947
        44.000          31.500  
  20681161.375 7      -487.147 7    735342.473 7    583426.61248  20681151.39148
        49.000          40.500  
  23767240.188 5      2533.920 5  -5794587.509 5  -4507130.17247  23767229.38347
        40.750          27.000  
  21010685.594 7     -1419.370 7   2958923.904 7   2310886.74748  21010676.37148
        50.500          40.250  
  20943838.781 7      1095.231 7  -4179116.147 7  -3232299.95148  20943827.68448
        49.250          40.750  
  23739647.344 6       341.603 6  -2691127.431 6  -2086446.04146  23739638.00446
        44.250          24.000  
 11  3 24 17  0  0.0000000  0 10G03G06G09G14G15G18G19G21G22G27      
  21889333.961 6       237.882 6  -3231142.171 6  -2489107.47448  21889326.14548
        46.250          33.750  
  21884966.867 7       -46.565 7  -2129734.378 7  -1630619.22248  21884958.87548
        48.500          36.750  
  23332200.555 6      2159.623 6  -7670646.999 6  -5960007.52747  23332192.91447
        44.250          28.750  
  22503056.391 6      3223.841 6 -10365195.349 6  -8055135.25347  22503048.04747
        45.500          31.750  
  23020951.273 6     -2969.159 6   7741880.415 6   6026043.06147  23020942.75447
        44.750          32.250  
  20682563.000 7      -491.061 7    742708.391 7    589166.28548  20682553.30948
        49.000          40.250  
  23760024.789 5      2527.536 5  -5832500.555 5  -4536672.78947  23760014.62947
        39.250          26.500  
  21014755.711 7     -1425.946 7   2980313.100 7   2327553.63248  21014746.31348
        49.750          40.000  
  20940725.438 7      1090.879 7  -4195479.336 7  -3245050.49048  20940713.57848
        49.500          40.500  
  23738696.102 6       333.517 6  -2696130.183 6  -2090344.30046  23738686.46946
        42.750          22.500  
 11  3 24 17  0 15.0000000  0 10G03G06G09G14G15G18G19G21G22G27      
  21888683.922 6       227.906 6  -3234560.765 6  -2491771.32447  21888675.46147
        47.000          33.000  
  21885126.297 7       -55.711 7  -2128898.720 7  -1629968.06948  21885117.83648
        48.500          36.750  
  23326056.336 6      2152.556 6  -7702935.345 6  -5985167.26747  23326048.98847
        45.000          29.000  
  22493867.555 6      3219.161 6 -10413482.759 6  -8092761.79147  22493859.56347
        46.000          31.500  
  23029440.430 6     -2974.034 6   7786490.930 6   6060804.46347  23029431.96947
        43.750          32.000  
  20683975.969 7      -494.937 7    750132.446 7    594951.24748  20683966.04348
        48.500          40.000  
  23752828.305 5      2521.172 5  -5870318.131 5  -4566141.01546  23752818.55546
        40.000          25.750  
  21018844.781 7     -1432.487 7   3001800.404 7   2344296.96948  21018835.50048
        50.000          39.500  
  20937623.508 7      1086.572 7  -4211777.911 7  -3257750.68148  20937612.00048
        50.000          40.500  
  23737766.828 6       325.455 6  -2701012.013 6  -2094148.30446  23737757.54746
        43.500          22.000  
 11  3 24 17  0 30.0000000  0 10G03G06G09G14G15G18G19G21G22G27      
  21888061.719 6       217.900 6  -3237829.261 6  -2494318.21947  21888053.60947
        46.250          33.500  
  21885311.133 7       -64.884 7  -2127925.464 7  -1629209.70848  21885303.02348
        49.250          36.500  
  23319932.195 6      2145.435 6  -7735116.866 6  -6010243.76847  23319924.84847
        43.750          28.500  
  22484692.086 6      3214.439 6 -10461699.339 6  -8130333.13347  22484684.21147
        45.750          31.000  
  23037943.633 6     -2978.917 6   7831174.683 6   6095622.92247  23037935.23047
        44.500          32.000  
  20685399.648 7      -498.843 7    757615.084 7    600781.86448  20685389.89848
        49.500          40.000  
  23745649.891 4      2514.755 4  -5908039.457 4  -4595534.24046  23745640.37546
        39.000          26.000  
  21022952.625 7     -1439.063 7   3023386.354 7   2361117.16848  21022943.63748
        50.250          40.000  
  20934534.688 7      1082.230 7  -4228011.357 7  -3270400.11648  20934523.00448
        49.000          40.750  
  23736861.469 6       317.359 6  -2705772.401 6  -2097857.72546  23736851.66046
        44.250          22.250  
 11  3 24 17  0 45.0000000  0 10G03G06G09G14G15G18G19G21G22G27      
  21887468.445 6       207.940 6  -3240948.364 6  -2496748.70147  21887460.39547
        46.750          33.500  
  21885522.242 7       -74.006 7  -2126815.381 7  -1628344.72148  21885514.36748
        49.250          37.250  
  23313828.492 6      2138.331 6  -7767191.834 6  -6035237.26047  23313821.78947
        42.500          29.000  
  22475530.055 6      3209.736 6 -10509845.382 6  -8167849.51847  22475522.06347
        45.750          30.500  
  23046460.344 6     -2983.736 6   7875930.725 6   6130497.71747  23046451.82447
        44.500          32.250  
  20686834.313 7      -502.696 7    765155.530 7    606657.52848  20686824.50448
        48.250          40.500  
  23738489.484 5      2508.370 5  -5945665.011 5  -4624852.82346  23738480.84846
        39.250          26.000  
  21027078.797 7     -1445.594 7   3045070.272 7   2378013.70348  21027069.51648
        50.250          39.750  
  20931457.531 7      1077.934 7  -4244180.370 7  -3282999.35649  20931446.08249
        49.500          41.500  
  23735978.305 6       309.304 6  -2710411.955 6  -2101472.96246  23735968.08646
        43.750          22.000  
 11  3 24 17  1  0.0000000  0 10G03G06G09G14G15G18G19G21G22G27      
  21886903.734 6       197.941 6  -3243917.476 6  -2499062.30448  21886895.09848
        46.750          34.250  
  21885759.844 7       -83.157 7  -2125568.027 7  -1627372.76648  21885751.91048
        49.500          36.250  
  23307745.555 6      2131.170 6  -7799159.389 6  -6060147.03447  23307738.32447
        43.000          29.750  
  22466381.656 6      3204.995 6 -10557920.308 6  -8205310.48547  22466373.60547
        46.000          32.000  
  23054990.313 6     -2988.568 6   7920759.237 6   6165428.97547  23054981.79347
        44.500          32.000  
  20688280.547 6      -506.575 6    772754.153 6    612578.52348  20688270.56348
        46.500          40.250  
  23731348.906 5      2501.924 5  -5983193.867 5  -4654096.07246  23731340.09446
        39.750          25.000  
  21031224.188 7     -1452.157 7   3066852.625 7   2394986.94448  21031214.96548
        49.250          40.000  
  20928393.063 7      1073.613 7  -4260284.561 7  -3295548.07348  20928381.55548
        49.500          40.500  
  23735117.992 6       301.204 6  -2714930.010 6  -2104993.52546  23735107.94946
        43.500          22.250  
 11  3 24 17  1 15.0000000  0 10G03G06G09G14G15G18G19G21G22G27      
  21886367.031 6       187.944 6  -3246736.630 6  -2501259.06248  21886359.03948
        46.750          34.500  
  21886023.508 7       -92.311 7  -2124183.354 7  -1626293.82248  21886015.39848
        48.000          35.750  
  23301682.891 6      2123.975 6  -7831019.021 6  -6084972.70547  23301674.89847
        45.000          29.000  
  22457247.258 6      3200.232 6 -10605923.788 6  -8242715.77447  22457238.68047
        45.000          31.000  
  23063535.258 6     -2993.372 6   7965659.810 6   6200416.40047  23063526.50447
        45.000          31.750  
  20689737.648 6      -510.446 6    780410.841 6    618544.75848  20689727.54748
        47.250          40.500  
  23724225.938 5      2495.450 5  -6020625.612 5  -4683263.64746  23724216.12946
        39.500          25.500  
  21035388.023 7     -1458.723 7   3088733.464 7   2412036.92848  21035378.27348
        48.500          40.000  
  20925340.961 7      1069.288 7  -4276323.878 7  -3308046.24548  20925329.62948
        50.000          40.750  
  23734281.750 6       293.099 6  -2719326.497 6  -2108419.35946  23734271.41446
        43.750          22.750  
 11  3 24 17  1 30.0000000  0 10G03G06G09G14G15G18G19G21G22G27      
  21885858.531 6       177.974 6  -3249406.239 6  -2503339.29148  21885850.77348
        47.000          34.000  
  21886312.891 7      -101.435 7  -2122661.836 7  -1625108.23948  21886304.78148
        49.500          36.000  
  23295640.844 6      2116.786 6  -7862770.811 6  -6109714.35547  23295632.79347
        44.500          28.500  
  22448126.398 6      3195.471 6 -10653855.855 6  -8280065.42647  22448117.93847
        45.500          31.250  
  23072092.484 6     -2998.125 6   8010631.690 6   6235459.37747  23072084.25847
        44.500          31.750  
  20691205.391 7      -514.283 7    788125.086 7    624555.84748  20691195.81648
        49.250          40.250  
  23717121.352 5      2488.999 5  -6057960.592 5  -4712355.81047  23717111.30947
        41.250          26.500  
  21039570.414 7     -1465.256 7   3110712.298 7   2429163.27048  21039561.01648
        50.500          39.750  
  20922301.305 7      1064.989 7  -4292298.713 7  -3320494.17048  20922290.14848
        49.500          40.500  
  23733468.391 6       285.010 6  -2723601.642 6  -2111750.64946  23733458.58246
        43.500          21.500  
 11  3 24 17  1 45.0000000  0 10G03G06G09G14G15G18G19G21G22G27      
  21885378.695 6       168.020 6  -3251926.539 6  -2505303.17148  21885371.23048
        46.500          33.750  
  21886628.227 7      -110.549 7  -2121003.599 7  -1623816.11948  21886620.41048
        49.750          36.750  
  23289619.406 6      2109.573 6  -7894414.401 6  -6134371.67947  23289610.18447
        45.250          28.500  
  22439018.508 6      3190.692 6 -10701716.230 6  -8317359.20847  22439009.98847
        45.500          31.750  
  23080664.125 6     -3002.866 6   8055674.683 6   6270557.78147  23080656.54347
        43.750          30.500  
  20692684.531 7      -518.120 7    795896.891 7    630611.79348  20692674.48848
        48.000          40.000  
  23710035.016 5      2482.523 5  -6095198.436 5  -4741372.29946  23710025.14846
        40.000          24.250  
  21043771.633 7     -1471.796 7   3132789.241 7   2446366.05548  21043761.94148
        49.750          39.500  
  20919273.102 7      1060.692 7  -4308209.087 7  -3332891.87048  20919261.47748
        49.500          40.500  
  23732676.867 6       276.918 6  -2727755.416 6  -2114987.34346  23732668.28946
        42.500          22.500  
 11  3 24 17  2  0.0000000  0 10G03G06G09G14G15G18G19G21G22G27      
  21884928.336 6       157.976 6  -3254296.173 6  -2507149.65148  21884920.22748
        45.500          33.750  
  21886970.344 7      -119.746 7  -2119207.403 7  -1622416.49448  21886962.17648
        49.500          36.000  
  23283618.109 6      2102.253 6  -7925948.196 6  -6158943.43847  23283608.82847
        44.750          28.500  
  22429925.250 6      3185.816 6 -10749503.467 6  -8354596.00447  22429916.43847
        46.500          31.000  
  23089249.594 6     -3007.647 6   8100789.385 6   6305712.04747  23089241.01647
        44.250          30.750  
  20694174.539 6      -522.031 6    803727.353 6    636713.44348  20694164.61348
        47.000          40.000  
  23702967.109 4      2475.957 4  -6132337.786 4  -4770312.05746  23702956.94946
        38.500          25.250  
  21047991.461 7     -1478.423 7   3154965.585 7   2463646.29548  21047981.94548
        48.250          40.000  
  20916258.125 7      1056.321 7  -4324053.900 7  -3345238.48248  20916246.73448
        49.500          40.250  
  23731909.773 5       268.736 5  -2731786.450 5  -2118128.42246  23731900.96146
        42.000          22.500  
 11  3 24 17  2 15.0000000  0 10G03G06G09G14G15G18G19G21G22G27      
  21884505.773 6       147.998 6  -3256516.148 6  -2508879.51247  21884498.30947
        45.500          33.500  
  21887338.055 7      -128.879 7  -2117274.224 7  -1620910.14548  21887330.23848
        48.750          36.000  
  23277638.133 6      2094.970 6  -7957372.743 6  -6183430.09547  23277628.96947
        43.500          27.250  
  22420845.406 6      3180.995 6 -10797218.385 6  -8391776.44747  22420836.77047
        44.750          31.750  
  23097847.922 6     -3012.350 6   8145974.629 6   6340921.27947  23097839.63747
        44.250          30.500  
  20695675.336 6      -525.874 6    811615.470 6    642860.01748  20695665.64548
        46.500          40.250  
  23695917.969 4      2469.432 4  -6169379.266 4  -4799175.51646  23695908.57046
        39.000          25.000  
  21052230.195 7     -1484.975 7   3177240.216 7   2481003.12648  21052220.50448
        49.000          39.500  
  20913255.813 7      1052.025 7  -4339834.280 7  -3357534.88748  20913244.30548
        50.250          40.250  
  23731165.805 5       260.605 5  -2735695.524 5  -2121174.46146  23731157.98846
        42.000          22.750  
 11  3 24 17  2 30.0000000  0 10G03G06G09G14G15G18G19G21G22G27      
  21884111.813 6       138.040 6  -3258586.743 6  -2510492.97948  21884103.93848
        46.250          33.750  
  21887732.094 7      -137.986 7  -2115204.429 7  -1619297.32748  21887724.10248
        49.250          36.000  
  23271679.602 6      2087.679 6  -7988687.928 6  -6207831.51747  23271669.73447
        44.000          28.000  
  22411778.859 6      3176.169 6 -10844860.925 6  -8428900.49947  22411770.51647
        45.250          31.250  
  23106459.695 6     -3017.019 6   8191229.910 6   6376185.10147  23106451.23447
        44.250          31.000  
  20697187.320 6      -529.691 6    819560.835 6    649051.19748  20697177.39548
        46.250          40.000  
  23688888.141 5      2462.899 5  -6206322.755 5  -4827962.64246  23688878.21546
        39.250          23.750  
  21056487.344 7     -1491.502 7   3199612.748 7   2498436.25048  21056478.06348
        48.500          39.000  
  20910264.742 7      1047.746 7  -4355550.467 7  -3369781.27148  20910253.58648
        50.250          40.500  
  23730445.266 5       252.486 5  -2739482.818 5  -2124125.61346  23730437.85946
        41.500          22.500  
 11  3 24 17  2 45.0000000  0 10G03G06G09G14G15G18G19G21G22G27      
  21883746.977 6       128.047 6  -3260507.449 6  -2511989.64547  21883738.16447
        45.750          33.500  
  21888151.875 7      -147.135 7  -2112997.403 7  -1617577.58048  21888143.94148
        49.500          36.750  
  23265740.820 5      2080.315 5  -8019892.655 5  -6232146.87347  23265732.30147
        42.250          28.000  
  22402726.766 6      3171.280 6 -10892430.127 6  -8465967.39447  22402718.65647
        44.000          32.250  
  23115084.758 6     -3021.711 6   8236555.580 6   6411503.77047  23115076.59047
        43.750          30.500  
  20698710.484 6      -533.552 6    827564.113 6    655287.51048  20698700.26648
        47.500          40.250  
  23681877.359 4      2456.307 4  -6243167.364 4  -4856672.71446  23681866.61346
        38.500          23.500  
  21060763.422 7     -1498.079 7   3222083.926 7   2515946.23448  21060754.14148
        48.000          39.000  
  20907286.391 7      1043.420 7  -4371201.766 7  -3381977.08848  20907275.00048
        49.500          40.750  
  23729747.172 5       244.315 5  -2743147.537 5  -2126981.26146  23729740.58646
        42.000          22.750  
 11  3 24 17  3  0.0000000  0 10G03G06G09G14G15G18G19G21G22G27      
  21883409.508 6       118.113 6  -3262279.151 6  -2513370.21147  21883401.22347
        45.750          33.500  
  21888598.094 7      -156.224 7  -2110654.036 7  -1615751.59548  21888590.27748
        48.500          36.250  
  23259823.852 6      2072.991 6  -8050987.525 6  -6256376.63647  23259815.74247
        42.750          28.750  
  22393688.477 6      3166.418 6 -10939926.399 6  -8502977.47047  22393679.54747
        45.500          31.500  
  23123723.609 6     -3026.314 6   8281950.293 6   6446876.22447  23123715.09047
        43.750          30.250  
  20700244.344 7      -537.346 7    835624.298 7    661568.16148  20700234.35948
        49.500          40.000  
  23674884.672 4      2449.753 4  -6279913.652 4  -4885306.18646  23674873.34046
        38.250          24.500  
  21065058.125 7     -1504.605 7   3244652.999 7   2533532.50148  21065049.07848
        50.000          39.500  
  20904320.359 7      1039.154 7  -4386789.079 7  -3394123.05148  20904309.02748
        49.500          40.250  
  23729072.641 5       236.190 5  -2746690.381 5  -2129741.91846  23729067.28546
        41.250          22.750  
 11  3 24 17  3 15.0000000  0 10G03G06G09G14G15G18G19G21G22G27      
  21883100.422 6       108.123 6  -3263901.003 6  -2514633.99947  21883092.37147
        46.000          32.750  
  21889069.906 7      -165.367 7  -2108173.530 7  -1613818.75448  21889061.73848
        48.750          36.250  
  23253927.656 6      2065.578 6  -8081971.197 6  -6280519.76247  23253920.42647
        43.500          29.000  
  22384664.070 6      3161.489 6 -10987348.735 6  -8539929.93747  22384656.19547
        45.250          31.750  
  23132374.898 6     -3030.955 6   8327414.622 6   6482302.93647  23132366.32047
        44.500          31.250  
  20701789.289 6      -541.193 6    843742.196 6    667893.78248  20701779.30548
        47.000          39.750  
  23667910.523 5      2443.125 5  -6316560.527 5  -4913862.19646  23667900.42246
        39.500          22.750  
  21069371.633 7     -1511.186 7   3267320.782 7   2551195.68848  21069362.35248
        47.750          39.000  
  20901366.336 7      1034.830 7  -4402311.530 7  -3406218.46648  20901354.94548
        49.750          40.500  
  23728422.008 5       228.009 5  -2750110.514 5  -2132406.95746  23728416.06646
        40.750          24.000  
 11  3 24 17  3 30.0000000  0 10G03G06G09G14G15G18G19G21G22G27      
  21882819.695 6        98.274 6  -3265375.110 6  -2515782.68247  21882812.05547
        44.250          33.250  
  21889568.539 7      -174.368 7  -2105558.006 7  -1611780.71548  21889559.43448
        49.000          36.750  
  23248053.188 6      2058.283 6  -8112845.450 6  -6304577.63047  23248045.66447
        43.500          29.750  
  22375653.633 6      3156.684 6 -11034698.994 6  -8576826.24747  22375645.69947
        45.000          32.500  
  23141039.461 6     -3035.437 6   8372946.173 6   6517782.01247  23141031.11747
        43.750          29.500  
  20703344.250 6      -544.894 6    851915.608 6    674262.65748  20703334.73448
        47.500          40.500  
  23660955.172 5      2436.616 5  -6353109.771 5  -4942342.12046  23660945.65646
        39.750          22.750  
  21073703.430 7     -1517.628 7   3290085.204 7   2568934.17048  21073694.32448
        47.750          39.000  
  20898424.539 7      1030.646 7  -4417771.217 7  -3418264.98448  20898412.79748
        49.750          40.750  
  23727794.906 5       219.961 5  -2753409.934 5  -2134977.93146  23727788.67246
        41.250          24.000  
 11  3 24 17  3 45.0000000  0 10G03G06G09G14G15G18G19G21G22G27      
  21882568.031 6        88.192 6  -3266697.995 6  -2516813.52048  21882560.03948
        45.250          34.000  
  21890092.078 7      -183.595 7  -2102804.084 7  -1609634.83148  21890083.79348
        49.250          36.500  
  23242199.789 6      2050.738 6  -8143606.514 6  -6328547.28647  23242191.85547
        42.750          30.250  
  22366657.625 6      3151.634 6 -11081973.503 6  -8613663.52547  22366649.28147
        45.250          32.500  
  23149716.617 6     -3040.126 6   8418548.063 6   6553315.90147  23149708.85947
        43.000          29.250  
  20704911.109 7      -548.824 7    860147.966 7    680677.47048  20704901.18448
        48.000          40.750  
  23654019.266 5      2429.860 5  -6389557.675 5  -4970743.07446  23654010.10246
        39.250          24.750  
  21078054.867 7     -1524.307 7   3312949.806 7   2586750.71348  21078045.76248
        48.500          39.000  
  20895494.961 7      1026.238 7  -4433164.783 7  -3430259.96848  20895483.45348
        48.500          40.500  
  23727189.977 5       211.678 5  -2756585.102 5  -2137452.14146  23727184.56346
        40.750          25.000  
 11  3 24 17  4  0.0000000  0 10G03G06G09G14G15G18G19G21G22G27      
  21882344.750 6        78.240 6  -3267871.593 6  -2517728.02747  21882336.93447
        43.750          33.250  
  21890642.094 7      -192.693 7  -2099913.696 7  -1607382.59648  21890633.75048
        49.500          36.500  
  23236367.320 6      2043.277 6  -8174255.667 6  -6352429.73647  23236359.62147
        44.500          29.750  
  22357675.922 6      3146.679 6 -11129173.686 6  -8650442.88947  22357667.69547
        45.500          32.500  
  23158407.258 6     -3044.679 6   8464218.244 6   6588903.01547  23158399.91047
        42.750          30.000  
  20706488.711 6      -552.621 6    868437.279 6    687136.66248  20706478.25848
        47.500          40.750  
  23647102.398 4      2423.207 4  -6425905.784 4  -4999066.27646  23647093.11746
        38.750          25.500  
  21082424.289 7     -1530.862 7   3335912.741 7   2604643.88348  21082415.18448
        48.500          39.250  
  20892577.930 7      1021.949 7  -4448494.022 7  -3442204.84148  20892566.65648
        49.500          40.500  
  23726609.492 5       203.507 5  -2759637.712 5  -2139830.81346  23726604.13746
        41.500          23.500  
 11  3 24 17  4 15.0000000  0 10G03G06G09G14G15G18G19G21G22G27      
  21882149.891 6        68.256 6  -3268895.437 6  -2518525.84447  21882142.01647
        46.000          33.250  
  21891218.047 7      -201.821 7  -2096886.381 7  -1605023.66748  21891209.93848
        48.250          36.500  
  23230555.852 6      2035.771 6  -8204792.238 6  -6376224.44647  23230548.73847
        43.250          29.250  
  22348708.109 6      3141.694 6 -11176299.095 6  -8687163.99347  22348699.76647
        45.750          32.000  
  23167111.570 6     -3049.232 6   8509956.722 6   6624543.32847  23167103.87147
        43.500          29.250  
  20708077.156 7      -556.435 7    876783.811 7    693640.43848  20708066.52748
        50.000          40.750  
  23640205.234 5      2416.512 5  -6462153.471 5  -5027311.20946  23640195.60246
        40.250          25.750  
  21086812.938 7     -1537.427 7   3358974.145 7   2622613.78748  21086803.83248
        50.750          39.250  
  20889673.188 7      1017.658 7  -4463758.899 7  -3454099.55048  20889661.68048
        50.000          40.750  
  23726051.883 5       195.302 5  -2762567.248 5  -2142113.57346  23726046.99646
        41.500          24.500  
 11  3 24 17  4 30.0000000  0 10G03G06G09G14G15G18G19G21G22G27      
  21881983.625 6        58.324 6  -3269770.303 6  -2519207.57447  21881975.63347
        47.500          33.000  
  21891820.508 7      -210.898 7  -2093722.908 7  -1602558.63948  21891811.98848
        48.750          36.500  
  23224766.383 6      2028.284 6  -8235216.494 6  -6399931.65347  23224758.74247
        43.750          29.000  
  22339754.945 6      3136.714 6 -11223349.811 6  -8723826.87747  22339746.60247
        46.250          32.500  
  23175827.766 6     -3053.723 6   8555762.570 6   6660236.14247  23175820.65247
        43.750          30.000  
  20709675.875 7      -560.217 7    885187.071 7    700188.41948  20709666.53548
        49.500          40.500  
  23633326.906 5      2409.827 5  -6498300.871 5  -5055478.01546  23633316.10246
        40.000          25.500  
  21091220.227 7     -1543.970 7   3382133.688 7   2640660.16048  21091210.88748
        50.000          39.000  
  20886781.070 7      1013.392 7  -4478959.773 7  -3465944.39148  20886769.38748
        49.000          40.750  
  23725517.641 5       187.134 5  -2765374.255 5  -2144300.87046  23725512.63746
        41.500          24.000  
 11  3 24 17  4 45.0000000  0 10G03G06G09G14G15G18G19G21G22G27      
  21881845.531 6        48.378 6  -3270495.976 6  -2519773.05247  21881837.89147
        44.500          33.000  
  21892447.273 7      -219.995 7  -2090422.985 7  -1599987.29448  21892439.75048
        49.000          36.750  
  23218998.227 6      2020.747 6  -8265527.694 6  -6423550.77047  23218990.58647
        43.500          29.500  
  22330815.922 6      3131.706 6 -11270325.396 6  -8760431.24047  22330807.05147
        46.000          31.750  
  23184557.117 6     -3058.198 6   8601635.540 6   6695981.27747  23184549.77047
        43.500          30.000  
  20711286.141 7      -564.016 7    893647.306 7    706780.79548  20711276.09848
        48.500          40.500  
  23626467.625 5      2403.107 5  -6534347.473 5  -5083566.26646  23626457.05546
        40.500          25.250  
  21095646.039 7     -1550.517 7   3405391.439 7   2658783.04648  21095636.52348
        51.000          39.250  
  20883900.258 7      1009.106 7  -4494096.360 7  -3477739.14548  20883888.69148
        49.500          40.500  
  23725006.539 5       178.936 5  -2768058.299 5  -2146392.34646  23725001.65246
        40.750          25.250  
 11  3 24 17  5  0.0000000  0 10G03G06G09G14G15G18G19G21G22G27      
  21881736.164 6        38.369 6  -3271071.505 6  -2520221.53547  21881728.58247
        43.500          33.000  
  21893102.391 7      -229.135 7  -2086985.955 7  -1597309.10048  21893094.04748
        49.000          36.000  
  23213251.148 6      2013.129 6  -8295724.631 6  -6447080.85347  23213243.80147
        43.500          28.000  
  22321891.422 6      3126.623 6 -11317224.735 6  -8796976.17547  22321882.72747
        47.000          32.500  
  23193299.492 6     -3062.710 6   8647576.187 6   6731779.12847  23193292.37947
        43.250          30.000  
  20712906.945 7      -567.858 7    902165.176 7    713418.07648  20712896.84448
        50.250          41.000  
  23619627.797 5      2396.320 5  -6570292.265 5  -5111575.21546  23619616.64146
        41.000          25.250  
  21100091.156 7     -1557.132 7   3428748.422 7   2676983.26548  21100081.52348
        51.250          39.000  
  20881032.352 7      1004.766 7  -4509167.857 7  -3489483.18948  20881021.19548
        48.250          40.000  
  23724518.555 5       170.680 5  -2770618.500 5  -2148387.36046  23724514.48846
        41.000          24.250  
 11  3 24 17  5 15.0000000  0 10G03G06G09G14G15G18G19G21G22G27      
  21881655.055 6        28.447 6  -3271498.207 6  -2520554.04947  21881647.70747
        43.750          32.500  
  21893782.422 7      -238.202 7  -2083412.918 7  -1594524.95148  21893774.72348
        49.000          36.000  
  23207526.523 6      2005.574 6  -8325808.246 6  -6470522.63547  23207518.76647
        42.500          28.000  
  22312981.180 6      3121.601 6 -11364048.757 6  -8833462.44447  22312972.07447
        46.500          32.250  
  23202054.117 6     -3067.134 6   8693583.193 6   6767628.69347  23202046.59447
        43.750          30.250  
  20714538.813 7      -571.596 7    910739.117 7    720099.06149  20714528.47749
        49.500          41.500  
  23612806.969 5      2389.588 5  -6606136.091 5  -5139505.47646  23612795.52046
        42.000          25.500  
  21104554.391 7     -1563.662 7   3452203.355 7   2695259.80548  21104544.11348
        49.750          38.750  
  20878176.055 7      1000.517 7  -4524175.612 7  -3501177.55248  20878164.78148
        50.000          40.500  
  23724055.453 5       162.500 5  -2773055.993 5  -2150286.70846  23724051.21146
        39.250          23.000  
 11  3 24 17  5 30.0000000  0 10G03G06G09G14G15G18G19G21G22G27      
  21881602.117 6        18.487 6  -3271775.507 6  -2520770.14647  21881594.53547
        44.750          33.500  
  21894488.344 7      -247.293 7  -2079703.516 7  -1591634.53448  21894479.76648
        49.250          36.250  
  23201823.211 6      1997.955 6  -8355777.570 6  -6493875.36147  23201815.04347
        42.750          28.000  
  22304084.992 6      3116.527 6 -11410796.668 6  -8869889.38247  22304076.41447
        46.500          31.500  
  23210821.641 6     -3071.563 6   8739656.633 6   6803530.01547  23210814.29347
        43.000          29.250  
  20716180.867 7      -575.387 7    919369.923 7    726824.34248  20716171.00048
        51.000          40.750  
  23606005.711 6      2382.804 6  -6641878.154 6  -5167356.42947  23605994.26247
        42.500          26.500  
  21109036.344 7     -1570.225 7   3475756.727 7   2713613.05548  21109026.65248
        50.000          39.250  
  20875332.656 7       996.231 7  -4539119.073 7  -3512821.81448  20875321.14848
        48.750          40.250  
  23723615.219 5       154.272 5  -2775370.069 5  -2152089.92946  23723610.80146
        40.500          25.250  
 11  3 24 17  5 45.0000000  0 10G03G06G09G14G15G18G19G21G22G27      
  21881577.742 6         8.526 6  -3271903.402 6  -2520869.81947  21881569.69147
        44.250          33.500  
  21895219.383 7      -256.398 7  -2075857.551 7  -1588637.69148  21895211.91848
        49.250          36.250  
  23196142.859 6      1990.291 6  -8385631.940 6  -6517138.50447  23196134.63347
        43.250          28.750  
  22295203.844 6      3111.421 6 -11457467.988 6  -8906256.64547  22295195.20747
        46.250          31.250  
  23219601.563 5     -3075.982 5   8785796.360 5   6839483.00047  23219594.62547
        42.250          30.000  
  20717833.891 7      -579.178 7    928057.594 7    733593.94348  20717824.31648
        51.000          40.250  
  23599223.750 5      2375.995 5  -6677518.078 5  -5195127.77847  23599212.41847
        41.500          26.750  
  21113537.227 7     -1576.805 7   3499408.804 7   2732043.21848  21113527.47748
        51.250          38.500  
  20872501.289 7       991.929 7  -4553998.001 7  -3524415.79348  20872489.84048
        49.250          40.500  
  23723198.102 5       146.031 5  -2777560.528 5  -2153796.79146  23723194.32846
        39.250          25.000  
 11  3 24 17  6  0.0000000  0 10G03G06G09G14G15G18G19G21G22G27      
  21881580.773 6        -1.118 6  -3271886.637 6  -2520856.77847  21881572.48847
        45.750          33.000  
  21895976.602 7      -265.184 7  -2071879.784 7  -1585538.15648  21895968.78548
        49.000          36.500  
  23190482.836 6      1982.918 6  -8415375.704 6  -6540315.47147  23190473.73047
        42.750          28.250  
  22286336.375 6      3106.607 6 -11504067.095 6  -8942567.64847  22286327.85547
        46.500          32.000  
  23228393.891 5     -3080.071 5   8831997.432 5   6875483.78047  23228386.54347
        42.000          30.000  
  20719497.320 7      -582.654 7    936797.399 7    740404.15948  20719487.16048
        50.500          40.500  
  23592460.203 5      2369.476 5  -6713060.213 5  -5222822.94147  23592449.10547
        41.500          27.000  
  21118055.766 7     -1583.095 7   3523155.229 7   2750546.89148  21118045.89848
        50.500          39.000  
  20869681.516 7       987.943 7  -4568817.151 7  -3535963.19548  20869669.83248
        50.000          40.500  
  23722803.602 5       138.093 5  -2779631.929 5  -2155410.89746  23722799.71146
        39.500          24.500  
 11  3 24 17  6 15.0000000  0 10G03G06G09G14G15G18G19G21G22G27      
  21881613.695 6       -11.326 6  -3271716.747 6  -2520724.42047  21881605.35247
        46.000          33.500  
  21896759.789 7      -274.515 7  -2067762.063 7  -1582329.56448  21896752.44148
        49.000          36.000  
  23184845.727 6      1974.971 6  -8445000.271 6  -6563399.54547  23184836.79747
        43.500          28.000  
  22277484.063 6      3101.226 6 -11550585.491 6  -8978815.75547  22277475.48447
        46.750          32.750  
  23237199.086 6     -3084.681 6   8878267.645 6   6911538.42547  23237191.85547
        42.750          30.000  
  20721171.789 7      -586.680 7    945597.603 7    747261.45148  20721161.62948
        50.000          40.000  
  23585716.625 6      2362.389 6  -6748496.042 6  -5250435.27147  23585706.28947
        42.500          27.000  
  21122593.797 7     -1589.902 7   3547003.764 7   2769130.14048  21122584.45748
        50.500          39.000  
  20866874.602 7       983.408 7  -4583568.264 7  -3547457.57948  20866862.97748
        49.000          40.750  
  23722434.016 5       129.592 5  -2781575.809 5  -2156925.64246  23722430.12546
        39.750          24.000  
 11  3 24 17  6 30.0000000  0 10G03G06G09G14G15G18G19G21G22G27      
  21881674.328 6       -21.280 6  -3271397.547 6  -2520475.71247  21881665.98447
        44.250          33.250  
  21897569.859 7      -283.603 7  -2063508.014 7  -1579014.74348  21897561.86748
        49.000          36.000  
  23179230.758 6      1967.240 6  -8474508.877 6  -6586393.24247  23179221.47747
        44.000          28.250  
  22268646.219 6      3096.073 6 -11597026.589 6  -9015003.62947  22268637.69947
        46.250          31.750  
  23246016.844 6     -3089.026 6   8924603.030 6   6947643.86147  23246009.84847
        42.500          30.500  
  20722857.406 7      -590.448 7    954454.316 7    754162.77348  20722847.59848
        50.250          40.750  
  23578992.883 6      2355.523 6  -6783828.886 6  -5277967.34847  23578982.07847
        43.000          28.000  
  21127150.930 7     -1596.460 7   3570950.671 7   2787790.03548  21127141.23848
        50.500          38.500  
  20864079.469 7       979.125 7  -4598255.146 7  -3558901.90348  20864068.13748
        49.750          40.750  
  23722087.484 5       121.335 5  -2783395.829 5  -2158343.85046  23722083.47746
        39.750          26.000  
 11  3 24 17  6 45.0000000  0 10G03G06G09G14G15G18G19G21G22G27      
  21881763.211 6       -31.189 6  -3270929.717 6  -2520111.19247  21881755.21947
        44.000          33.000  
  21898405.453 7      -292.654 7  -2059118.210 7  -1575594.13448  21898397.34448
        49.000          35.500  
  23173637.211 6      1959.503 6  -8503901.427 6  -6609296.52547  23173628.92647
        43.000          28.500  
  22259823.352 6      3090.925 6 -11643390.468 6  -9051131.32347  22259815.12547
        45.500          31.500  
  23254846.602 5     -3093.334 5   8971003.038 5   6983799.66847  23254839.31347
        42.250          30.750  
  20724553.391 7      -594.182 7    963367.049 7    761107.75048  20724543.05548
        50.000          40.500  
  23572288.727 6      2348.665 6  -6819058.862 6  -5305419.26247  23572278.68447
        43.500          28.250  
  21131726.844 7     -1603.002 7   3594995.696 7   2806526.39948  21131717.15248
        50.500          38.750  
  20861296.813 7       974.873 7  -4612878.235 7  -3570296.51648  20861285.71548
        50.000          40.250  
  23721765.469 5       113.095 5  -2785092.259 5  -2159665.72746  23721760.81646
        41.000          25.500  
 11  3 24 17  7  0.0000000  0 10G03G06G09G14G15G18G19G21G22G27      
  21881880.367 6       -41.109 6  -3270313.083 6  -2519630.70947  21881872.55147
        46.000          33.500  
  21899266.313 7      -301.716 7  -2054592.476 7  -1572067.60548  21899258.43848
        48.500          35.250  
  23168065.922 6      1951.744 6  -8533177.587 6  -6632109.09947  23168058.45747
        43.750          29.250  
  22251015.961 6      3085.747 6 -11689676.678 6  -9087198.50047  22251007.44147
        46.250          31.500  
  23263688.125 5     -3097.633 5   9017467.534 5   7020005.71947  23263681.65647
        42.250          31.000  
  20726260.078 7      -597.937 7    972336.102 7    768096.60948  20726250.27048
        50.000          40.500  
  23565604.734 6      2341.780 6  -6854185.568 6  -5332790.69347  23565594.51647
        43.000          29.250  
  21136321.008 7     -1609.558 7   3619139.064 7   2825339.38248  21136311.49248
        50.250          39.000  
  20858526.289 7       970.605 7  -4627437.308 7  -3581641.25248  20858515.01648
        47.750          40.500  
  23721465.867 5       104.836 5  -2786664.806 5  -2160891.11746  23721461.21546
        42.000          25.250  
 11  3 24 17  7 15.0000000  0 10G03G06G09G14G15G18G19G21G22G27      
  21882025.844 6       -51.065 6  -3269547.110 6  -2519033.85347  21882018.49647
        46.000          33.250  
  21900153.773 7      -310.805 7  -2049930.407 7  -1568434.84348  21900145.60548
        49.000          35.750  
  23162517.227 6      1943.929 6  -8562336.520 6  -6654830.33847  23162509.64547
        44.000          29.750  
  22242222.500 6      3080.528 6 -11735884.603 6  -9123204.67847  22242214.33247
        46.250          32.000  
  23272542.438 5     -3101.932 5   9063996.507 5   7056262.01547  23272535.38347
        42.000          31.250  
  20727977.445 7      -601.711 7    981361.773 7    775129.59148  20727967.63748
        50.000          40.250  
  23558940.289 6      2334.845 6  -6889208.243 6  -5360081.08647  23558930.18847
        43.500          28.500  
  21140934.438 7     -1616.143 7   3643381.206 7   2844229.33648  21140924.74648
        50.750          39.000  
  20855768.320 7       966.307 7  -4641931.908 7  -3592935.75148  20855756.93048
        49.750          41.000  
  23721190.281 5        96.541 5  -2788112.928 5  -2162019.52446  23721186.80146
        40.750          24.750  
 11  3 24 17  7 30.0000000  0 10G03G06G09G14G15G18G19G21G22G27      
  21882200.148 6       -60.962 6  -3268632.681 6  -2518321.33147  21882192.15647
        46.000          33.000  
  21901066.656 7      -319.827 7  -2045133.007 7  -1564696.62648  21901058.13748
        49.000          35.500  
  23156990.789 6      1936.135 6  -8591378.541 6  -6677460.48247  23156983.14847
        42.500          30.000  
  22233444.797 6      3075.332 6 -11782014.584 6  -9159150.11647  22233436.21947
        46.000          32.500  
  23281408.508 5     -3106.149 5   9110588.740 5   7092567.59047  23281402.44947
        42.000          31.250  
  20729705.469 7      -605.426 7    990443.161 7    782205.99448  20729696.07048
        50.500          40.250  
  23552295.391 6      2327.951 6  -6924127.501 6  -5387290.86847  23552284.76247
        44.500          28.750  
  21145565.773 7     -1622.680 7   3667721.402 7   2863195.70348  21145556.43448
        50.500          38.500  
  20853022.031 7       962.066 7  -4656362.903 7  -3604180.67448  20853010.81648
        48.250          41.000  
  23720938.727 5        88.298 5  -2789437.390 5  -2163051.59446  23720934.07446
        40.750          25.250  
 11  3 24 17  7 45.0000000  0 10G03G06G09G14G15G18G19G21G22G27      
  21882402.453 6       -70.861 6  -3267569.765 6  -2517493.09547  21882394.63747
        45.250          33.250  
  21902005.164 7      -328.861 7  -2040200.089 7  -1560852.81348  21901997.11348
        49.000          35.500  
  23151486.391 5      1928.304 5  -8620303.094 5  -6699999.08547  23151479.39547
        42.000          29.000  
  22224681.133 6      3070.102 6 -11828066.122 6  -9195034.43447  22224672.14547
        46.000          32.500  
  23290286.891 6     -3110.371 6   9157244.307 6   7128922.53147  23290280.59847
        42.500          31.000  
  20731444.383 7      -609.149 7    999580.392 7    789325.89548  20731434.63348
        49.500          40.500  
  23545670.625 6      2321.018 6  -6958942.777 6  -5414419.63647  23545659.41047
        44.250          29.000  
  21150216.383 7     -1629.222 7   3692159.732 7   2882238.53648  21150207.10248
        49.500          38.750  
  20850288.281 7       957.808 7  -4670730.025 7  -3615375.84048  20850276.65648
        49.250          41.250  
  23720709.945 5        80.029 5  -2790637.823 5  -2163987.00446  23720705.93846
        41.750          25.250  
