     2.11           OBSERVATION DATA    GPS(GPS)            RINEX VERSION / TYPE
cnvtToRINEX 2.11.0  Stan Thomas         31-Mar-11 19:14 UTC PGM / RUN BY / DATE 
----------------------------------------------------------- COMMENT             
CLF2                                                        MARKER NAME         
CLF2                                                        MARKER NUMBER       
Stan Thomas         University of Utah                      OBSERVER / AGENCY   
4644124574          NetRS               1.12                REC # / TYPE / VERS 
12532422            TRM41249.00                             ANT # / TYPE        
 -1924404.9063 -4553770.3397  4018598.8162                  APPROX POSITION XYZ 
        1.3580        0.0000        0.0000                  ANTENNA: DELTA H/E/N
     1     1     0                                          WAVELENGTH FACT L1/2
     7    C1    D1    L1    L2    P2    S1    S2            # / TYPES OF OBSERV 
  2011     3    30    18     6   45.0000000     GPS         TIME OF FIRST OBS   
  2011     3    30    23    45    0.0000000     GPS         TIME OF LAST OBS    
     0                                                      RCV CLOCK OFFS APPL 
    15                                                      LEAP SECONDS        
    22                                                      # OF SATELLITES     
   G03   456   456   454   421   421   456   421            PRN / # OF OBS      
   G04   376   376   373   338   338   376   338            PRN / # OF OBS      
   G06   398   398   395   369   369   398   369            PRN / # OF OBS      
   G07   209   209   206   196   196   209   196            PRN / # OF OBS      
   G09   311   311   311   297   297   311   297            PRN / # OF OBS      
   G10    67    67    66    40    40    67    40            PRN / # OF OBS      
   G11  1151  1151  1150  1115  1115  1151  1115            PRN / # OF OBS      
   G12   435   435   432   411   411   435   411            PRN / # OF OBS      
   G13   500   500   494   472   472   500   472            PRN / # OF OBS      
   G14  1039  1039  1034  1019  1019  1039  1019            PRN / # OF OBS      
   G16   689   689   689   665   665   689   665            PRN / # OF OBS      
   G18   509   509   508   495   495   509   495            PRN / # OF OBS      
   G19   543   543   538   532   532   543   532            PRN / # OF OBS      
   G20  1007  1007  1003   987   987  1007   987            PRN / # OF OBS      
   G21   132   132   131   126   126   132   126            PRN / # OF OBS      
   G22   838   838   836   832   832   838   832            PRN / # OF OBS      
   G23   895   895   895   895   895   895   895            PRN / # OF OBS      
   G24  1282  1282  1276  1244  1244  1282  1244            PRN / # OF OBS      
   G25   801   801   798   801   801   801   801            PRN / # OF OBS      
   G27   126   126   126   122   122   126   122            PRN / # OF OBS      
   G30   838   838   837   814   814   838   814            PRN / # OF OBS      
   G31  1354  1354  1354  1354  1354  1354  1354            PRN / # OF OBS      
CARRIER PHASE MEASUREMENTS: PHASE SHIFTS REMOVED            COMMENT             
                                                            END OF HEADER       
 11  3 30 18  6 45.0000000  0 12G03G06G09G11G14G18G19G21G22G24G27G31
  23323481.34416     -2602.64116     64333.37516     39892.99757  23323477.39557
        43.500          29.000  
  23472576.08616     -2590.39116     62461.73016     40349.20057  23472571.55157
        44.250          28.500  
  22870034.89816     -1480.01616   -281420.14416   -217541.36457  22870027.90257
        45.500          29.500  
  24452518.38315      3256.53115  -1635754.78515  -1242268.14755  24452511.44555
        40.250          18.250  
  20376059.50016       645.18816   -892376.45016   -667935.84058  20376050.57058
        45.250          40.250  
  21830472.77317     -1674.93817   -203256.98817   -157816.90858  21830464.13758
        48.750          34.000  
  22673485.17216      -611.98416   -537389.84616   -406270.57457  22673476.71157
        45.500          33.000  
  23637291.97715     -3457.01615    314852.13515    224960.77756  23637287.03156
        41.500          20.750  
  20586254.01617      -379.75017   -583846.81617   -438834.91759  20586243.73859
        49.000          42.000  
  25387595.71114      3421.10914  -1612339.51114  -1252147.91656  25387590.00456
        38.500          20.750  
  24930584.08614     -2470.45314     16757.57914      8265.94856  24930578.49656
        39.000          21.000  
  24824362.68013      3668.01613  -1677718.19613  -1302738.80656  24824361.07456
        36.000          22.750  
 11  3 30 18  7  0.0000000  0 12G03G06G09G11G14G18G19G21G22G24G27G31
  23330916.797 6     -2604.954 6    103407.681 6     70340.45147  23330913.08247
        43.250          28.500  
  23479975.883 5     -2592.396 5    101347.669 5     70649.86547  23479971.05547
        42.000          27.500  
  22874275.367 6     -1485.536 6   -259137.105 6   -200177.96947  22874268.25447
        45.250          29.000  
  24443229.016 5      3254.521 5  -1684572.593 5  -1280308.03046  24443221.31646
        40.250          19.000  
  20374229.969 6       640.823 6   -901988.799 6   -675425.97348  20374222.09448
        46.000          41.000  
  21835258.953 7     -1676.742 7   -178105.860 7   -138218.65348  21835250.66848
        48.000          34.500  
  22675245.547 6      -616.687 6   -528139.537 6   -399062.56147  22675236.73447
        45.750          33.000  
  23647166.008 5     -3459.168 5    366739.648 5    265392.47246  23647161.29746
        41.250          21.500  
  20587344.406 7      -382.080 7   -578115.622 7   -434369.06849  20587333.77749
        49.250          41.750  
  25377830.539 4      3420.793 4  -1663651.409 4  -1292131.24146  25377825.77046
        37.500          19.000  
  24937644.609 4     -2473.452 4     53859.361 4     37176.39246  24937638.90246
        38.750          20.000  
  24813891.914 3      3668.277 3  -1732742.354 3  -1345614.72946  24813890.66046
        36.250          22.500  
 11  3 30 18  7 15.0000000  0 12G03G06G09G11G14G18G19G21G22G24G27G31
  23338363.750 6     -2608.921 6    142541.499 6    100834.28047  23338359.80147
        43.750          28.000  
  23487384.680 5     -2595.773 5    140284.261 5    100990.00347  23487380.43847
        42.000          27.500  
  22878545.055 6     -1495.910 6   -236698.457 6   -182693.32347  22878538.05947
        45.250          29.000  
  24433948.836 5      3251.044 5  -1733338.257 5  -1318307.27046  24433941.89846
        39.750          19.750  
  20372424.148 6       632.772 6   -911480.379 6   -682821.99948  20372415.74648
        47.500          40.500  
  21840053.594 7     -1679.763 7   -152909.411 7   -118585.07648  21840045.13348
        48.000          34.000  
  22677031.250 6      -625.622 6   -518755.200 6   -391750.11847  22677022.73047
        44.750          33.000  
  23657049.539 5     -3462.748 5    418680.867 5    305866.07546  23657045.41446
        40.500          22.000  
  20588446.609 7      -386.040 7   -572325.022 7   -429856.92149  20588435.51249
        50.750          42.500  
  25368065.813 2      3420.559 2  -1714959.795 2  -1332111.89246  25368061.62946
        35.500          19.750  
  24944720.586 5     -2479.095 5     91045.783 5     66152.79846  24944714.76246
        39.750          20.500  
  24803417.969 2      3669.340 2  -1787782.453 2  -1388503.06346  24803416.83246
        35.500          22.750  
 11  3 30 18  7 30.0000000  0 12G03G06G09G11G14G18G19G21G22G24G27G31
  23345822.414 5     -2612.856 5    181734.337 5    131374.08747  23345817.93847
        41.750          28.250  
  23494804.297 5     -2599.120 5    179271.061 5    131369.27547  23494799.46947
        42.000          26.500  
  22882844.484 6     -1506.269 6   -214104.425 6   -165087.58147  22882837.43047
        44.750          29.250  
  24424678.375 4      3247.545 4  -1782051.437 4  -1356265.58746  24424672.14146
        39.000          20.250  
  20370640.656 7       624.743 7   -920851.523 7   -690124.19148  20370632.48848
        48.000          40.500  
  21844857.320 7     -1682.765 7   -127667.929 7    -98916.40848  21844848.44948
        47.750          34.750  
  22678842.344 6      -634.529 6   -509237.273 6   -384333.57147  22678833.76647
        45.250          33.000  
  23666942.914 5     -3466.304 5    470675.424 5    346381.21146  23666940.02046
        41.250          21.000  
  20589559.898 7      -389.989 7   -566475.186 7   -425298.61749  20589549.09449
        50.750          42.500  
  25358303.906 2      3420.333 2  -1766264.784 2  -1372089.76045  25358298.31645
        35.500          18.500  
  24951813.281 4     -2484.709 4    128316.414 4     95194.82746  24951807.04746
        38.500          20.250  
  24792940.672 2      3670.391 2  -1842838.311 2  -1431403.68446  24792939.77046
        35.000          21.250  
 11  3 30 18  7 45.0000000  0 12G03G06G09G11G14G18G19G21G22G24G27G31
  23353291.258 6     -2616.677 6    220984.498 6    161958.56847  23353287.01647
        42.500          28.000  
  23502232.125 5     -2602.352 5    218306.346 5    161786.31546  23502227.41446
        41.750          26.000  
  22887173.391 6     -1516.529 6   -191356.493 6   -147361.93247  22887166.10247
        45.000          29.500  
  24415419.188 4      3244.117 4  -1830713.198 4  -1394183.85446  24415412.25046
        38.500          19.500  
  20368880.250 7       616.802 7   -930103.553 7   -697333.55348  20368871.78948
        48.500          40.500  
  21849668.625 6     -1685.694 6   -102382.513 6    -79213.51248  21849660.34048
        46.500          34.500  
  22680678.859 6      -643.345 6   -499587.101 6   -376813.98847  22680670.45747
        42.750          32.500  
  23676848.586 5     -3469.758 5    522721.795 5    386936.75446  23676844.22746
        41.250          21.000  
  20590684.078 7      -393.859 7   -560567.306 7   -420695.08349  20590673.03949
        51.500          41.750  
  25348541.20313      3420.10613  -1817567.34513  -1412065.77355  25348535.84855
        36.000          17.250  
  24958921.102 4     -2490.211 4    165669.585 4    124301.16946  24958914.75046
        38.500          20.250  
  24782460.680 3      3671.505 3  -1897910.893 3  -1474317.32646  24782459.83646
        36.250          22.000  
 11  3 30 18  8  0.0000000  0 12G03G06G09G11G14G18G19G21G22G24G27G31
  23360771.344 5     -2620.582 5    260293.234 5    192588.74046  23360767.10246
        40.250          25.250  
  23509670.430 6     -2605.673 6    257391.443 6    192242.19147  23509665.42647
        43.500          27.750  
  22891532.148 6     -1526.883 6   -168453.243 6   -129515.22947  22891524.91847
        44.000          29.500  
  24406169.445 4      3240.570 4  -1879321.744 4  -1432060.58646  24406162.15646
        39.000          20.000  
  20367142.398 7       608.742 7   -939234.689 7   -704448.71748  20367134.87548
        48.000          41.000  
  21854489.180 7     -1688.730 7    -77051.567 7    -59475.11648  21854480.71948
        48.000          34.500  
  22682541.273 6      -652.271 6   -489803.037 6   -369190.06147  22682532.81347
        44.250          33.000  
  23686763.156 5     -3473.315 5    574821.523 5    427533.83246  23686758.15246
        40.000          21.250  
  20591819.727 7      -397.833 7   -554599.817 7   -416045.10149  20591809.50849
        51.000          42.250  
  25338781.13313      3419.88013  -1868865.68813  -1452038.56055  25338775.01655
        37.000          18.500  
  24966044.531 5     -2495.802 5    203106.617 5    153472.86746  24966039.70346
        39.500          21.000  
  24771978.102 1      3672.483 1  -1952998.132 1  -1517242.38546  24771976.90646
        33.750          21.250  
 11  3 30 18  8 15.0000000  0 12G03G06G09G11G14G18G19G21G22G24G27G31
  23368262.672 5     -2624.387 5    299659.034 5    223263.29147  23368258.43047
        41.000          26.500  
  23517117.055 6     -2608.877 6    296524.598 6    222735.51547  23517112.22747
        44.500          28.500  
  22895918.820 6     -1537.140 6   -145396.137 6   -111548.65847  22895912.41047
        44.000          29.250  
  24396928.859 3      3237.061 3  -1927877.657 3  -1469896.39546  24396922.39146
        36.500          19.500  
  20365427.750 7       600.764 7   -948246.145 7   -711470.61848  20365419.87548
        49.250          41.000  
  21859317.992 7     -1691.686 7    -51676.284 7    -39702.20448  21859309.47348
        48.500          34.000  
  22684427.680 6      -661.106 6   -479886.449 6   -361462.87747  22684419.39547
        44.500          33.250  
  23696687.156 5     -3476.773 5    626973.119 5    468171.33646  23696683.14846
        39.750          21.750  
  20592966.125 7      -401.741 7   -548573.699 7   -411349.42749  20592956.02349
        51.750          42.500  
  25329019.07011      3419.65311  -1920161.05611  -1492009.08455  25329014.12555
        29.500          16.250  
  24973184.516 4     -2501.303 4    240626.158 4    182708.83046  24973179.68846
        38.250          20.000  
  24761492.430 2      3673.520 2  -2008100.932 2  -1560179.59646  24761491.58646
        35.500          20.250  
 11  3 30 18  8 30.0000000  0 12G03G06G09G11G14G18G19G21G22G24G27G31
  23375764.930 5     -2628.203 5    339082.077 5    253982.51647  23375760.80547
        42.000          26.750  
  23524573.008 5     -2612.114 5    335706.310 5    253266.62847  23524568.82447
        41.000          26.500  
  22900336.320 6     -1547.423 6   -122184.787 6    -93461.87847  22900329.67647
        42.750          28.500  
  24387699.570 3      3233.497 3  -1976380.114 3  -1507690.46645  24387692.63345
        37.000          18.500  
  20363735.781 7       592.756 7   -957137.483 7   -718398.93548  20363727.73048
        49.500          41.000  
  21864154.938 6     -1694.673 6    -26256.191 6    -19894.37548  21864146.71148
        47.500          34.500  
  22686340.484 6      -669.967 6   -469836.950 6   -353632.12048  22686332.14148
        45.000          34.750  
  23706621.492 5     -3480.262 5    679177.056 5    508849.62846  23706617.71946
        41.500          22.500  
  20594124.414 7      -405.678 7   -542488.525 7   -406607.75449  20594114.31349
        50.500          41.750  
  25319258.977 3      3419.408 3  -1971452.176 3  -1531976.12145  25319253.68045
        35.750          16.750  
  24980340.313 4     -2506.821 4    278228.473 4    212009.35846  24980335.07446
        39.000          20.500  
  24751004.281 2      3674.491 2  -2063218.296 2  -1603128.10446  24751003.32046
        35.250          20.250  
 11  3 30 18  8 45.0000000  0 12G03G06G09G11G14G18G19G21G22G24G27G31
  23383277.727 5     -2631.982 5    378561.803 5    284745.87247  23383273.07447
        40.500          26.750  
  23532037.711 6     -2615.312 6    374935.986 6    283835.15246  23532033.29346
        43.250          25.250  
  22904782.461 6     -1557.686 6    -98819.493 6    -75255.16347  22904776.05147
        44.000          28.750  
  24378480.188 3      3229.924 3  -2024828.973 3  -1545442.83645  24378473.07445
        37.250          17.250  
  20362066.875 7       584.766 7   -965908.969 7   -725233.84748  20362058.53148
        48.750          41.250  
  21869001.133 7     -1697.670 7      -791.141 7       -51.50148  21868992.90648
        47.750          35.000  
  22688278.023 6      -678.809 6   -459654.822 6   -345698.00548  22688269.68048
        45.500          34.250  
  23716564.758 5     -3483.710 5    731432.699 5    549568.22946  23716561.51246
        41.000          22.500  
  20595293.547 7      -409.603 7   -536344.475 7   -401820.19649  20595283.32849
        51.500          41.750  
  25309498.320 1      3419.133 1  -2022739.179 1  -1571940.06945  25309494.25445
        33.500          17.250  
  24987511.492 5     -2512.320 5    315913.280 5    241374.08746  24987506.25446
        39.500          22.000  
  24740512.875 3      3675.448 3  -2118350.018 3  -1646087.83646  24740511.97346
        36.000          20.500  
 11  3 30 18  9  0.0000000  0 12G03G06G09G11G14G18G19G21G22G24G27G31
  23390800.844 6     -2635.736 6    418097.837 6    315553.10546  23390797.48046
        42.750          25.500  
  23539512.188 6     -2618.487 6    414213.298 6    314440.79146  23539508.29746
        43.000          25.000  
  22909258.047 6     -1567.937 6    -75300.434 6    -56928.64547  22909251.52047
        43.750          28.250  
  24369270.898 3      3226.335 3  -2073223.996 3  -1583153.27045  24369263.60945
        37.000          18.250  
  20360420.477 7       576.777 7   -974560.627 7   -731975.39849  20360411.89849
        48.000          41.500  
  21873855.570 7     -1700.646 7     24718.552 7     19826.15648  21873847.46148
        48.000          35.000  
  22690240.922 6      -687.636 6   -449340.281 6   -337660.73248  22690232.75448
        46.500          34.250  
  23726519.539 5     -3487.150 5    783739.955 5    590327.00546  23726515.00446
        42.000          22.000  
  20596473.906 7      -413.534 7   -530141.458 7   -396986.69149  20596463.39549
        51.000          42.250  
  25299739.898 1      3418.838 1  -2074021.755 1  -1611900.51845  25299735.48045
        28.750          18.250  
  24994698.320 4     -2517.792 4    353680.157 4    270802.76746  24994693.25846
        38.250          22.000  
  24730018.063 3      3676.390 3  -2173495.874 3  -1689058.58546  24730017.57046
        36.000          20.750  
 11  3 30 18  9 15.0000000  0 12G03G06G09G11G14G18G19G21G22G24G27G31
  23398335.672 5     -2639.721 5    457693.658 5    346406.92546  23398331.78146
        40.500          26.000  
  23546996.547 6     -2621.888 6    453541.611 6    345086.16347  23546992.01247
        43.250          27.250  
  22913763.242 6     -1578.419 6    -51624.144 6    -38479.58447  22913756.12947
        44.500          28.250  
  24360072.375 3      3222.479 3  -2121561.181 3  -1620818.58545  24360065.84845
        36.250          17.750  
  20358797.531 6       568.547 6   -983088.835 6   -738620.74448  20358789.30548
        46.250          41.000  
  21878719.047 7     -1703.877 7     50276.701 7     39741.56848  21878711.11348
        49.250          34.500  
  22692229.625 6      -696.699 6   -438889.796 6   -329517.52048  22692221.45748
        46.500          34.000  
  23736483.188 5     -3490.819 5    836102.235 5    631128.69246  23736479.59046
        40.250          22.000  
  20597666.242 7      -417.712 7   -523875.782 7   -392104.36049  20597655.78949
        50.250          42.750  
  25289984.734 1      3418.294 1  -2125296.169 1  -1651854.63445  25289978.32445
        27.500          16.750  
  25001902.234 4     -2523.498 4    391532.628 4    300298.19946  25001896.17646
        38.000          21.500  
  24719522.938 3      3677.053 3  -2228651.676 3  -1732037.06646  24719522.03546
        37.000          21.250  
 11  3 30 18  9 30.0000000  0 12G03G06G09G11G14G18G19G21G22G24G27G31
  23405880.195 5     -2643.169 5    497341.186 5    377301.04547  23405876.36347
        42.000          27.000  
  23554488.336 6     -2624.767 6    492913.112 6    375765.18946  23554484.15246
        42.500          24.500  
  22918297.680 6     -1588.394 6    -27798.232 6    -19913.94547  22918291.09447
        42.750          27.750  
  24350883.664 3      3219.105 3  -2169847.756 3  -1658444.46645  24350876.72745
        36.250          18.250  
  20357196.742 7       560.815 7   -991501.061 7   -745175.72048  20357188.75048
        47.750          41.000  
  21883590.477 7     -1706.605 7     75875.771 7     59688.87448  21883581.89848
        48.750          34.500  
  22694242.734 6      -705.252 6   -428311.015 6   -321274.33748  22694234.27348
        47.000          34.000  
  23746456.211 5     -3493.968 5    888511.754 5    671967.15546  23746452.96546
        40.000          22.000  
  20598869.133 7      -421.396 7   -517554.849 7   -387178.96349  20598858.91449
        50.250          42.000  
  25280224.21111      3419.06311                  -1691807.87055  25280220.67255
        28.250          16.750  
  25009119.719 4     -2528.689 4    429462.959 4    329854.23146  25009113.83646
        38.250          20.500  
  24709023.805 4      3678.193 4  -2283824.574 4  -1775028.86446  24709022.66846
        38.250          21.750  
 11  3 30 18  9 45.0000000  0 11G03G06G09G11G14G18G19G21G22G27G31   
  23413435.539 5     -2646.879 5    537044.376 5    408238.53247  23413431.88347
        41.000          28.000  
  23561989.781 6     -2627.903 6    532331.662 6    406480.88446  23561985.71546
        42.500          25.750  
  22922860.641 6     -1598.637 6     -3818.683 6     -1228.58747  22922854.52347
        43.250          27.750  
  24341705.805 2      3215.425 2  -2218079.129 2  -1696027.38346  24341699.16046
        35.500          19.000  
  20355618.813 7       552.801 7   -999793.079 7   -751637.02848  20355610.35248
        47.750          41.250  
  21888470.352 7     -1709.619 7    101520.062 7     79671.41048  21888462.12548
        48.000          34.750  
  22696281.016 6      -714.081 6   -417599.795 6   -312927.95548  22696272.84848
        46.750          34.000  
  23756439.430 5     -3497.391 5    940972.622 5    712845.64946  23756435.77346
        39.750          21.250  
  20600083.438 7      -425.361 7   -511174.436 7   -382207.22249  20600072.63349
        50.000          42.500  
  25016353.070 3     -2534.136 3    467474.999 3    359473.97846  25016347.36346
        37.250          21.500  
  24698522.352 4      3679.033 4  -2339010.072 4  -1818030.47046  24698521.27346
        38.500          21.500  
 11  3 30 18 10  0.0000000  0 12G03G06G09G11G14G18G19G21G22G24G27G31
  23421001.555 5     -2650.533 5    576802.375 5    439218.73347  23420997.54747
        42.000          26.500  
  23569499.727 5     -2630.984 5    571796.419 5    437232.58647  23569495.71947
        42.000          27.000  
  22927452.492 6     -1608.835 6     20313.844 6     17575.97647  22927445.90647
        43.250          26.500  
  24332537.633 3      3211.744 3  -2266255.283 3  -1733567.24546  24332530.98846
        36.250          19.000  
  20354063.680 6       544.825 6  -1007965.452 6   -758005.10348  20354055.68848
        46.250          41.000  
  21893359.109 7     -1712.603 7    127209.104 7     99688.82148  21893350.47348
        48.750          35.500  
  22698344.047 6      -722.873 6   -406756.707 6   -304478.81148  22698336.17248
        47.000          34.500  
  23766432.430 5     -3500.766 5    993484.108 5    753763.60846  23766428.65646
        40.000          21.750  
  20601308.438 7      -429.300 7   -504734.941 7   -377189.45149  20601298.27749
        48.250          42.500  
  25260716.53111      3417.62511                                
        31.250  
  25023602.188 3     -2539.547 3    505568.211 3    389156.95446  25023596.77346
        36.750          21.000  
  24688019.008 4      3679.881 4  -2394208.283 4  -1861041.97446  24688017.34446
        38.750          22.250  
 11  3 30 18 10 15.0000000  0 11G03G06G09G11G14G18G19G21G22G27G31   
  23428577.391 5     -2654.143 5    616614.523 5    470241.12747  23428573.38347
        42.000          27.250  
  23577018.641 6     -2634.017 6    611306.678 6    468019.72647  23577013.93047
        42.500          26.750  
  22932073.836 6     -1618.991 6     44598.704 6     36499.23247  22932067.01647
        43.750          28.500  
  24323380.898 3      3208.084 3  -2314376.540 3  -1771064.32446  24323374.31346
        36.500          19.750  
  20352531.180 6       536.873 6  -1016018.542 6   -764280.23049  20352522.95349
        46.250          41.500  
  21898255.719 7     -1715.572 7    152942.690 7    119740.94048  21898247.60948
        48.500          35.000  
  22700433.008 6      -731.630 6   -395782.251 6   -295927.30848  22700424.84048
        46.500          34.500  
  23776434.391 5     -3504.099 5   1046045.591 5    794720.48546  23776430.32446
        39.750          20.750  
  20602545.133 7      -433.220 7   -498236.648 7   -372125.84749  20602534.62149
        49.000          42.250  
  25030866.703 3     -2544.911 3    543741.881 3    418902.62646  25030860.93846
        37.250          20.000  
  24677512.609 4      3680.725 4  -2449419.155 4  -1904063.37146  24677510.94546
        39.000          24.000  
 11  3 30 18 10 30.0000000  0 11G03G06G09G11G14G18G19G21G22G27G31   
  23436163.688 5     -2657.753 5    656480.818 5    501305.69747  23436160.03147
        42.000          27.750  
  23584545.148 6     -2637.061 6    650862.591 6    498842.46146  23584541.02346
        42.500          26.000  
  22936724.414 6     -1629.170 6     69036.253 6     55541.48147  22936717.82847
        43.000          27.500  
  24314234.227 3      3204.352 3  -2362441.825 3  -1808517.77346  24314227.75846
        36.500          19.500  
  20351021.297 6       528.900 6  -1023952.037 6   -770462.17048  20351013.12948
        47.500          41.250  
  21903161.563 7     -1718.567 7    178721.188 7    139828.06348  21903153.16048
        48.250          34.750  
  22702546.031 6      -740.402 6   -384676.218 6   -287273.27648  22702537.92248
        46.000          34.000  
  23786446.063 5     -3507.455 5   1098657.416 5    835716.59746  23786442.40646
        39.500          19.500  
  20603793.156 7      -437.160 7   -491679.247 7   -367016.19549  20603782.41049
        50.250          42.250  
  25038145.648 3     -2550.291 3    581996.249 3    448711.19046  25038140.87946
        37.000          20.250  
  24667004.305 5      3681.518 5  -2504641.924 5  -1947093.93946  24667002.11346
        39.750          22.500  
 11  3 30 18 10 45.0000000  0 12G03G06G09G11G14G18G19G21G22G24G27G31
  23443759.500 6     -2661.155 6    696398.148 6    532410.05647  23443756.19547
        42.750          28.500  
  23592081.008 5     -2639.893 5    690460.988 5    529698.27746  23592076.88346
        41.500          26.000  
  22941403.961 5     -1639.157 5     93623.606 5     74700.44347  22941396.49647
        42.250          28.250  
  24305098.367 4      3200.801 4  -2410453.833 4  -1845929.73046  24305091.07846
        37.500          19.500  
  20349534.281 7       521.109 7  -1031768.672 7   -776553.05148  20349526.05548
        47.750          41.000  
  21908075.422 6     -1721.383 6    204541.929 6    159948.09348  21908066.43448
        47.500          34.500  
  22704683.867 6      -748.979 6   -373441.530 6   -278518.98748  22704675.64148
        45.500          34.000  
  23796467.031 4     -3510.604 4   1151316.479 4    876749.52546  23796462.73046
        38.500          20.750  
  20605051.555 7      -440.925 7   -485065.370 7   -361862.53949  20605040.80949
        50.750          42.500  
  25231457.57012      3416.18812    433758.28912                
        34.000  
  25045440.445 3     -2555.473 3    620328.339 3    478580.30846  25045435.03146
        36.750          21.000  
  24656493.195 5      3682.462 5  -2559878.856 5  -1990135.60846  24656491.12146
        40.500          22.250  
 11  3 30 18 11  0.0000000  0 12G03G06G09G11G14G18G19G21G22G24G27G31
  23451366.859 6     -2664.849 6    736370.884 6    563557.56647  23451362.73447
        42.500          28.250  
  23599624.930 6     -2643.028 6    730106.412 6    560590.75646  23599620.98046
        42.500          26.000  
  22946110.750 6     -1649.448 6    118365.326 6     93979.71047  22946105.04347
        43.500          28.250  
  24295972.547 4      3196.898 4  -2458407.302 4  -1883296.07046  24295966.19546
        37.500          20.000  
  20348069.992 6       513.002 6  -1039463.702 6   -782549.17249  20348061.29749
        45.750          42.000  
  21912997.305 6     -1724.509 6    230409.567 6    180104.67648  21912989.13748
        47.500          34.500  
  22706847.344 6      -757.876 6   -362073.393 6   -269660.72248  22706839.23448
        45.000          34.000  
  23806497.352 5     -3514.060 5   1204027.385 5    917822.85146  23806493.87146
        39.750          20.250  
  20606321.703 7      -445.008 7   -478390.242 7   -356661.14649  20606311.48449
        48.000          42.000  
  25221706.508 2      3415.989 2    382518.456 2                
        34.500  
  25052750.539 3     -2560.950 3    658742.588 3    508513.42546  25052744.89146
        36.500          19.000  
  24645979.242 5      3683.070 5  -2615124.901 5  -2033184.37546  24645977.69546
        40.750          23.000  
 11  3 30 18 11 15.0000000  0 12G03G06G09G11G14G18G19G21G22G24G27G31
  23458984.141 5     -2668.409 5    776397.018 5    594746.69647  23458979.19547
        41.250          28.000  
  23607177.547 5     -2646.020 5    769796.707 5    591518.18846  23607173.65646
        42.000          26.000  
  22950848.891 6     -1659.601 6    143259.338 6    113377.63147  22950841.89547
        44.750          27.750  
  24286858.539 4      3193.099 4  -2506303.787 4  -1920617.99346  24286851.71946
        37.750          20.750  
  20346628.492 6       505.024 6  -1047039.060 6   -788452.03949  20346619.56349
        47.000          41.500  
  21917928.484 6     -1727.519 6    256322.346 6    200296.42648  21917920.08248
        47.000          35.250  
  22709035.969 6      -766.633 6   -350573.893 6   -260700.09647  22709027.33247
        45.500          33.500  
  23816538.070 4     -3517.382 4   1256788.115 4    958934.96846  23816533.77046
        38.500          19.750  
  20607603.320 7      -448.973 7   -471655.647 7   -351413.42249  20607593.04349
        49.500          42.500  
  25211956.391 2      3415.530 2    331285.502 2                
        34.250  
  25060074.820 2     -2566.292 2    697236.962 2    538509.03045  25060069.81645
        35.250          18.250  
  24635464.680 5      3683.775 5  -2670381.523 5  -2076241.39246  24635462.60546
        41.250          24.000  
 11  3 30 18 11 30.0000000  0 12G03G06G09G11G14G18G19G21G22G24G27G31
  23466609.477 5     -2671.917 5    816475.780 5    625976.83747  23466606.23047
        41.500          27.500  
  23614739.023 5     -2648.969 5    809531.240 5    622480.09946  23614735.89546
        41.500          26.000  
  22955615.180 6     -1669.724 6    168305.205 6    132893.88347  22955608.65247
        43.750          27.500  
  24277755.211 4      3189.302 4  -2554143.314 4  -1957895.54946  24277748.21546
        38.750          21.250  
  20345209.500 6       497.066 6  -1054495.048 6   -794261.89249  20345200.98049
        46.750          41.750  
  21922867.977 7     -1730.515 7    282280.074 7    220523.20748  21922859.45748
        48.000          35.000  
  22711248.945 6      -775.361 6   -338943.472 6   -251637.44648  22711240.71948
        46.250          34.250  
  23826586.859 4     -3520.669 4   1309598.152 4   1000085.55846  23826583.32046
        39.000          19.000  
  20608896.391 7      -452.926 7   -464861.762 7   -346119.49149  20608885.82049
        49.250          43.000  
  25202208.391 3      3415.077 3    280059.345 3                
        36.000  
  25067415.750 2     -2571.597 2    735810.910 2    568566.59045  25067410.92245
        35.250          18.500  
  24624947.539 5      3684.472 5  -2725648.607 5  -2119306.59046  24624945.69946
        41.500          22.750  
 11  3 30 18 11 45.0000000  0 12G03G06G09G11G14G18G19G21G22G24G27G31
  23474247.016 6     -2675.361 6    856606.196 6    657247.22147  23474243.06647
        42.500          27.500  
  23622309.016 5     -2651.863 5    849309.188 5    653475.83946  23622304.65646
        41.500          26.250  
  22960408.820 6     -1679.807 6    193502.307 6    152527.97547  22960402.76247
        42.500          28.500  
  24268662.430 4      3185.507 4  -2601925.926 4  -1995128.76246  24268655.19946
        38.000          21.500  
  20343813.023 7       489.130 7  -1061831.999 7   -799978.99549  20343804.79749
        48.500          41.500  
  21927816.078 7     -1733.482 7    308282.307 7    240784.66448  21927807.55948
        48.000          35.250  
  22713486.938 6      -784.052 6   -327182.698 6   -242473.23148  22713478.59448
        46.000          34.250  
  23836646.289 5     -3523.908 5   1362456.778 5   1041274.01046  23836642.22346
        39.500          19.500  
  20610200.281 7      -456.855 7   -458008.931 7   -340779.63049  20610190.06349
        50.500          42.750  
  25192462.195 3      3414.639 3    228839.760 3                
        36.000  
  25074772.016 3     -2576.859 3    774463.789 3    598685.67845  25074765.84045
        36.750          18.250  
  24614427.852 5      3685.168 5  -2780926.133 5  -2162379.87646  24614426.30546
        41.750          22.750  
 11  3 30 18 12  0.0000000  0 12G03G06G09G11G14G18G19G21G22G24G27G31
  23481893.289 5     -2678.815 5    896788.421 5    688557.98547  23481889.69147
        41.000          28.250  
  23629886.094 5     -2654.758 5    889130.558 5    684505.40846  23629882.49646
        40.250          26.000  
  22965233.813 5     -1689.887 5    218850.616 5    172279.89747  22965226.28947
        40.500          28.250  
  24259580.398 5      3181.678 5  -2649651.103 5  -2032317.20646  24259573.57846
        39.250          21.750  
  20342439.891 7       481.183 7  -1069049.751 7   -805603.20949  20342431.84049
        48.500          41.500  
  21932772.883 6     -1736.473 6    334329.404 6    261081.07648  21932764.42248
        46.500          35.250  
  22715749.352 6      -792.758 6   -315291.326 6   -233207.25247  22715741.41847
        46.000          33.500  
  23846714.781 5     -3527.159 5   1415364.157 5   1082500.37946  23846710.01246
        39.500          19.750  
  20611515.492 7      -460.804 7   -451096.872 7   -335393.62049  20611505.03949
        50.750          42.250  
  25182716.977 2      3414.168 2    177627.243 2                
        35.500  
  25082140.609 2     -2582.115 2    813195.519 2    628866.18146  25082136.36746
        35.000          19.000  
  24603907.266 5      3685.826 5  -2836213.518 5  -2205460.85646  24603905.48446
        42.250          22.000  
 11  3 30 18 12 15.0000000  0 12G03G06G09G11G14G18G19G21G22G24G27G31
  23489549.563 5     -2682.244 5    937022.088 5    719908.83947  23489545.37947
        40.750          27.500  
  23637472.453 5     -2657.622 5    928994.892 5    715568.46247  23637468.21147
        40.500          26.500  
  22970085.406 5     -1699.958 5    244349.982 5    192149.51747  22970079.23047
        40.750          27.750  
  24250509.656 5      3177.818 5  -2697318.366 5  -2069460.52146  24250503.12946
        39.500          21.750  
  20341088.773 6       473.245 6  -1076148.433 6   -811134.64248  20341080.37148
        47.250          41.250  
  21937737.438 6     -1739.467 6    360421.413 6    281412.48348  21937729.56348
        46.250          35.000  
  22718037.133 6      -801.447 6   -303269.617 6   -223839.70948  22718029.02348
        47.000          34.000  
  23856791.047 4     -3530.391 4   1468320.029 4   1123764.61946  23856787.03946
        38.000          19.750  
  20612842.375 7      -464.749 7   -444125.636 7   -329961.49349  20612831.80549
        50.750          42.000  
  25172972.094 3      3413.672 3    126422.164 3                
        37.250  
  25089526.867 2     -2587.361 2    852005.941 2    659108.02245  25089522.03945
        35.500          18.250  
  24593384.922 5      3686.470 5  -2891510.566 5  -2248549.35846  24593382.49646
        42.250          23.000  
 11  3 30 18 12 30.0000000  0 12G03G06G09G11G14G18G19G21G22G24G27G31
  23497215.164 5     -2685.666 5    977307.072 5    751299.67747  23497212.56347
        42.000          28.000  
  23645066.695 5     -2660.484 5    968902.147 5    746664.96147  23645063.03947
        42.000          27.000  
  22974966.703 5     -1710.028 5    270000.404 5    212136.83447  22974959.94147
        41.250          27.500  
  24241449.492 5      3173.933 5  -2744927.360 5  -2106558.42546  24241443.60946
        40.000          21.250  
  20339760.508 6       465.301 6  -1083127.947 6   -816573.22048  20339752.22348
        46.500          41.000  
  21942711.953 7     -1742.465 7    386558.386 7    301778.93448  21942703.66848
        48.000          34.500  
  22720350.063 6      -810.139 6   -291117.531 6   -214370.57348  22720341.77748
        47.000          34.500  
  23866878.531 5     -3533.620 5   1521324.335 5   1165066.52746  23866874.23046
        40.250          20.500  
  20614180.141 7      -468.707 7   -437095.032 7   -324483.11749  20614169.86349
        49.500          42.000  
  25163230.094 3      3413.156 3     75224.818 3                
        36.500  
  25096926.531 3     -2592.588 3    890894.757 3    689410.95345  25096921.58645
        36.000          18.250  
  24582859.758 6      3687.067 6  -2946816.569 6  -2291644.83946  24582857.74246
        43.250          22.000  
 11  3 30 18 12 45.0000000  0 12G03G06G09G11G14G18G19G21G22G24G27G31
  23504891.867 6     -2689.026 6   1017642.467 6    782729.78447  23504887.85947
        42.750          28.000  
  23652669.211 5     -2663.276 5   1008851.288 5    777794.08847  23652664.79347
        42.250          27.500  
  22979876.797 5     -1720.052 5    295801.190 5    232241.33047  22979870.09447
        41.750          27.750  
  24232401.813 5      3170.063 5  -2792478.300 5  -2143611.10346  24232394.75846
        40.250          22.750  
  20338455.211 6       457.389 6  -1089988.787 6   -821919.32149  20338446.57449
        47.500          41.750  
  21947694.086 7     -1745.426 7    412739.778 7    322179.98648  21947685.27348
        49.000          34.500  
  22722686.891 6      -818.780 6   -278835.832 6   -204800.43848  22722678.60548
        46.500          34.250  
  23876973.234 5     -3536.796 5   1574376.275 5   1206405.60546  23876969.52046
        39.500          19.500  
  20615529.477 7      -472.635 7   -430005.510 7   -318958.82149  20615518.90649
        50.500          41.750  
  25153488.961 4      3412.660 4     24034.915 4                
        38.000  
  25104342.945 2     -2597.771 2    929861.319 2    719774.45745  25104336.82845
        34.500          18.500  
  24572333.883 6      3687.676 6  -3002131.708 6  -2334747.41946  24572332.10246
        42.750          23.000  
 11  3 30 18 13  0.0000000  0 12G03G06G09G11G14G18G19G21G22G24G27G31
  23512576.141 6     -2692.397 6   1058028.419 6    814199.28847  23512572.54347
        43.000          28.250  
  23660278.563 6     -2666.092 6   1048842.662 6    808956.13947  23660275.14147
        42.500          26.750  
  22984814.641 5     -1730.099 5    321752.677 5    252463.24647  22984808.28947
        42.000          26.500  
  24223363.820 5      3166.117 5  -2839970.057 5  -2180617.65446  24223356.64846
        40.750          22.750  
  20337172.117 7       449.445 7  -1096730.455 7   -827172.56648  20337163.77348
        49.000          41.250  
  21952684.656 7     -1748.421 7    438966.086 7    342616.05148  21952676.02048
        48.250          35.500  
  22725049.086 6      -827.449 6   -266424.104 6   -195128.98248  22725040.62548
        46.500          34.500  
  23887077.656 5     -3539.995 5   1627476.201 5   1247782.07246  23887074.46946
        40.000          19.250  
  20616889.813 7      -476.603 7   -422856.463 7   -313388.14149  20616879.18449
        51.250          42.750  
  25143750.023 4      3412.105 4    -27146.661 4                
        38.750  
  25111773.438 1     -2602.973 1    968905.906 1    750198.75246  25111766.73446
        33.500          19.250  
  24561806.492 6      3688.225 6  -3057455.090 6  -2377856.46146  24561804.41846
        43.000          22.500  
 11  3 30 18 13 15.0000000  0 12G03G06G09G11G14G18G19G21G22G24G27G31
  23520271.445 5     -2695.697 5   1098463.869 5    845707.38547  23520267.55547
        42.250          28.500  
  23667897.156 5     -2668.847 5   1088875.362 5    840150.38046  23667893.09046
        42.250          26.250  
  22989781.703 6     -1740.095 6    347854.096 6    272801.98947  22989775.35247
        43.000          28.500  
  24214337.617 5      3162.190 5  -2887402.901 5  -2217578.31846  24214331.44146
        41.500          22.000  
  20335911.992 7       441.537 7  -1103353.513 7   -832333.38249  20335903.82449
        48.500          41.750  
  21957684.109 7     -1751.399 7    465237.071 7    363086.92548  21957675.53148
        48.250          35.250  
  22727435.891 6      -836.078 6   -253882.928 6   -185356.65948  22727427.13748
        46.500          34.500  
  23897191.836 5     -3543.147 5   1680623.402 5   1289195.37046  23897187.77046
        41.500          19.250  
  20618261.289 7      -480.536 7   -415648.420 7   -307771.49549  20618250.60249
        51.250          42.250  
  25134011.609 4      3411.571 4    -78320.220 4                
        39.000  
  25119217.125 1     -2608.123 1   1008027.758 1    780683.27345  25119211.59445
        33.500          16.750  
  24551277.391 6      3688.781 6  -3112786.806 6  -2420971.97546  24551275.14146
        43.750          22.500  
 11  3 30 18 13 30.0000000  0 12G03G06G09G11G14G18G19G21G22G24G27G31
  23527975.539 6     -2698.997 6   1138948.827 6    877254.05047  23527971.23847
        42.500          29.000  
  23675522.516 6     -2671.596 6   1128949.298 6    871376.74146  23675519.03546
        43.000          26.000  
  22994776.984 6     -1750.088 6    374105.421 6    293257.52347  22994770.80947
        43.250          28.000  
  24205322.953 5      3158.247 5  -2934776.600 5  -2254492.88346  24205316.36746
        40.750          22.500  
  20334674.125 7       433.627 7  -1109857.925 7   -837401.75448  20334666.25048
        48.750          41.000  
  21962691.773 7     -1754.392 7    491552.949 7    383592.78148  21962683.13748
        48.000          34.750  
  22729846.234 6      -844.701 6   -241212.420 6   -175483.56048  22729838.30148
        47.250          34.750  
  23907314.461 5     -3546.286 5   1733817.691 5   1330645.33946  23907310.62946
        40.500          20.500  
  20619644.352 7      -484.485 7   -408381.142 7   -302108.68449  20619633.78149
        51.000          42.250  
  25124274.945 4      3411.012 4   -129485.393 4                
        39.000  
  25126676.477 2     -2613.268 2   1047226.774 2    811227.93345  25126670.53545
        34.750          18.250  
  24540746.016 6      3689.313 6  -3168126.496 6  -2464093.74246  24540743.64846
        43.500          22.000  
 11  3 30 18 13 45.0000000  0 12G03G06G09G11G14G18G19G21G22G24G27G31
  23535688.703 6     -2702.253 6   1179482.621 6    908838.75347  23535684.22747
        43.750          28.250  
  23683156.727 6     -2674.298 6   1169063.768 6    902634.70347  23683152.30947
        44.000          27.500  
  22999800.695 6     -1760.045 6    400506.093 6    313829.45347  22999794.75447
        43.250          27.250  
  24196319.773 5      3154.292 5  -2982090.979 5  -2291361.22246  24196312.95346
        41.250          22.250  
  20333458.813 7       425.741 7  -1116244.037 7   -842377.94048  20333450.52748
        49.000          40.750  
  21967708.016 7     -1757.359 7    517913.341 7    404133.33148  21967699.26248
        48.750          35.000  
  22732282.039 6      -853.293 6   -228413.018 6   -165510.01848  22732274.22348
        46.500          34.500  
  23917445.836 5     -3549.401 5   1787058.712 5   1372131.75146  23917441.94546
        41.250          21.250  
  20621038.547 7      -488.417 7   -401054.893 7   -296399.92849  20621027.62549
        51.000          42.250  
  25114540.117 5      3410.454 5   -180642.204 5                
        40.000  
  25134150.469 2     -2618.380 2   1086502.469 2    841832.32145  25134144.64545
        34.750          18.250  
  24530213.641 6      3689.821 6  -3223473.804 6  -2507221.43046  24530210.86346
        43.500          22.500  
 11  3 30 18 14  0.0000000  0 12G03G06G09G11G14G18G19G21G22G24G27G31
  23543411.734 6     -2705.535 6   1220065.645 6    940461.82447  23543407.37547
        43.750          28.500  
  23690798.055 6     -2677.025 6   1209219.141 6    933924.54047  23690793.98847
        43.500          27.000  
  23004853.016 6     -1770.050 6    427056.839 6    334518.31547  23004846.95747
        43.000          28.250  
  24187327.508 5      3150.264 5  -3029344.943 5  -2328182.48946  24187321.03946
        40.750          22.500  
  20332266.227 7       417.798 7  -1122511.004 7   -847261.27648  20332258.17648
        49.000          41.000  
  21972732.734 7     -1760.386 7    544319.136 7    424709.25348  21972724.39148
        48.750          34.250  
  22734742.453 6      -861.933 6   -215484.030 6   -155435.49748  22734734.93048
        46.750          34.250  
  23927586.758 5     -3552.550 5   1840346.965 5   1413654.92746  23927582.04746
        41.500          22.000  
  20622443.969 7      -492.404 7   -393668.827 7   -290644.55849  20622433.22349
        51.250          42.500  
  25104807.328 5      3409.823 5   -231789.553 5                
        41.250  
  25141639.898 2     -2623.519 2   1125855.254 2    872496.78246  25141633.07846
        35.500          19.500  
  24519680.609 6      3690.266 6  -3278827.787 6  -2550354.31246  24519678.00846
        43.250          22.500  
 11  3 30 18 14 15.0000000  0 12G03G06G09G11G14G18G19G21G22G24G27G31
  23551143.305 6     -2708.710 6   1260696.291 6    972122.00447  23551139.06347
        43.000          28.500  
  23698446.750 6     -2679.666 6   1249414.127 6    965245.24447  23698443.38747
        43.500          27.500  
  23009934.195 6     -1779.956 6    453756.183 6    355322.98047  23009927.72747
        43.000          27.750  
  24178346.148 5      3146.288 5  -3076539.262 5  -2364957.28146  24178339.73846
        41.000          22.500  
  20331096.180 7       409.940 7  -1128660.108 7   -852052.78748  20331088.12948
        49.250          41.250  
  21977766.219 7     -1763.333 7    570769.138 7    445319.63648  21977757.64148
        48.500          34.500  
  22737227.633 6      -870.489 6   -202426.698 6   -145260.97548  22737219.05548
        46.500          34.500  
  23937735.484 5     -3555.609 5   1893681.092 5   1455213.88246  23937731.65246
        41.750          20.750  
  20623860.750 7      -496.318 7   -386224.060 7   -284843.44349  20623850.12149
        51.500          42.000  
  25095075.891 5      3409.249 5   -282928.285 5                
        41.250  
  25149142.156 2     -2628.570 2   1165283.801 2    903220.26045  25149136.62545
        34.750          18.250  
  24509145.039 6      3690.756 6  -3334189.121 6  -2593492.91846  24509142.49646
        43.500          21.250  
 11  3 30 18 14 30.0000000  0 12G03G06G09G11G14G18G19G21G22G24G27G31
  23558884.336 6     -2711.927 6   1301375.195 6   1003819.79347  23558880.38747
        44.500          28.250  
  23706103.000 6     -2682.348 6   1289649.340 6    996597.29547  23706099.93047
        43.500          28.000  
  23015043.320 5     -1789.915 5    480604.913 5    376244.03547  23015037.26247
        42.250          29.250  
  24169377.195 5      3142.225 5  -3123672.640 5  -2401684.58346  24169370.55146
        40.750          22.500  
  20329948.500 7       402.017 7  -1134690.357 7   -856751.67548  20329940.03948
        48.000          41.000  
  21982807.703 7     -1766.354 7    597264.449 7    465965.30048  21982799.82848
        48.500          34.000  
  22739736.680 6      -879.099 6   -189240.207 6   -134985.80748  22739728.62948
        46.500          34.250  
  23947893.750 5     -3558.720 5   1947061.888 5   1496809.20946  23947889.91846
        41.000          22.750  
  20625288.734 7      -500.296 7   -378719.619 7   -278995.83949  20625278.04749
        51.250          42.250  
  25085346.234 5      3408.594 5   -334057.195 5                
        40.500  
  25156659.836 2     -2633.674 2   1204788.906 2    934003.44246  25156654.65646
        35.500          19.000  
  24498609.148 6      3691.156 6  -3389556.454 6  -2636636.22646  24498606.07846
        43.000          22.000  
 11  3 30 18 14 45.0000000  0 12G03G06G09G11G14G18G19G21G22G24G27G31
  23566634.398 6     -2715.103 6   1342101.744 6   1035554.70347  23566629.57047
        43.750          28.000  
  23713767.594 6     -2684.984 6   1329924.100 6   1027980.16747  23713763.17647
        43.500          27.000  
  23020180.883 5     -1799.837 5    507602.472 5    397281.07947  23020174.53147
        40.750          28.250  
  24160419.195 5      3138.156 5  -3170744.977 5  -2438364.32046  24160412.96146
        40.750          22.500  
  20328823.852 7       394.117 7  -1140602.108 7   -861358.23248  20328815.21548
        48.250          41.000  
  21987858.328 6     -1769.335 6    623804.480 6    486645.83048  21987849.57448
        47.500          34.000  
  22742270.336 6      -887.667 6   -175925.206 6   -124610.49648  22742262.05148
        46.000          35.000  
  23958060.836 5     -3561.782 5   2000488.622 5   1538440.30946  23958056.82846
        41.000          22.750  
  20626728.148 7      -504.264 7   -371155.656 7   -273101.84549  20626717.69549
        52.000          42.000  
  25075618.555 5      3407.937 5   -385176.249 5  -2390568.47356  25075606.69556
        41.000          19.250  
  25164191.609 3     -2638.740 3   1244370.000 3    964845.80445  25164186.13745
        36.000          18.500  
  24488072.117 6      3691.549 6  -3444929.696 6  -2679784.10946  24488069.51646
        42.750          22.500  
 11  3 30 18 15  0.0000000  0 12G03G06G09G11G14G18G19G21G22G24G27G31
  23574392.977 6     -2718.226 6   1382875.137 6   1067326.11347  23574389.55547
        44.000          28.000  
  23721438.930 6     -2687.552 6   1370237.385 6   1059393.04646  23721435.09846
        43.000          25.750  
  23025347.016 5     -1809.715 5    534748.203 5    418433.56247  23025341.13347
        40.750          28.500  
  24151473.234 5      3134.107 5  -3217756.587 5  -2474996.71346  24151466.82446
        40.250          22.500  
  20327720.992 7       386.262 7  -1146396.035 7   -865872.97448  20327712.70748
        48.250          41.000  
  21992917.164 6     -1772.296 6    650388.925 6    507360.96248  21992908.87948
        46.500          34.500  
  22744828.508 6      -896.198 6   -162482.241 6   -114135.47847  22744820.39847
        46.250          33.500  
  23968236.344 5     -3564.800 5   2053960.622 5   1580106.69746  23968232.80546
        40.500          22.500  
  20628178.742 7      -508.198 7   -363532.690 7   -267161.87849  20628168.40649
        51.250          42.000  
  25065892.773 5      3407.303 5   -436285.794 5  -2430394.10745  25065884.89845
        41.500          17.750  
  25171739.391 4     -2643.742 4   1284026.126 4    995746.69146  25171732.51246
        39.000          19.500  
  24477533.563 6      3691.954 6  -3500309.007 6  -2722936.73346  24477531.02046
        42.750          21.750  
 11  3 30 18 15 15.0000000  0 12G03G06G09G11G14G18G19G21G22G24G27G31
  23582160.758 6     -2721.351 6   1423695.395 6   1099134.04647  23582157.04347
        43.000          28.250  
  23729117.641 5     -2690.144 5   1410589.538 5   1090836.20647  23729113.80947
        42.000          28.000  
  23030540.125 5     -1819.606 5    562042.298 5    439701.65147  23030533.89147
        41.000          27.250  
  24142539.469 5      3130.006 5  -3264706.672 5  -2511581.20046  24142532.70746
        40.500          22.500  
  20326641.180 7       378.376 7  -1152071.676 7   -870295.55148  20326633.01248
        48.000          41.250  
  21997984.711 6     -1775.287 6    677018.235 6    528111.04748  21997976.30948
        47.500          33.750  
  22747411.313 6      -904.747 6   -148911.032 6   -103560.53148  22747403.20348
        46.500          34.000  
  23978420.680 5     -3567.844 5   2107478.279 5   1621808.64046  23978416.55546
        41.250          22.750  
  20629640.695 7      -512.160 7   -355850.292 7   -261175.60349  20629630.24249
        52.000          42.250  
  25056169.281 5      3406.629 5   -487385.228 5  -2470211.87846  25056162.93046
        40.500          19.250  
  25179299.031 4     -2648.764 4   1323757.589 4   1026706.23146  25179293.44146
        37.500          19.000  
  24466994.625 6      3692.312 6  -3555693.687 6  -2766093.52646  24466991.43846
        43.000          21.250  
 11  3 30 18 15 30.0000000  0 12G03G06G09G11G14G18G19G21G22G24G27G31
  23589938.438 5     -2724.450 5   1464562.146 5   1130978.19947  23589933.60947
        42.000          27.000  
  23736803.516 5     -2692.708 5   1450980.165 5   1122309.36847  23736800.09447
        40.250          27.000  
  23035762.531 6     -1829.486 6    589484.593 6    461085.25447  23035756.47347
        43.000          28.000  
  24133616.930 5      3125.875 5  -3311594.798 5  -2548117.38746  24133610.63746
        41.000          23.000  
  20325583.508 7       370.498 7  -1157629.140 7   -874626.04148  20325575.16448
        48.000          41.250  
  22003060.273 7     -1778.295 7    703692.667 7    548896.30248  22003052.28148
        48.000          34.250  
  22750017.867 6      -913.290 6   -135211.686 6    -92885.73448  22750009.87548
        46.000          34.500  
  23988612.664 5     -3570.870 5   2161041.325 5   1663545.96446  23988609.30146
        40.750          22.000  
  20631113.797 7      -516.120 7   -348108.491 7   -255143.03349  20631103.40249
        51.500          42.750  
  25046447.281 5      3405.933 5   -538474.222 5  -2510021.48246  25046442.04346
        40.250          19.750  
  25186874.375 4     -2653.776 4   1363564.226 4   1057724.35646  25186868.19946
        38.500          19.000  
  24456453.797 5      3692.631 5  -3611083.147 5  -2809254.05046  24456451.13746
        41.750          22.250  
 11  3 30 18 15 45.0000000  0 12G03G06G09G11G14G18G19G21G22G24G27G31
  23597723.336 5     -2727.511 5   1505474.812 5   1162858.13647  23597719.38747
        41.750          27.000  
  23744497.539 5     -2695.227 5   1491408.577 5   1153811.96147  23744493.29747
        40.000          26.500  
  23041012.852 6     -1839.332 6    617074.572 6    482583.92447  23041006.26647
        43.250          28.000  
  24124706.047 5      3121.767 5  -3358421.299 5  -2584605.57346  24124699.57846
        40.250          22.000  
  20324548.625 7       362.634 7  -1163068.654 7   -878864.61548  20324539.98848
        48.500          41.250  
  22008144.914 7     -1781.266 7    730411.658 7    569716.27448  22008136.51248
        48.000          34.500  
  22752649.188 6      -921.787 6   -121384.882 6    -82111.61948  22752641.19548
        45.750          34.500  
  23998814.547 5     -3573.846 5   2214649.019 5   1705318.08346  23998811.06646
        42.000          23.500  
  20632598.539 7      -520.062 7   -340307.556 7   -249064.38749  20632588.02749
        51.250          42.500  
  25036727.648 5      3405.239 5   -589552.802 5  -2549822.99446  25036722.46946
        40.500          19.000  
  25194463.133 4     -2658.743 4   1403445.366 4   1088800.53245  25194457.07445
        38.500          18.250  
  24445912.414 6      3692.957 6  -3666477.509 6  -2852418.35746  24445909.63746
        42.500          21.500  
 11  3 30 18 16  0.0000000  0 12G03G06G09G11G14G18G19G21G22G24G27G31
  23605517.258 6     -2730.546 6   1546433.001 6   1194773.53647  23605513.60247
        42.500          26.750  
  23752197.586 5     -2697.732 5   1531874.564 5   1185343.82347  23752193.63747
        40.500          26.750  
  23046290.664 6     -1849.167 6    644812.074 6    504197.53047  23046284.48847
        43.000          28.750  
  24115807.102 5      3117.612 5  -3405185.483 5  -2621045.18246  24115800.28146
        40.500          22.000  
  20323535.797 7       354.778 7  -1168390.325 7   -883011.37448  20323527.27748
        47.750          41.250  
  22013237.898 7     -1784.242 7    757175.291 7    590571.02148  22013229.73048
        48.250          33.750  
  22755304.992 6      -930.289 6   -107430.551 6    -71238.13548  22755296.59048
        46.250          34.500  
  24009024.055 5     -3576.827 5   2268301.424 5   1747125.02046  24009020.86746
        40.750          22.250  
  20634093.984 7      -524.024 7   -332447.195 7   -242939.44249  20634083.64849
        51.250          42.500  
  25027009.547 5      3404.519 5   -640620.593 5  -2589616.10246  25027004.77746
        40.250          20.500  
  25202066.266 3     -2663.698 3   1443400.842 3   1119934.64546  25202060.50046
        37.000          19.250  
  24435369.953 5      3693.250 5  -3721876.264 5  -2895586.11146  24435367.64546
        41.500          22.250  
 11  3 30 18 16 15.0000000  0 12G03G06G09G11G14G18G19G21G22G24G27G31
  23613320.391 6     -2733.574 6   1587436.607 6   1226724.34447  23613316.09047
        43.000          27.000  
  23759905.398 5     -2700.231 5   1572378.030 5   1216904.89346  23759901.74246
        42.000          25.750  
  23051597.313 5     -1859.002 5    672697.106 5    525926.11147  23051591.13747
        42.000          28.250  
  24106919.844 5      3113.419 5  -3451886.762 5  -2657435.77046  24106913.25846
        40.250          21.500  
  20322545.688 7       346.911 7  -1173593.989 7   -887066.17049  20322537.05149
        48.000          41.750  
  22018339.734 7     -1787.237 7    783983.851 7    611460.78648  22018331.03948
        47.750          34.000  
  22757984.422 6      -938.801 6    -93348.534 6    -60265.15348  22757976.43048
        45.250          35.250  
  24019242.492 5     -3579.806 5   2321998.516 5   1788966.79546  24019239.77346
        40.750          22.750  
  20635601.258 7      -528.001 7   -324527.180 7   -236768.00749  20635591.03949
        50.750          42.750  
  25017293.805 5      3403.769 5   -691677.126 5  -2629400.42246  25017288.50846
        40.250          21.500  
  25209684.680 5     -2668.652 5   1483430.626 5   1151126.64946  25209678.09446
        39.500          19.750  
  24424827.430 5      3693.499 5  -3777278.747 5  -2938756.74246  24424825.00446
        41.250          21.500  
 11  3 30 18 16 30.0000000  0 12G03G06G09G11G14G18G19G21G22G24G27G31
  23621132.016 6     -2736.556 6   1628484.950 6   1258710.00247  23621127.77347
        43.000          28.250  
  23767619.945 5     -2702.682 5   1612918.254 5   1248494.61047  23767615.87947
        41.250          27.000  
  23056932.289 6     -1868.809 6    700729.243 6    547769.31047  23056925.29347
        42.500          28.250  
  24098045.063 5      3109.224 5  -3498525.116 5  -2693777.34346  24098038.30146
        40.250          21.500  
  20321577.781 7       339.062 7  -1178679.911 7   -891029.22248  20321569.37948
        48.000          41.250  
  22023449.609 6     -1790.221 6    810837.173 6    632385.42848  22023441.26648
        47.500          34.500  
  22760688.148 6      -947.273 6    -79139.436 6    -49193.15348  22760680.09848
        46.750          34.750  
  24029469.305 5     -3582.755 5   2375739.845 5   1830843.02246  24029465.88346
        41.500          22.750  
  20637119.633 7      -531.955 7   -316547.852 7   -230550.35449  20637109.29749
        51.500          42.000  
  25007580.414 5      3403.025 5   -742722.499 5  -2669176.06746  25007575.23446
        40.250          22.000  
  25217315.422 4     -2673.577 4   1523534.276 4   1182376.23445  25217308.83645
        37.500          18.500  
  24414283.383 5      3693.737 5  -3832684.804 5  -2981930.17446  24414281.01646
        41.000          22.250  
 11  3 30 18 16 45.0000000  0 12G03G06G09G11G14G18G19G21G22G24G27G31
  23628951.109 6     -2739.499 6   1669577.434 6   1290730.05847  23628947.39547
        43.000          27.750  
  23775341.258 5     -2705.100 5   1653494.753 5   1280112.60547  23775337.54347
        40.750          26.750  
  23062294.227 6     -1878.579 6    728907.921 6    569726.68947  23062287.99247
        43.500          28.500  
  24089182.141 5      3105.031 5  -3545100.584 5  -2730069.91646  24089174.91046
        40.500          21.000  
  20320631.977 7       331.236 7  -1183648.448 7   -894900.80948  20320623.51648
        48.500          41.250  
  22028567.859 7     -1793.199 7    837735.165 7    653344.88748  22028560.39548
        47.750          34.000  
  22763416.375 6      -955.714 6    -64803.726 6    -38022.48648  22763407.91448
        46.250          34.250  
  24039704.016 5     -3585.662 5   2429524.774 5   1872753.24046  24039701.35546
        42.000          23.750  
  20638649.672 7      -535.900 7   -308509.357 7   -224286.59649  20638639.10249
        51.500          42.250  
  24997869.086 5      3402.277 5   -793756.647 5  -2708942.96646  24997863.49646
        41.000          21.750  
  25224960.961 5     -2678.455 5   1563711.097 5   1213682.79646  25224954.60946
        39.250          19.250  
  24403739.656 5      3693.975 5  -3888094.432 5  -3025106.38446  24403736.87946
        41.250          22.500  
 11  3 30 18 17  0.0000000  0 12G03G06G09G11G14G18G19G21G22G24G27G31
  23636779.297 5     -2742.456 5   1710714.273 5   1322784.68747  23636775.52347
        41.000          26.500  
  23783069.508 5     -2707.531 5   1694107.719 5   1311758.99246  23783066.37946
        39.750          25.500  
  23067684.539 6     -1888.375 6    757233.553 6    591798.57747  23067678.24647
        43.000          28.500  
  24080331.461 5      3100.766 5  -3591612.074 5  -2766312.65246  24080324.46546
        40.250          20.500  
  20319709.383 7       323.378 7  -1188499.117 7   -898680.54848  20319700.92248
        47.750          41.250  
  22033695.008 6     -1796.206 6    864678.261 6    674339.47247  22033686.54747
        47.500          33.500  
  22766168.469 6      -964.181 6    -50341.015 6    -26752.85248  22766160.30148
        45.500          34.000  
  24049947.453 5     -3588.596 5   2483353.713 5   1914697.74246  24049944.91046
        40.000          22.250  
  20640190.641 7      -539.888 7   -300411.041 7   -217976.22749  20640179.95349
        50.750          43.000  
  24988159.180 5      3401.471 5   -844778.711 5  -2748700.42646  24988154.52746
        39.750          21.500  
  25232620.406 4     -2683.355 4   1603961.423 4   1245046.65645  25232614.11345
        39.000          18.500  
  24393195.156 5      3694.148 5  -3943506.649 5  -3068284.59246  24393192.61346
        40.750          22.750  
 11  3 30 18 17 15.0000000  0 12G03G06G09G11G14G18G19G21G22G24G27G31
  23644615.813 5     -2745.365 5   1751894.742 5   1354873.29546  23644611.74646
        40.500          26.250  
  23790805.438 5     -2709.913 5   1734756.408 5   1343433.23047  23790801.02047
        40.000          27.000  
  23073102.570 6     -1898.130 6    785705.505 6    613984.48847  23073095.86747
        43.250          28.250  
  24071492.531 5      3096.511 5  -3638059.739 5  -2802505.62546  24071485.59446
        41.500          20.250  
  20318808.516 7       315.547 7  -1193232.325 7   -902368.76348  20318800.46548
        48.000          41.250  
  22038831.352 7     -1799.182 7    891665.993 7    695368.85548  22038822.83248
        48.000          34.000  
  22768944.813 6      -972.614 6    -35751.800 6    -15384.66048  22768936.76248
        46.250          34.000  
  24060199.328 5     -3591.497 5   2537226.175 5   1956676.14546  24060196.02346
        41.000          22.750  
  20641742.664 7      -543.862 7   -292253.104 7   -211619.39749  20641732.09449
        51.000          42.000  
  24978452.484 5      3400.668 5   -895788.724 5  -2788448.49546  24978448.18446
        39.500          22.000  
  25240293.609 4     -2688.216 4   1644284.658 4   1276467.34845  25240287.49245
        38.500          18.500  
  24382650.102 5      3694.318 5  -3998921.419 5  -3111464.78746  24382647.32446
        40.500          22.750  
 11  3 30 18 17 30.0000000  0 12G03G06G09G11G14G18G19G21G22G24G27G31
  23652460.172 5     -2748.231 5   1793118.210 5   1386995.42446  23652455.87146
        42.250          26.000  
  23798547.055 5     -2712.270 5   1775440.455 5   1375135.01247  23798543.45747
        41.000          27.000  
  23078548.203 6     -1907.862 6    814323.440 6    636284.15047  23078542.02747
        43.500          27.250  
  24062666.203 5      3092.244 5  -3684443.401 5  -2838648.73546  24062659.03146
        40.500          20.500  
  20317929.844 7       307.738 7  -1197848.401 7   -905965.69649  20317921.55949
        47.750          41.500  
  22043975.250 7     -1802.157 7    918698.342 7    716432.99947  22043966.90647
        48.500          33.250  
  22771745.211 6      -981.028 6    -21036.375 6     -3918.10448  22771736.86748
        45.750          34.500  
  24070459.445 4     -3594.361 4   2591141.593 4   1998688.02646  24070455.78946
        39.000          23.000  
  20643306.539 7      -547.803 7   -284036.058 7   -205216.51249  20643296.20349
        50.500          42.000  
  24968748.086 4      3399.864 4   -946786.678 4  -2828187.16946  24968743.25846
        38.500          22.250  
  25247981.234 5     -2693.049 5   1684680.393 5   1307944.54446  25247974.70746
        39.250          19.000  
  24372103.930 5      3694.481 5  -4054338.639 5  -3154646.91246  24372101.62146
        40.750          23.000  
 11  3 30 18 17 45.0000000  0 12G03G06G09G11G14G18G19G21G22G24G27G31
  23660313.250 5     -2751.122 5   1834385.044 5   1419151.33746  23660309.06646
        41.500          26.000  
  23806295.789 5     -2714.623 5   1816159.801 5   1406864.32046  23806291.89846
        40.500          25.250  
  23084021.641 6     -1917.601 6    843087.448 6    658697.64247  23084015.23047
        43.250          27.750  
  24053851.469 5      3087.931 5  -3730762.373 5  -2874741.45146  24053844.64846
        40.750          20.000  
  20317074.297 6       299.895 6  -1202346.830 6   -909470.96249  20317065.95349
        46.750          41.750  
  22049128.133 7     -1805.160 7    945775.748 7    737532.25647  22049118.67647
        47.750          33.500  
  22774569.367 6      -989.459 6     -6194.495 6      7646.98248  22774561.43448
        46.000          34.250  
  24080727.094 5     -3597.248 5   2645100.319 5   2040733.66846  24080724.14146
        39.500          22.500  
  20644881.938 7      -551.788 7   -275759.244 7   -198767.05349  20644871.19149
        51.500          42.500  
  24959045.594 4      3399.009 4   -997771.813 4  -2867915.88246  24959041.52746
        39.000          22.000  
  25255681.484 5     -2697.898 5   1725148.869 5   1339478.35745  25255675.30945
        40.500          18.500  
  24361558.242 5      3694.586 5  -4109757.435 5  -3197830.21746  24361555.58246
        40.250          22.750  
 11  3 30 18 18  0.0000000  0 12G03G06G09G11G14G18G19G21G22G24G27G31
  23668173.820 5     -2753.954 5   1875694.356 5   1451340.36447  23668170.10547
        40.750          26.750  
  23814050.711 5     -2716.932 5   1856913.786 5   1438620.59746  23814047.23046
        40.500          25.500  
  23089523.133 6     -1927.293 6    871996.840 6    681224.42347  23089516.95747
        43.000          28.500  
  24045049.578 5      3083.619 5  -3777016.652 5  -2910783.74246  24045042.46546
        40.000          19.750  
  20316240.242 6       292.088 6  -1206728.153 6   -912884.97449  20316231.89849
        47.500          41.500  
  22054288.680 7     -1808.140 7    972897.846 7    758666.33748  22054280.39548
        48.000          34.250  
  22777417.563 6      -997.849 6      8773.234 6     19310.12248  22777409.57048
        47.000          34.500  
  24091003.703 4     -3600.079 4   2699101.510 4   2082812.39146  24091000.63346
        38.000          22.000  
  20646467.969 7      -555.751 7   -267422.979 7   -192271.27549  20646457.04749
        50.750          41.750  
  24949346.469 4      3398.170 4  -1048744.365 4  -2907634.76746  24949341.87546
        38.000          22.250  
  25263396.055 5     -2702.694 5   1765689.280 5   1371068.26345  25263390.23045
        41.750          18.250  
  24351011.930 5      3694.696 5  -4165177.881 5  -3241014.83046  24351009.03546
        40.000          22.750  
 11  3 30 18 18 15.0000000  0 12G03G06G09G11G14G18G19G21G22G24G27G31
  23676043.211 5     -2756.747 5   1917045.557 5   1483562.00947  23676039.20347
        42.000          26.500  
  23821812.641 5     -2719.216 5   1897702.019 5   1470403.57246  23821808.69146
        41.500          25.500  
  23095052.391 6     -1936.973 6    901051.440 6    703864.34347  23095045.62947
        42.500          28.000  
  24036260.211 5      3079.289 5  -3823205.980 5  -2946775.46346  24036253.03946
        40.000          20.000  
  20315429.102 7       284.287 7  -1210992.458 7   -916207.80549  20315420.34849
        48.250          41.500  
  22059457.820 6     -1811.119 6   1000064.631 6    779835.24047  22059449.24247
        47.500          33.500  
  22780289.695 6     -1006.232 6     23866.707 6     31071.24548  22780281.58648
        46.750          34.750  
  24101287.555 4     -3602.909 4   2753145.149 4   2124924.18746  24101284.89546
        37.750          22.000  
  20648065.336 7      -559.708 7   -259027.357 7   -185729.23649  20648055.00049
        51.000          41.750  
  24939649.602 4      3397.315 4  -1099704.086 4  -2947343.63046  24939644.48046
        38.000          19.500  
  25271124.594 5     -2707.476 5   1806301.419 5   1402714.08145  25271117.36345
        41.500          18.250  
  24340465.563 5      3694.775 5  -4220599.500 5  -3284200.35546  24340462.60946
        40.750          22.500  
 11  3 30 18 18 30.0000000  0 12G03G06G09G11G14G18G19G21G22G24G27G31
  23683919.820 5     -2759.541 5   1958438.679 5   1515816.33646  23683915.98846
        39.750          25.750  
  23829581.055 5     -2721.482 5   1938524.256 5   1502213.03746  23829577.04746
        40.500          24.750  
  23100608.750 5     -1946.644 5    930251.107 5    726617.30447  23100602.04747
        41.750          28.750  
  24027483.133 5      3074.921 5  -3869329.792 5  -2982716.07746  24027476.31346
        39.500          19.000  
  20314639.859 6       276.476 6  -1215139.599 6   -919439.33349  20314631.51649
        47.500          41.500  
  22064637.055 6     -1814.117 6   1027276.380 6    801039.16647  22064628.24247
        47.250          33.250  
  22783185.969 6     -1014.601 6     39085.723 6     42930.20548  22783178.09448
        46.500          34.500  
  24111580.047 3     -3605.722 3   2807230.984 3   2167068.85646  24111577.32846
        37.000          22.000  
  20649674.367 7      -563.696 7   -250571.914 7   -179140.58249  20649664.09049
        51.000          42.500  
  24929954.031 3      3396.426 3  -1150650.475 3  -2987042.14046  24929949.78946
        36.750          20.500  
  25278866.523 5     -2712.251 5   1846985.183 5   1434415.71445  25278860.69945
        40.750          18.500  
  24329918.359 5      3694.814 5  -4276021.712 5  -3327386.32646  24329916.22746
        41.000          23.250  
 11  3 30 18 18 45.0000000  0 12G03G06G09G11G14G18G19G21G22G24G27G31
  23691804.828 5     -2762.303 5   1999873.220 5   1548102.93446  23691801.52346
        40.000          24.500  
  23837356.242 5     -2723.737 5   1979380.313 5   1534048.85846  23837351.23846
        41.250          25.750  
  23106192.719 5     -1956.303 5    959595.648 5    749483.14747  23106186.77747
        42.250          28.750  
  24018718.766 5      3070.537 5  -3915387.841 5  -3018605.46446  24018711.41846
        40.000          19.250  
  20313872.758 7       268.671 7  -1219169.662 7   -922579.63449  20313864.06349
        48.250          41.500  
  22069823.414 6     -1817.112 6   1054533.059 6    822278.10748  22069814.89548
        47.500          33.750  
  22786105.578 6     -1022.957 6     54430.083 6     54886.82748  22786097.41048
        45.500          34.500  
  24121880.328 3     -3608.534 3   2861358.990 3   2209246.37046  24121876.96546
        37.000          20.750  
  20651294.734 7      -567.679 7   -242056.733 7   -172505.38849  20651284.51649
        51.750          42.250  
  24920262.398 4      3395.523 4  -1201583.316 4  -3026730.08246  24920257.10246
        37.500          20.250  
  25286621.086 5     -2717.010 5   1887740.334 5   1466172.95646  25286615.84846
        41.250          19.250  
  24319372.500 5      3694.840 5  -4331444.319 5  -3370572.61046  24319369.84046
        41.250          24.500  
 11  3 30 18 19  0.0000000  0 12G03G06G09G11G14G18G19G21G22G24G27G31
  23699697.766 5     -2765.037 5   2041348.768 5   1580421.48046  23699693.69946
        40.250          23.750  
  23845136.906 5     -2725.949 5   2020269.543 5   1565910.52646  23845133.07446
        41.250          26.000  
  23111804.531 6     -1965.926 6    989084.537 6    772461.47847  23111798.41447
        43.500          29.000  
  24009966.266 4      3066.144 4  -3961379.997 4  -3054443.51646  24009958.91846
        39.000          19.750  
  20313128.344 7       260.891 7  -1223083.022 7   -925629.00349  20313119.59049
        48.000          41.500  
  22075018.961 7     -1820.091 7   1081834.422 7    843551.87547  22075010.38347
        48.000          32.750  
  22789049.711 6     -1031.291 6     69899.442 6     66940.85748  22789041.19148
        45.750          34.500  
  24132188.164 3     -3611.292 3   2915528.371 3   2251456.18346  24132185.97346
        37.250          20.500  
  20652926.703 7      -571.639 7   -233482.142 7   -165823.89449  20652915.95749
        51.000          42.500  
  24910571.289 3      3394.620 3  -1252502.614 3  -3066407.46246  24910567.92646
        36.000          21.000  
  25294391.211 5     -2721.738 5   1928566.407 5   1497985.44845  25294384.74245
        40.500          18.250  
  24308824.938 5      3694.847 5  -4386867.019 5  -3413758.96446  24308822.74646
        41.250          25.250  
 11  3 30 18 19 15.0000000  0 12G03G06G09G11G14G18G19G21G22G24G27G31
  23707596.867 5     -2767.737 5   2082864.828 5   1612771.60046  23707593.56346
        39.500          25.250  
  23852923.586 5     -2728.142 5   2061191.678 5   1597797.83846  23852920.51646
        39.750          25.500  
  23117443.203 6     -1975.539 6   1018717.616 6    795552.16947  23117436.38347
        42.500          28.750  
  24001227.281 4      3061.733 4  -4007305.992 4  -3090230.01246  24001219.46546
        39.000          19.500  
  20312405.742 7       253.118 7  -1226879.792 7   -928587.51649  20312397.28149
        47.750          41.750  
  22080222.688 6     -1823.078 6   1109180.585 6    864860.54347  22080213.93447
        47.500          33.000  
  22792016.961 6     -1039.613 6     85493.641 6     79092.16448  22792008.96948
        45.250          35.250  
  24142504.172 2     -3614.062 2   2969739.303 2   2293698.29046  24142501.51246
        35.500          19.250  
  20654569.516 7      -575.611 7   -224847.977 7   -159095.98249  20654559.06349
        51.000          42.250  
  24900885.633 2      3393.686 2  -1303407.908 2  -3106073.94746  24900881.44946
        35.250          19.750  
  25302173.438 5     -2726.446 5   1969463.096 5   1529852.96745  25302167.20345
        40.000          18.500  
  24298278.461 5      3694.830 5  -4442289.473 5  -3456945.11846  24298275.91846
        41.250          24.250  
 11  3 30 18 19 30.0000000  0 12G03G06G09G11G14G18G19G21G22G24G27G31
  23715505.484 5     -2770.414 5   2124421.031 5   1645152.99046  23715501.53546
        39.500          23.250  
  23860717.398 5     -2730.311 5   2102146.339 5   1629710.49047  23860713.91847
        40.500          26.750  
  23123109.461 6     -1985.141 6   1048494.729 6    818755.08147  23123103.16847
        43.000          28.250  
  23992500.547 4      3057.301 4  -4053165.512 4  -3125964.72446  23992493.02346
        39.000          19.500  
  20311705.445 6       245.342 6  -1230559.928 6   -931455.15048  20311697.04348
        47.500          41.250  
  22085434.734 6     -1826.058 6   1136571.462 6    886204.05047  22085426.50847
        47.000          33.250  
  22795008.297 6     -1047.932 6    101212.619 6     91340.69448  22795000.42248
        46.000          34.000  
  24152827.164 2     -3616.798 2   3023991.280 2   2335972.41146  24152825.79346
        35.500          20.250  
  20656223.961 7      -579.581 7   -216154.254 7   -152321.66149  20656213.68449
        51.500          42.000  
  24891201.336 3      3392.749 3  -1354299.137 3  -3145729.45245  24891196.68445
        36.000          18.500  
  25309968.406 5     -2731.138 5   2010430.159 5   1561775.32646  25309963.16846
        39.250          19.750  
  24287732.492 5      3694.794 5  -4497711.377 5  -3500130.86346  24287729.71546
        42.000          25.500  
 11  3 30 18 19 45.0000000  0 12G03G06G09G11G14G18G19G21G22G24G27G31
  23723421.375 5     -2773.093 5   2166017.430 5   1677565.70846  23723416.95746
        40.500          23.250  
  23868517.328 5     -2732.471 5   2143133.408 5   1661648.40146  23868513.37946
        41.250          24.250  
  23128803.430 6     -1994.739 6   1078415.807 6    842070.18147  23128797.19547
        43.500          30.500  
  23983785.992 4      3052.828 4  -4098957.933 4  -3161647.08746  23983779.23046
        38.000          19.250  
  20311027.008 7       237.548 7  -1234123.148 7   -934231.67548  20311018.60548
        48.250          41.250  
  22090655.703 6     -1829.065 6   1164007.437 6    907582.71447  22090647.53547
        46.750          33.500  
  22798022.992 6     -1056.251 6    117056.387 6    103686.47148  22798015.41048
        46.250          34.000  
  24163159.477 2     -3619.536 2   3078284.313 2   2378278.51146  24163156.87546
        34.750          19.000  
  20657889.867 7      -583.573 7   -207400.656 7   -145500.68649  20657879.12149
        51.500          42.250  
  24881519.273 2      3391.775 2  -1405175.759 2  -3185373.53745  24881515.03145
        34.500          18.250  
  25317778.086 4     -2735.828 4   2051467.574 4   1593752.45946  25317773.14146
        39.000          19.250  
  24277185.664 6      3694.708 6  -4553132.002 6  -3543315.58247  24277183.59047
        42.750          26.750  
 11  3 30 18 20  0.0000000  0 12G03G06G09G11G14G18G19G21G22G24G27G31
  23731344.641 5     -2775.715 5   2207653.155 5   1710009.07746  23731340.28146
        39.750          23.750  
  23876322.664 5     -2734.594 5   2184152.325 5   1693611.11946  23876319.59446
        41.750          24.250  
  23134524.406 6     -2004.306 6   1108480.398 6    865497.11247  23134518.40647
        42.500          28.000  
  23975085.656 5      3048.341 5  -4144683.041 5  -3197277.04946  23975077.84046
        39.500          19.250  
  20310371.422 6       229.787 6  -1237569.950 6   -936917.48649  20310362.60949
        47.250          41.500  
  22095885.445 6     -1832.049 6   1191488.175 6    928996.23947  22095876.57447
        46.000          32.750  
  22801061.570 6     -1064.524 6    133024.249 6    116128.94148  22801054.04748
        46.250          34.500  
  24173499.922 2     -3622.252 2   3132618.089 2   2420616.36645  24173496.79345
        35.500          18.500  
  20659566.938 7      -587.543 7   -198587.506 7   -138633.29849  20659556.13349
        51.250          42.250  
  24871840.844 2      3390.802 2  -1456037.786 2  -3225006.30045  24871835.95745
        34.250          17.250  
  25325600.438 5     -2740.483 5   2092574.815 5   1625784.11346  25325594.49646
        40.500          19.500  
  24266639.070 5      3694.616 5  -4608551.236 5  -3586499.24547  24266637.11347
        42.250          26.750  
 11  3 30 18 20 15.0000000  0 12G03G06G09G11G14G18G19G21G22G24G27G31
  23739274.258 5     -2778.313 5   2249327.843 5   1742482.78846  23739270.42646
        40.500          22.500  
  23884134.547 5     -2736.691 5   2225202.694 5   1725598.35846  23884130.83246
        41.500          25.000  
  23140272.797 6     -2013.849 6   1138688.128 6    889035.58247  23140266.21147
        43.500          28.750  
  23966397.094 4      3043.864 4  -4190341.006 4  -3232854.68246  23966389.57046
        39.000          19.500  
  20309737.563 6       222.034 6  -1240900.456 6   -939512.67548  20309728.86748
        47.500          40.750  
  22101122.695 6     -1835.026 6   1219013.564 6    950444.57147  22101114.64547
        46.000          33.000  
  22804124.336 6     -1072.790 6    149116.095 6    128668.02948  22804116.16848
        46.750          34.750  
  24183846.250 2     -3624.942 2   3186992.223 2   2462985.69145  24183844.41045
        35.500          18.250  
  20661255.336 7      -591.515 7   -189714.775 7   -131719.48849  20661245.11749
        51.750          42.500  
  24862164.72711      3389.82911  -3082304.90811  -4492227.40255  24862160.13355
        33.500          18.500  
  25333435.961 4     -2745.114 4   2133751.530 4   1657869.83646  25333430.95746
        39.000          19.000  
  24256094.078 5      3694.508 5  -4663968.853 5  -3629681.65647  24256091.82847
        42.250          27.250  
 11  3 30 18 20 30.0000000  0 12G03G06G09G11G14G18G19G21G22G24G27G31
  23747213.023 4     -2780.889 4   2291041.176 4   1774986.62946  23747208.78146
        38.500          22.750  
  23891951.867 5     -2738.755 5   2266284.016 5   1757609.69746  23891948.85546
        41.500          24.000  
  23146048.750 6     -2023.375 6   1169038.748 6    912685.38347  23146042.45747
        43.500          28.500  
  23957721.156 4      3039.344 4  -4235931.169 4  -3268379.49646  23957714.57046
        38.750          19.000  
  20309125.758 6       214.294 6  -1244114.865 6   -942017.40148  20309117.47348
        47.500          40.500  
  22106369.672 6     -1838.018 6   1246583.828 6    971927.86647  22106360.97747
        46.000          32.000  
  22807210.258 6     -1081.031 6    165331.561 6    141303.44047  22807202.03147
        46.500          33.500  
  24194201.727 2     -3627.611 2   3241406.392 2   2505386.18345  24194199.24245
        35.500          18.500  
  20662955.203 7      -595.497 7   -180782.313 7   -124759.14049  20662944.80949
        51.750          42.250  
  24852491.703 2      3388.799 2  -3133136.889 2  -4531836.70745  24852487.28545
        34.000          18.250  
  25341285.188 5     -2749.722 5   2174997.367 5   1690009.37746  25341279.59846
        39.500          19.250  
  24245549.133 6      3694.369 6  -4719384.388 6  -3672862.41247  24245546.00447
        43.750          26.500  
 11  3 30 18 20 45.0000000  0 12G03G06G09G11G14G18G19G21G22G24G27G31
  23755157.445 4     -2783.437 4   2332792.733 4   1807520.23346  23755154.02346
        38.750          23.750  
  23899774.750 5     -2740.805 5   2307396.094 5   1789645.02846  23899771.73846
        40.750          24.000  
  23151851.781 6     -2032.881 6   1199531.967 6    936446.30547  23151845.54747
        43.500          29.000  
  23949058.398 4      3034.803 4  -4281453.214 4  -3303851.20846  23949051.93046
        39.000          20.000  
  20308536.078 6       206.546 6  -1247213.050 6   -944431.56449  20308527.67649
        47.250          41.500  
  22111624.672 6     -1840.998 6   1274198.801 6    993445.99747  22111616.50447
        46.000          33.250  
  22810319.055 6     -1089.273 6    181670.650 6    154035.17948  22810311.35548
        47.250          34.500  
  24204562.984 1     -3630.263 1   3295860.332 1   2547817.67646  24204561.49646
        33.000          19.000  
  20664666.320 7      -599.473 7   -171790.214 7   -117752.31549  20664655.92649
        51.500          42.000  
  24842820.367 1      3387.767 1  -3183953.392 1  -4571434.00445  24842817.35545
        33.000          18.250  
  25349147.430 4     -2754.315 4   2216312.088 4   1722202.68746  25349141.89846
        38.750          19.250  
  24235004.117 6      3694.211 6  -4774797.546 6  -3716041.32447  24235001.04747
        43.750          27.500  
 11  3 30 18 21  0.0000000  0 12G03G06G09G11G14G18G19G21G22G24G27G31
  23763109.578 5     -2785.971 5   2374582.298 5   1840083.46646  23763105.86346
        39.750          22.250  
  23907604.844 5     -2742.841 5   2348538.704 5   1821704.12246  23907600.95346
        40.250          22.500  
  23157681.211 6     -2042.385 6   1230167.741 6    960318.31847  23157674.80147
        43.250          28.000  
  23940409.531 4      3030.234 4  -4326906.723 4  -3339269.51046  23940402.12546
        38.500          20.500  
  20307969.078 7       198.800 7  -1250195.051 7   -946755.19148  20307960.38348
        47.750          41.250  
  22116888.203 6     -1843.995 6   1301858.732 6   1014999.16847  22116879.85947
        46.250          33.000  
  22813451.867 6     -1097.510 6    198133.293 6    166863.20047  22813443.52347
        46.250          33.500  
  24214934.086 3     -3632.911 3   3350353.996 3   2590280.07845  24214931.48445
        37.000          18.250  
  20666388.961 7      -603.456 7   -162738.375 7   -110698.94249  20666378.21549
        51.250          42.500  
  24833154.844 2      3386.725 2  -3234754.260 2  -4611019.05945  24833150.30945
        34.250          18.250  
  25357022.078 4     -2758.898 4   2257695.552 4   1754449.46445  25357016.37145
        38.500          18.250  
  24224459.516 6      3694.019 6  -4830207.836 6  -3759218.00047  24224457.03147
        43.750          28.000  
 11  3 30 18 21 15.0000000  0 12G03G06G09G11G14G18G19G21G22G24G27G31
  23771069.297 4     -2788.485 4   2416409.570 4   1872676.08846  23771065.40646
        38.750          22.750  
  23915439.742 5     -2744.857 5   2389711.552 5   1853786.79246  23915436.43846
        40.750          22.500  
  23163537.625 5     -2051.872 5   1260945.819 5    984301.20747  23163532.09447
        41.750          28.500  
  23931772.617 4      3025.652 4  -4372291.509 4  -3374634.27446  23931766.20746
        37.750          20.500  
  20307423.172 6       191.069 6  -1253061.079 6   -948988.45049  20307414.94549
        47.000          41.500  
  22122160.063 6     -1846.989 6   1329563.568 6   1036587.31847  22122151.89547
        45.500          33.000  
  22816608.258 6     -1105.731 6    214719.265 6    179787.30948  22816599.97348
        47.000          34.250  
  24225311.273 4     -3635.543 4   3404887.140 4   2632773.28845  24225309.19945
        37.750          16.750  
  20668122.500 7      -607.448 7   -153626.654 7   -103598.91149  20668112.57449
        52.000          42.500  
  24823491.344 2      3385.651 2  -3285539.024 2  -4650591.60745  24823485.98845
        35.000          18.500  
  25364909.711 4     -2763.465 4   2299147.523 4   1786749.68746  25364904.94146
        38.000          19.000  
  24213915.648 6      3693.798 6  -4885614.806 6  -3802392.11647  24213913.10547
        44.500          27.250  
 11  3 30 18 21 30.0000000  0 12G03G06G09G11G14G18G19G21G22G24G27G31
  23779035.719 5     -2790.944 5   2458273.729 5   1905297.44446  23779031.47746
        39.750          23.250  
  23923280.406 5     -2746.810 5   2430913.704 5   1885892.29746  23923276.28146
        39.750          22.500  
  23169421.695 6     -2061.308 6   1291865.436 6   1008394.39947  23169415.46147
        43.000          28.500  
  23923149.313 5      3021.062 5  -4417607.436 5  -3409945.37846  23923142.66846
        39.750          21.000  
  20306899.875 7       183.361 7  -1255811.487 7   -951131.61649  20306891.64849
        48.000          42.000  
  22127440.734 6     -1849.958 6   1357312.932 6   1058210.16947  22127431.92247
        46.250          32.750  
  22819787.758 6     -1113.917 6    231428.013 6    192807.10448  22819779.47348
        46.000          34.000  
  24235696.844 3     -3638.135 3   3459459.166 3   2675296.82146  24235693.12946
        36.500          19.000  
  20669867.633 7      -611.416 7   -144455.410 7    -96452.49949  20669857.06349
        51.250          42.250  
  24813828.945 3      3384.591 3  -3336307.892 3  -4690151.75046  24813825.52346
        36.500          19.250  
  25372810.250 4     -2767.985 4   2340667.299 4   1819102.70646  25372805.24646
        37.500          20.000  
  24203372.953 6      3693.579 6  -4941018.490 6  -3845563.65847  24203369.64847
        44.500          28.000  
 11  3 30 18 21 45.0000000  0 12G03G06G09G11G14G18G19G21G22G24G27G31
  23787009.594 5     -2793.407 5   2500174.841 5   1937947.60746  23787005.35246
        39.500          22.250  
  23931126.016 5     -2748.776 5   2472145.343 5   1918020.76646  23931122.88746
        40.000          22.750  
  23175332.578 6     -2070.759 6   1322926.825 6   1032598.05047  23175326.10947
        43.500          28.500  
  23914539.297 5      3016.426 5  -4462853.820 5  -3445202.29546  23914532.30146
        39.500          21.500  
  20306398.680 6       175.634 6  -1258445.990 6   -953184.47349  20306390.39549
        47.250          41.500  
  22132729.133 6     -1852.953 6   1385107.223 6   1079868.03447  22132721.31647
        46.750          32.500  
  22822990.461 6     -1122.118 6    248259.780 6    205922.74648  22822982.29348
        45.500          34.250  
  24246088.859 4     -3640.732 4   3514070.142 4   2717850.63146  24246086.02346
        38.750          20.250  
  20671624.594 7      -615.408 7   -135224.288 7    -89259.42849  20671614.25849
        51.500          42.750  
  24804171.609 3      3383.488 3  -3387060.208 3  -4729698.99546  24804167.48446
        36.250          19.250  
  25380724.336 3     -2772.520 3   2382255.093 3   1851508.76446  25380719.91846
        36.500          19.500  
  24192830.547 6      3693.309 6  -4996418.126 6  -3888732.04947  24192827.53547
        45.000          27.000  
 11  3 30 18 22  0.0000000  0 12G03G06G09G11G14G18G19G21G22G24G27G31
  23794990.102 5     -2795.830 5   2542112.287 5   1970626.06346  23794985.97746
        41.500          22.500  
  23938978.070 5     -2750.715 5   2513406.064 5   1950171.91446  23938974.47346
        40.500          22.750  
  23181270.461 5     -2080.184 5   1354129.583 5   1056911.87047  23181264.22747
        42.000          29.000  
  23905942.258 5      3011.785 5  -4508030.602 5  -3480404.95146  23905935.90646
        39.500          21.750  
  20305919.359 7       167.922 7  -1260964.816 7   -955147.19148  20305910.78148
        48.500          40.750  
  22138027.289 6     -1855.949 6   1412946.460 6   1101560.91547  22138019.70747
        46.500          33.000  
  22826216.906 6     -1130.285 6    265214.056 6    219133.85248  22826208.68048
        45.250          34.000  
  24256487.500 4     -3643.312 4   3568719.823 4   2760434.68146  24256485.30946
        38.500          19.250  
  20673392.617 7      -619.405 7   -125933.208 7    -82019.62549  20673382.51649
        51.250          42.500  
  24794517.070 3      3382.372 3  -3437795.786 3  -4769233.17246  24794513.00446
        37.000          19.750  
  25388651.383 3     -2777.020 3   2423910.389 3   1883967.39246  25388646.84846
        36.250          19.500  
  24182288.719 6      3693.027 6  -5051813.528 6  -3931897.14547  24182285.76647
        44.250          27.000  
 11  3 30 18 22 15.0000000  0 12G03G06G09G11G14G18G19G21G22G24G27G31
  23802976.938 5     -2798.227 5   2584085.692 5   2003332.53946  23802973.86746
        40.500          22.750  
  23946834.852 5     -2752.612 5   2554695.251 5   1982345.23146  23946831.54746
        40.250          22.250  
  23187234.461 6     -2089.586 6   1385473.373 6   1081335.56447  23187228.10947
        43.250          28.500  
  23897358.320 5      3007.128 5  -4553137.527 5  -3515553.19446  23897351.91046
        39.750          22.500  
  20305461.914 7       160.227 7  -1263368.216 7   -957019.96348  20305453.39548
        47.750          41.250  
  22143333.672 6     -1858.929 6   1440830.402 6   1123288.63847  22143325.27047
        45.750          33.000  
  22829466.469 6     -1138.424 6    282290.410 6    232440.08448  22829458.24248
        45.750          34.000  
  24266895.547 4     -3645.857 4   3623407.681 4   2803048.43346  24266892.12546
        38.500          19.000  
  20675172.242 7      -623.401 7   -116582.188 7    -74733.13049  20675161.78949
        51.500          42.000  
  24784865.688 4      3381.255 4  -3488514.617 4  -4808754.31946  24784861.73846
        37.500          20.500  
  25396590.727 3     -2781.491 3   2465632.752 3   1916478.31146  25396586.07446
        37.250          20.500  
  24171748.484 6      3692.728 6  -5107204.448 6  -3975058.75047  24171745.12147
        44.500          27.750  
 11  3 30 18 22 30.0000000  0 12G03G06G09G11G14G18G19G21G22G24G27G31
  23810970.945 5     -2800.603 5   2626094.734 5   2036066.77846  23810967.81646
        39.750          22.750  
  23954697.438 5     -2754.497 5   2596012.711 5   2014540.59646  23954693.84046
        41.250          22.500  
  23193226.250 6     -2098.969 6   1416957.905 6   1105868.94147  23193219.72347
        42.750          28.250  
  23888788.758 5      3002.452 5  -4598174.307 5  -3550646.80446  23888782.11346
        40.500          22.000  
  20305026.563 6       152.533 6  -1265656.213 6   -958802.80849  20305017.57449
        46.250          41.500  
  22148648.484 6     -1861.912 6   1468759.083 6   1145051.21447  22148640.37547
        45.250          33.500  
  22832739.242 6     -1146.559 6    299488.792 6    245841.40048  22832731.60248
        46.500          34.500  
  24277309.180 5     -3648.400 5   3678133.688 5   2845691.95146  24277306.34446
        40.000          19.750  
  20676962.797 7      -627.376 7   -107171.556 7    -67400.18049  20676952.40249
        51.250          42.500  
  24775217.906 4      3380.117 4  -3539216.368 4  -4848262.15246  24775213.07846
        37.500          21.000  
  25404543.555 3     -2785.955 3   2507422.072 3   1949041.40346  25404538.60946
        37.000          19.750  
  24161207.922 6      3692.399 6  -5162590.426 6  -4018216.49947  24161204.79347
        44.250          27.750  
 11  3 30 18 22 45.0000000  0 12G03G06G09G11G14G18G19G21G22G24G27G31
  23818972.359 5     -2802.958 5   2668139.111 5   2068828.57146  23818968.87946
        41.000          25.250  
  23962565.492 5     -2756.356 5   2637358.047 5   2046757.67146  23962561.89546
        41.250          22.750  
  23199244.484 6     -2108.349 6   1448583.136 6   1130511.96947  23199237.84047
        42.500          28.500  
  23880232.117 5      2997.754 5  -4643140.615 5  -3585685.45446  23880224.88746
        41.000          22.750  
  20304613.422 7       144.839 7  -1267828.800 7   -960495.72448  20304605.02048
        48.000          41.000  
  22153971.016 6     -1864.915 6   1496732.814 6   1166848.89447  22153963.37547
        47.000          33.000  
  22836034.930 6     -1154.689 6    316809.134 6    259337.75348  22836027.05548
        46.500          34.000  
  24287730.438 5     -3650.930 5   3732897.636 5   2888365.02345  24287727.36745
        39.500          18.500  
  20678764.820 7      -631.370 7    -97701.006 7    -60020.53249  20678754.60249
        51.250          42.500  
  24765573.031 4      3378.943 4  -3589900.507 4  -4887756.29546  24765568.20346
        38.750          20.000  
  25412509.328 3     -2790.403 3   2549278.111 3   1981656.43546  25412503.50446
        37.000          19.000  
  24150669.898 6      3692.042 6  -5217971.057 6  -4061370.08947  24150666.65247
        44.500          28.250  
 11  3 30 18 23  0.0000000  0 12G03G06G09G11G14G18G19G21G22G24G27G31
  23826979.281 5     -2805.290 5   2710218.454 5   2101617.60646  23826975.85946
        41.250          24.500  
  23970438.820 5     -2758.204 5   2678731.110 5   2078996.36346  23970434.98846
        41.000          22.000  
  23205289.344 5     -2117.703 5   1480348.677 5   1155264.31447  23205282.81647
        42.000          27.750  
  23871688.508 5      2993.021 5  -4688035.933 5  -3620668.81146  23871681.92246
        40.500          22.250  
  20304221.484 6       137.147 6  -1269886.004 6   -962098.73149  20304213.19949
        46.500          41.500  
  22159303.523 6     -1867.918 6   1524751.586 6   1188681.68047  22159295.00447
        47.000          33.000  
  22839354.297 6     -1162.799 6    334251.118 6    272928.88748  22839346.24648
        46.250          34.250  
  24298158.906 4     -3653.442 4   3787699.261 4   2931067.47046  24298156.07046
        39.000          19.250  
  20680578.672 7      -635.371 7    -88170.442 7    -52594.12649  20680568.33649
        51.000          42.000  
  24755931.438 4      3377.764 4  -3640566.968 4  -4927236.64946  24755926.37546
        38.500          19.750  
  25420486.375 3     -2794.838 3   2591200.674 3   2014323.35046  25420482.13346
        37.250          19.750  
  24140131.945 6      3691.651 6  -5273345.818 6  -4104519.12747  24140129.05147
        43.750          27.500  
 11  3 30 18 23 15.0000000  0 12G03G06G09G11G14G18G19G21G22G24G27G31
  23834993.258 5     -2807.560 5   2752331.848 5   2134433.16246  23834989.83646
        41.250          23.000  
  23978316.734 5     -2759.988 5   2720130.923 5   2111255.86546  23978313.54746
        41.750          22.750  
  23211360.492 6     -2126.993 6   1512253.576 6   1180125.25347  23211353.78947
        43.500          28.000  
  23863158.461 5      2988.318 5  -4732860.705 5  -3655597.17546  23863151.64146
        41.000          22.250  
  20303852.227 6       129.507 6  -1271828.602 6   -963612.44349  20303843.41449
        46.500          41.500  
  22164643.656 6     -1870.868 6   1552814.603 6   1210548.93547  22164635.60547
        46.500          32.750  
  22842696.516 6     -1170.855 6    351813.949 6    286614.18948  22842688.52348
        47.000          34.000  
  24308594.102 5     -3655.898 5   3842537.729 5   2973798.58246  24308591.09046
        39.750          19.000  
  20682403.305 7      -639.339 7    -78580.352 7    -45121.34449  20682393.14549
        51.250          42.250  
  24746293.945 5      3376.599 5  -3691215.961 5  -4966703.39946  24746288.41446
        39.750          20.000  
  25428476.602 3     -2799.214 3   2633188.877 3   2047041.38746  25428471.42246
        36.000          19.750  
  24129595.664 6      3691.276 6  -5328714.951 6  -4147663.77447  24129592.18447
        43.750          26.750  
 11  3 30 18 23 30.0000000  0 12G03G06G09G11G14G18G19G21G22G24G27G31
  23843013.641 5     -2809.857 5   2794479.709 5   2167275.59946  23843010.68846
        40.000          25.500  
  23986199.883 5     -2761.794 5   2761557.836 5   2143536.49846  23986196.40246
        41.000          23.500  
  23217458.375 5     -2136.325 5   1544298.453 5   1205095.25747  23217452.14147
        41.500          26.500  
  23854642.711 5      2983.528 5  -4777613.619 5  -3690469.56746  23854635.83246
        41.750          22.500  
  20303504.602 6       121.823 6  -1273655.953 6   -965036.34548  20303496.08248
        46.000          41.250  
  22169992.430 6     -1873.883 6   1580922.841 6   1232451.43947  22169984.32047
        46.250          32.500  
  22846061.813 6     -1178.957 6    369498.298 6    300394.17447  22846053.70347
        46.250          33.250  
  24319037.320 5     -3658.396 5   3897413.665 5   3016559.00845  24319034.42645
        40.250          17.250  
  20684239.875 7      -643.358 7    -68929.982 7    -37601.58349  20684229.89149
        50.750          41.500  
  24736658.633 5      3375.365 5  -3741846.439 5  -5006155.72646  24736653.57046
        40.250          20.750  
  25436478.578 3     -2803.628 3   2675243.290 3   2079811.03946  25436473.75046
        36.250          19.500  
  24119060.531 6      3690.827 6  -5384077.359 6  -4190803.18746  24119057.28546
        43.500          26.000  
 11  3 30 18 23 45.0000000  0 12G03G06G09G11G14G18G19G21G22G24G27G31
  23851040.484 5     -2812.117 5   2836661.459 5   2200144.42146  23851037.59046
        40.250          25.000  
  23994088.867 5     -2763.567 5   2803011.341 5   2175837.87246  23994084.85946
        40.500          22.500  
  23223583.008 6     -2145.629 6   1576482.884 6   1230174.01647  23223576.83247
        43.250          26.750  
  23846139.867 5      2978.735 5  -4822294.643 5  -3725285.93046  23846132.87146
        40.750          22.000  
  20303178.688 6       114.152 6  -1275368.238 6   -966370.58448  20303169.87548
        46.500          41.000  
  22175349.844 6     -1876.876 6   1609075.988 6   1254388.92647  22175342.14547
        47.000          33.000  
  22849449.695 6     -1187.027 6    387303.707 6    314268.49748  22849442.11348
        46.500          34.250  
  24329486.594 5     -3660.858 5   3952326.533 5   3059348.09845  24329484.28545
        40.000          18.250  
  20686087.695 7      -647.360 7    -59219.579 7    -30035.03549  20686077.24249
        50.500          42.000  
  24727026.797 5      3374.128 5  -3792458.356 5  -5045593.58146  24727022.02746
        39.500          20.750  
  25444494.914 3     -2807.994 3   2717363.205 3   2112631.67846  25444489.38346
        36.000          19.750  
  24108526.594 6      3690.370 6  -5439432.908 6  -4233937.25146  24108523.28946
        43.250          24.500  
 11  3 30 18 24  0.0000000  0 12G03G06G09G11G14G18G19G21G22G24G27G31
  23859074.438 5     -2814.315 5   2878876.184 5   2233038.94846  23859070.60546
        39.500          24.500  
  24001981.703 5     -2765.284 5   2844490.598 5   2208159.29446  24001978.10546
        39.750          24.500  
  23229733.719 5     -2154.885 5   1608806.152 5   1255360.95747  23229727.30947
        41.500          26.500  
  23837650.523 5      2973.956 5  -4866903.978 5  -3760046.43146  23837644.40646
        41.500          22.750  
  20302874.688 6       106.526 6  -1276966.135 6   -967615.70548  20302865.93448
        47.500          41.250  
  22180715.859 6     -1879.833 6   1637273.485 6   1276360.97347  22180707.10547
        47.000          33.000  
  22852860.906 6     -1195.049 6    405229.439 6    328236.57548  22852852.97348
        45.500          34.500  
  24339943.461 5     -3663.274 5   4007275.644 5   3102165.44246  24339940.56646
        40.500          19.750  
  20687946.875 7      -651.328 7    -49449.658 7    -22422.11449  20687936.59849
        50.750          41.500  
  24717399.258 5      3372.907 5  -3843051.955 5  -5085017.17646  24717395.07446
        40.000          21.000  
  25452522.148 3     -2812.318 3   2759547.981 3   2145502.90546  25452516.50046
        35.750          20.000  
  24097993.859 6      3689.918 6  -5494781.677 6  -4277066.04746  24097990.67246
        43.750          25.000  
 11  3 30 18 24 15.0000000  0 12G03G06G09G11G14G18G19G21G22G24G27G31
  23867113.523 5     -2816.519 5   2921123.964 5   2265959.23947  23867110.16047
        40.500          26.500  
  24009879.766 5     -2767.008 5   2885995.711 5   2240500.86046  24009876.87146
        39.500          24.500  
  23235911.258 6     -2164.146 6   1641268.337 6   1280656.14247  23235904.55547
        42.500          26.750  
  23829176.344 5      2969.116 5  -4911440.715 5  -3794750.36446  23829169.52346
        41.750          22.750  
  20302592.227 6        98.879 6  -1278449.314 6   -968771.41748  20302583.94148
        46.750          41.250  
  22186089.492 6     -1882.823 6   1665515.830 6   1298367.97247  22186081.91047
        46.750          33.000  
  22856295.078 6     -1203.086 6    423275.725 6    342298.58548  22856287.37948
        46.500          33.750  
  24350407.102 5     -3665.688 5   4062260.971 5   3145011.05946  24350404.55946
        40.750          19.250  
  20689817.719 7      -655.330 7    -39619.713 7    -14762.42549  20689806.91449
        51.000          42.500  
  24707775.383 5      3371.645 5  -3893626.631 5  -5124426.01946  24707771.14146
        40.000          20.000  
  25460561.078 2     -2816.652 2   2801797.757 2   2178424.77846  25460555.78146
        34.500          19.000  
  24087463.211 6      3689.413 6  -5550122.876 6  -4320188.92946  24087459.49646
        43.000          24.000  
 11  3 30 18 24 30.0000000  0 12G03G06G09G11G14G18G19G21G22G24G27G31
  23875159.773 5     -2818.706 5   2963404.549 5   2298905.06946  23875156.35246
        41.500          25.000  
  24017783.414 5     -2768.710 5   2927526.364 5   2272862.34346  24017779.69946
        40.500          24.250  
  23242114.891 6     -2173.383 6   1673869.086 6   1306059.29246  23242108.65646
        42.750          26.000  
  23820715.055 5      2964.261 5  -4955904.635 5  -3829397.57446  23820708.11746
        41.500          23.000  
  20302331.922 7        91.225 7  -1279817.691 7   -969837.68849  20302323.28549
        48.750          41.500  
  22191472.992 6     -1885.824 6   1693803.183 6   1320410.03747  22191465.11747
        46.250          33.500  
  22859752.414 6     -1211.113 6    441442.418 6    356454.43148  22859744.18848
        46.250          34.000  
  24360877.031 5     -3668.100 5   4117282.469 5   3187884.78545  24360874.54745
        40.500          18.500  
  20691699.398 7      -659.342 7    -29729.588 7     -7055.84149  20691689.41449
        51.000          42.250  
  24698155.430 5      3370.357 5  -3944181.990 5  -5163819.78346  24698150.83646
        40.500          19.750  
  25468613.742 2     -2820.970 2   2844112.307 2   2211397.12045  25468607.97745
        34.000          18.250  
  24076932.789 5      3688.872 5  -5605455.953 5  -4363305.49946  24076929.60246
        42.000          23.000  
 11  3 30 18 24 45.0000000  0 12G03G06G09G11G14G18G19G21G22G24G27G31
  23883211.875 5     -2820.853 5   3005717.348 5   2331876.01447  23883208.39547
        41.500          27.000  
  24025691.117 5     -2770.390 5   2969082.211 5   2305243.45446  24025687.57846
        42.000          24.000  
  23248345.102 6     -2182.600 6   1706608.088 6   1331570.19347  23248338.69147
        42.750          27.000  
  23812267.867 5      2959.395 5  -5000295.556 5  -3863987.86846  23812260.75446
        41.500          23.500  
  20302092.945 7        83.593 7  -1281071.592 7   -970814.75548  20302084.48448
        48.500          41.000  
  22196864.828 6     -1888.821 6   1722135.504 6   1342487.13847  22196856.07447
        46.250          32.750  
  22863231.945 6     -1219.119 6    459729.195 6    370703.84148  22863224.36348
        46.500          34.500  
  24371354.211 5     -3670.491 5   4172339.832 5   3230786.51745  24371351.14145
        40.500          16.750  
  20693592.758 7      -663.352 7    -19779.315 7       697.60749  20693582.89149
        51.000          41.750  
  24688538.781 5      3369.053 5  -3994717.786 5  -5203198.34346  24688533.48446
        40.750          19.250  
  25476677.063 2     -2825.261 2   2886491.220 2   2244419.65545  25476672.41045
        34.500          18.250  
  24066405.180 5      3688.319 5  -5660780.737 5  -4406415.59946  24066401.46546
        42.000          22.500  
 11  3 30 18 25  0.0000000  0 12G03G06G09G11G14G18G19G21G22G24G27G31
  23891270.477 5     -2822.967 5   3048061.847 5   2364871.66346  23891266.46946
        42.250          25.000  
  24033603.414 5     -2772.027 5   3010662.610 5   2337643.69446  24033600.34446
        42.250          24.500  
  23254601.570 6     -2191.790 6   1739484.945 6   1357188.48247  23254595.04347
        42.750          26.500  
  23803834.586 5      2954.522 5  -5044613.386 5  -3898521.22046  23803827.29746
        41.500          25.500  
  20301876.500 6        75.980 6  -1282211.294 6   -971702.82848  20301867.68848
        47.500          41.000  
  22202264.117 6     -1891.806 6   1750512.587 6   1364599.11647  22202256.24247
        46.250          33.000  
  22866734.570 6     -1227.090 6    478135.551 6    385046.42348  22866726.52048
        46.750          34.000  
  24381838.484 5     -3672.852 5   4227432.609 5   3273715.80446  24381835.64846
        40.750          19.000  
  20695498.320 7      -667.347 7     -9769.104 7      8497.76349  20695487.69149
        49.750          42.250  
  24678925.594 4      3367.747 4  -4045233.993 4  -5242561.63546  24678920.70746
        39.000          19.750  
  25484755.203 1     -2829.528 1   2928934.133 1   2277492.00445  25484748.67645
        33.000          17.750  
  24055878.383 6      3687.752 6  -5716097.013 6  -4449519.06946  24055874.96146
        42.500          22.000  
 11  3 30 18 25 15.0000000  0 12G03G06G09G11G14G18G19G21G22G24G27G31
  23899333.633 5     -2825.082 5   3090438.072 5   2397892.03746  23899330.15246
        41.750          25.000  
  24041520.969 5     -2773.662 5   3052267.544 5   2370063.06046  24041517.66446
        41.000          22.500  
  23260883.898 6     -2200.977 6   1772499.598 6   1382914.15846  23260877.48846
        42.500          25.750  
  23795414.359 5      2949.607 5  -5088857.498 5  -3932997.14546  23795408.12546
        41.250          24.000  
  20301681.297 7        68.355 7  -1283236.625 7   -972501.78749  20301672.83649
        48.250          41.750  
  22207673.047 6     -1894.803 6   1778934.635 6   1386746.14647  22207664.93847
        47.000          32.500  
  22870260.188 6     -1235.071 6    496661.618 6    399482.29247  22870252.54747
        45.750          33.500  
  24392328.977 5     -3675.214 5   4282560.815 5   3316672.71445  24392326.19945
        41.500          18.250  
  20697414.219 7      -671.360 7       301.298 7     16344.82349  20697403.59049
        51.750          42.250  
  24669316.750 5      3366.415 5  -4095730.218 5  -5281909.35646  24669311.16046
        40.000          19.500  
  25492843.633 1     -2833.791 1   2971440.991 1   2310614.17845  25492837.98445
        32.000          17.750  
  24045353.086 5      3687.146 5  -5771404.206 5  -4492615.48646  24045350.13346
        41.250          22.250  
 11  3 30 18 25 30.0000000  0 12G03G06G09G11G14G18G19G21G22G24G27G31
  23907403.734 5     -2827.119 5   3132844.864 5   2430936.22646  23907400.31346
        42.000          25.500  
  24049442.328 5     -2775.223 5   3093895.883 5   2402500.65346  24049439.37546
        41.250          24.000  
  23267192.297 5     -2210.099 5   1805651.091 5   1408746.45446  23267185.77046
        42.000          25.750  
  23787009.242 5      2944.718 5  -5133028.263 5  -3967415.90246  23787002.12946
        42.250          25.250  
  20301507.594 7        60.781 7  -1284148.336 7   -973212.20749  20301499.48449
        49.000          41.500  
  22213090.352 6     -1897.769 6   1807401.170 6   1408927.83248  22213082.06648
        47.000          33.750  
  22873808.195 6     -1242.996 6    515306.559 6    414010.79347  22873800.55547
        46.000          33.500  
  24402826.055 5     -3677.516 5   4337723.547 5   3359656.50246  24402823.57046
        39.250          19.000  
  20699341.750 7      -675.336 7     10431.332 7     24238.34849  20699331.53149
        50.750          42.750  
  24659711.438 6      3365.098 6  -4146206.686 6  -5321241.66746  24659706.31646
        42.500          19.000  
  25500944.898 1     -2837.983 1   3014010.735 1   2343785.34045  25500938.66445
        33.000          17.750  
  24034831.305 5      3686.548 5  -5826702.431 5  -4535704.89546  24034827.06346
        40.750          22.500  
 11  3 30 18 25 45.0000000  0 12G03G06G09G11G14G18G19G21G22G24G27G31
  23915478.922 6     -2829.192 6   3175282.749 6   2464004.63047  23915475.38347
        43.000          27.000  
  24057368.883 5     -2776.826 5   3135548.274 5   2434956.97246  24057365.63746
        41.500          25.000  
  23273526.852 6     -2219.264 6   1838940.052 6   1434685.88046  23273520.79346
        42.500          25.500  
  23778618.352 6      2939.748 6  -5177124.484 6  -4001776.57746  23778611.35546
        43.000          24.000  
  20301356.445 6        53.153 6  -1284945.637 6   -973833.47649  20301347.51649
        47.000          42.000  
  22218515.906 6     -1900.793 6   1835913.066 6   1431144.86547  22218507.32847
        46.750          33.000  
  22877378.969 6     -1250.964 6    534071.019 6    428632.41847  22877370.97747
        46.000          33.500  
  24413330.086 5     -3679.865 5   4392921.519 5   3402667.79445  24413327.42645
        40.250          18.250  
  20701281.328 7      -679.381 7     20622.046 7     32179.15849  20701270.81649
        50.500          42.000  
  24650110.133 5      3363.707 5  -4196662.294 5  -5360557.75146  24650104.48446
        40.750          20.000  
  25509057.203 1     -2842.227 1   3056644.144 1   2377006.13445  25509051.49645
        31.000          18.250  
  24024310.188 5      3685.879 5  -5881990.616 5  -4578786.49246  24024306.00446
        41.250          22.750  
 11  3 30 18 26  0.0000000  0 12G03G06G09G11G14G18G19G21G22G24G27G31
  23923561.070 6     -2831.191 6   3217750.608 6   2497096.40947  23923557.59047
        43.000          28.000  
  24065299.320 6     -2778.358 6   3177223.639 6   2467431.24046  24065296.07446
        42.500          22.250  
  23279887.672 6     -2228.355 6   1872365.381 6   1460731.56647  23279881.08647
        42.500          26.750  
  23770240.984 6      2934.806 6  -5221146.579 6  -4036079.49846  23770233.87146
        42.750          25.000  
  20301225.906 6        45.588 6  -1285629.460 6   -974366.32249  20301217.21149
        45.500          41.750  
  22223949.883 6     -1903.757 6   1864469.419 6   1453396.53947  22223941.77347
        46.250          33.000  
  22880972.141 6     -1258.856 6    552953.855 6    443346.28248  22880964.14848
        46.750          34.500  
  24423840.227 5     -3682.137 5   4448153.569 5   3445705.62946  24423838.27046
        39.750          19.000  
  20703231.961 7      -683.369 7     30872.585 7     40166.57749  20703221.03949
        50.500          42.000  
  24640512.508 5      3362.344 5  -4247097.448 5  -5399857.88246  24640506.85946
        41.000          19.500  
  25517181.734 1     -2846.392 1   3099340.022 1   2410275.61245  25517176.96545
        30.250          17.250  
  24013790.227 5      3685.226 5  -5937269.004 5  -4621860.44446  24013786.57046
        41.000          22.750  
 11  3 30 18 26 15.0000000  0 12G03G06G09G11G14G18G19G21G22G24G27G31
  23931647.391 6     -2833.224 6   3260248.971 6   2530211.95147  23931643.96947
        42.750          26.500  
  24073234.828 6     -2779.928 6   3218922.554 6   2499923.81546  24073231.11346
        42.750          23.750  
  23286274.453 6     -2237.498 6   1905927.850 6   1486884.12146  23286268.04346
        42.500          26.250  
  23761877.547 6      2929.778 6  -5265093.252 6  -4070323.63346  23761871.43046
        43.000          25.250  
  20301117.805 6        37.958 6  -1286198.834 6   -974809.99248  20301108.93448
        46.000          40.750  
  22229392.484 6     -1906.787 6   1893071.218 6   1475683.63647  22229384.25847
        47.500          32.500  
  22884588.164 6     -1266.797 6    571955.809 6    458152.96748  22884580.05548
        46.750          34.500  
  24434357.547 5     -3684.453 5   4503420.366 5   3488770.52046  24434355.18046
        40.250          19.500  
  20705194.188 7      -687.421 7     41183.902 7     48201.36849  20705183.20749
        50.750          42.250  
  24630919.117 5      3360.901 5  -4297510.965 5  -5439141.16046  24630913.58646
        41.500          19.250  
  25525318.516 1     -2850.612 1   3142099.205 1   2443594.38045  25525313.39545
        31.750          17.250  
  24003273.070 5      3684.489 5  -5992536.344 5  -4664925.80946  24003270.05946
        41.250          22.500  
 11  3 30 18 26 30.0000000  0 12G03G06G09G11G14G18G19G21G22G24G27G31
  23939740.203 6     -2835.171 6   3302776.543 6   2563350.23746  23939736.95746
        42.750          25.750  
  24081173.703 6     -2781.412 6   3260643.729 6   2532433.76646  24081170.45746
        42.500          24.000  
  23292687.281 5     -2246.559 5   1939626.235 5   1513142.56447  23292680.52047
        41.750          26.500  
  23753529.516 6      2924.798 6  -5308965.216 6  -4104509.56746  23753522.98846
        42.500          24.000  
  20301030.648 6        30.405 6  -1286654.902 6   -975165.37148  20301021.77748
        46.250          41.250  
  22234844.172 6     -1909.759 6   1921717.605 6   1498005.46247  22234835.71147
        46.750          33.250  
  22888226.234 6     -1274.661 6    591075.728 6    473051.57647  22888218.53547
        46.250          33.500  
  24444880.992 5     -3686.700 5   4558720.868 5   3531861.68646  24444878.91846
        39.250          20.250  
  20707167.742 7      -691.408 7     51555.022 7     56282.75849  20707157.11349
        50.500          42.000  
  24621329.313 5      3359.508 5  -4347903.585 5  -5478408.13546  24621324.54346
        40.750          19.000  
  25533467.875 1     -2854.739 1   3184920.293 1   2476961.44345  25533462.52045
        32.750          16.750  
  23992758.313 5      3683.789 5  -6047793.173 5  -4707982.97746  23992754.59846
        40.500          22.750  
 11  3 30 18 26 45.0000000  0 12G03G06G09G11G14G18G19G21G22G24G27G31
  23947839.063 6     -2837.101 6   3345333.057 6   2596511.09447  23947835.81647
        43.000          27.000  
  24089116.742 6     -2782.879 6   3302386.921 6   2564960.85546  24089113.67246
        43.000          24.750  
  23299125.672 6     -2255.614 6   1973460.453 6   1539506.86346  23299118.91046
        42.500          25.250  
  23745195.195 6      2919.782 6  -5352761.942 6  -4138636.86446  23745188.49246
        43.500          25.750  
  20300965.703 6        22.843 6  -1286997.547 6   -975432.37048  20300956.83248
        47.000          41.000  
  22240303.898 6     -1912.748 6   1950408.832 6   1520362.24147  22240295.55547
        47.500          32.750  
  22891887.617 6     -1282.530 6    610313.672 6    488042.15048  22891879.39148
        46.500          33.750  
  24455410.898 4     -3688.940 4   4614054.972 4   3574978.98646  24455408.82446
        38.250          20.250  
  20709152.703 7      -695.410 7     61986.173 7     64410.91949  20709142.42649
        51.000          42.000  
  24611744.016 5      3358.080 5  -4398274.790 5  -5517658.46146  24611739.01246
        41.000          19.500  
  25541627.844 1     -2858.868 1   3227803.318 1   2510376.75745  25541622.31345
        31.750          17.750  
  23982245.664 5      3683.047 5  -6103038.885 5  -4751031.48746  23982241.59846
        40.250          24.250  
 11  3 30 18 27  0.0000000  0 12G03G06G09G11G14G18G19G21G22G24G27G31
  23955942.414 6     -2839.023 6   3387918.407 6   2629694.40747  23955939.63747
        43.250          27.000  
  24097065.430 6     -2784.337 6   3344151.979 6   2597504.99746  24097061.53946
        42.500          24.750  
  23305589.906 5     -2264.659 5   2007430.337 5   1565976.86446  23305582.91046
        41.500          25.000  
  23736875.953 6      2914.731 6  -5396482.910 6  -4172705.14646  23736868.84046
        43.000          24.500  
  20300921.797 7        15.278 7  -1287226.724 7   -975610.94948  20300913.45348
        49.000          41.250  
  22245771.898 6     -1915.743 6   1979144.973 6   1542754.01547  22245764.19947
        47.250          33.000  
  22895570.492 6     -1290.383 6    629669.423 6    503124.51948  22895562.67648
        46.250          34.000  
  24465946.422 4     -3691.172 4   4669422.551 4   3618122.39046  24465945.10946
        38.250          19.250  
  20711149.305 7      -699.432 7     72477.652 7     72586.09149  20711138.79349
        50.750          42.000  
  24602162.906 5      3356.624 5  -4448624.148 5  -5556891.73046  24602157.78546
        41.750          20.000  
  25549799.438 1     -2862.993 1   3270748.213 1   2543840.28445  25549794.31645
        33.500          18.500  
  23971734.609 5      3682.274 5  -6158272.990 5  -4794070.99446  23971730.66046
        40.750          23.750  
 11  3 30 18 27 15.0000000  0 12G03G06G09G11G14G18G19G21G22G24G27G31
  23964051.828 5     -2840.930 5   3430532.356 5   2662900.00947  23964048.52347
        42.000          26.500  
  24105016.383 5     -2785.769 5   3385938.515 5   2630065.85546  24105013.25446
        40.750          26.000  
  23312080.023 5     -2273.675 5   2041535.461 5   1592552.25146  23312073.14546
        41.250          26.000  
  23728569.813 6      2909.666 6  -5440127.904 6  -4206714.20446  23728563.52046
        43.250          26.000  
  20300900.164 7         7.733 7  -1287342.725 7   -975701.33748  20300891.35248
        48.750          41.000  
  22251248.734 6     -1918.727 6   2007925.880 6   1565180.66947  22251240.56647
        47.000          33.000  
  22899276.844 6     -1298.224 6    649142.781 6    518298.53748  22899268.44148
        45.750          34.000  
  24476489.875 4     -3693.385 4   4724823.324 4   3661291.66946  24476487.85946
        37.750          19.500  
  20713156.992 7      -703.450 7     83029.398 7     80808.22849  20713146.59849
        50.750          42.000  
  24592586.008 5      3355.157 5  -4498951.497 5  -5596107.88046  24592580.94546
        41.000          20.000  
  25557983.281 2     -2867.082 2   3313754.446 2   2577351.58545  25557978.51245
        35.000          18.250  
  23961226.398 5      3681.492 5  -6213495.370 5  -4837101.28246  23961222.27346
        41.500          22.500  
 11  3 30 18 27 30.0000000  0 12G03G06G09G11G14G18G19G21G22G24G27G31
  23972166.742 6     -2842.781 6   3473174.066 6   2696127.25946  23972163.02746
        43.250          26.250  
  24112972.656 5     -2787.169 5   3427746.047 5   2662643.07546  24112969.05946
        42.250          24.250  
  23318595.781 5     -2282.669 5   2075775.494 5   1619232.77446  23318588.72746
        41.500          25.750  
  23720279.133 6      2904.586 6  -5483696.687 6  -4240663.90146  23720272.13746
        43.000          24.500  
  20300899.125 7         0.206 7  -1287345.807 7   -975703.73349  20300890.78149
        48.750          41.500  
  22256734.023 6     -1921.712 6   2036751.558 6   1587642.21247  22256725.91447
        47.250          32.750  
  22903004.336 6     -1306.040 6    668733.381 6    533563.90948  22902996.57848
        46.750          33.750  
  24487038.789 4     -3695.568 4   4780256.847 4   3704486.48345  24487036.24645
        38.500          18.500  
  20715176.141 7      -707.451 7     93641.164 7     89077.12549  20715166.15649
        51.000          42.000  
  24583013.086 5      3353.686 5  -4549256.786 5  -5635306.81646  24583008.55146
        40.250          19.500  
  25566179.922 2     -2871.145 2   3356821.628 2   2610910.39346  25566173.86346
        35.500          19.500  
  23950719.750 5      3680.678 5  -6268705.537 5  -4880122.10646  23950716.32846
        41.500          25.750  
 11  3 30 18 27 45.0000000  0 12G03G06G09G11G14G18G19G21G22G24G27G31
  23980286.430 5     -2844.639 5   3515843.645 5   2729376.19747  23980282.77347
        42.250          27.000  
  24120932.750 5     -2788.558 5   3469574.421 5   2695236.54546  24120929.27046
        40.750          24.000  
  23325135.984 5     -2291.653 5   2110150.291 5   1646018.29746  23325130.27746
        42.000          24.250  
  23712003.008 6      2899.481 6  -5527188.894 6  -4274553.91446  23711995.95346
        43.500          23.500  
  20300920.008 7        -7.343 7  -1287235.666 7   -975617.91048  20300911.84048
        48.750          41.250  
  22262228.234 6     -1924.709 6   2065622.197 6   1610138.78347  22262220.06647
        47.250          33.000  
  22906754.586 6     -1313.855 6    688441.212 6    548920.63348  22906747.00448
        46.750          34.000  
  24497593.266 4     -3697.746 4   4835723.031 4   3747706.69146  24497591.95346
        37.750          19.500  
  20717207.266 7      -711.479 7    104313.356 7     97393.10949  20717196.63749
        51.000          42.000  
  24573445.109 5      3352.181 5  -4599539.504 5  -5674488.16746  24573439.75446
        40.250          20.000  
  25574386.469 3     -2875.210 3   3399949.780 3   2644516.72046  25574381.46546
        36.000          19.750  
  23940216.016 6      3679.837 6  -6323903.098 6  -4923133.08246  23940212.12546
        42.500          25.750  
 11  3 30 18 28  0.0000000  0 12G03G06G09G11G14G18G19G21G22G24G27G31
  23988411.227 6     -2846.446 6   3558540.332 6   2762646.27747  23988407.98047
        42.500          28.000  
  24128895.609 5     -2789.914 5   3511423.125 5   2727845.85746  24128893.18446
        41.750          25.000  
  23331703.320 5     -2300.602 5   2144659.323 5   1672908.43146  23331697.55546
        42.000          25.000  
  23703741.227 6      2894.360 6  -5570604.287 6  -4308384.08146  23703734.58246
        43.250          23.250  
  20300962.766 7       -14.851 7  -1287012.906 7   -975444.33649  20300954.07049
        49.000          41.500  
  22267731.055 6     -1927.694 6   2094537.608 6   1632670.25047  22267722.47747
        47.500          32.250  
  22910526.930 6     -1321.627 6    708265.612 6    564368.19948  22910519.40648
        46.250          34.000  
  24508154.531 3     -3699.919 3   4891221.815 3   3790952.31946  24508152.69146
        36.000          19.500  
  20719249.625 7      -715.498 7    115045.824 7    105756.07049  20719239.23049
        51.000          42.000  
  24563880.117 5      3350.664 5  -4649799.469 5  -5713651.80446  24563875.64146
        40.500          19.250  
  25582604.539 3     -2879.236 3   3443138.313 3   2678170.07646  25582599.30146
        36.500          19.500  
  23929714.680 6      3678.966 6  -6379087.581 6  -4966133.89246  23929710.73046
        42.750          26.000  
 11  3 30 18 28 15.0000000  0 12G03G06G09G11G14G18G19G21G22G24G27G31
  23996541.117 6     -2848.256 6   3601264.176 6   2795937.51347  23996538.34047
        43.250          27.750  
  24136863.445 5     -2791.262 5   3553292.053 5   2760470.93346  24136860.37546
        41.750          26.250  
  23338296.102 6     -2309.555 6   2179302.641 6   1699903.18146  23338289.51646
        42.500          25.750  
  23695494.750 5      2889.200 5  -5613942.285 5  -4342153.92146  23695487.22746
        42.000          22.500  
  20301026.609 7       -22.376 7  -1286677.266 7   -975182.79848  20301017.97348
        48.250          41.250  
  22273241.594 6     -1930.705 6   2123498.184 6   1655236.90747  22273233.83647
        47.250          32.500  
  22914321.891 6     -1329.413 6    728206.802 6    579906.74347  22914314.07447
        46.750          33.500  
  24518721.625 3     -3702.064 3   4946752.768 3   3834223.01645  24518720.37145
        35.750          17.750  
  20721303.227 7      -719.531 7    125838.789 7    114166.16449  20721293.00849
        51.750          42.250  
  24554320.805 5      3349.115 5  -4700036.196 5  -5752797.30546  24554315.85946
        40.000          20.000  
  25590834.836 3     -2883.266 3   3486387.304 3   2711870.58446  25590829.48046
        36.000          19.500  
  23919216.047 6      3678.065 6  -6434258.552 6  -5009124.17146  23919212.56646
        42.750          26.000  
 11  3 30 18 28 30.0000000  0 11G03G06G09G11G14G18G19G21G22G24G31   
  24004676.469 6     -2849.965 6   3644013.651 6   2829248.71547  24004673.04747
        43.500          26.500  
  24144834.367 5     -2792.531 5   3595180.018 5   2793110.82146  24144831.12146
        42.000          26.000  
  23344913.641 6     -2318.423 6   2214078.982 6   1727001.60446  23344907.64146
        42.500          25.750  
  23687261.930 5      2884.088 5  -5657203.603 5  -4375864.01746  23687254.64146
        42.250          22.250  
  20301111.625 6       -29.844 6  -1286229.608 6   -974833.96649  20301103.28149
        45.750          41.500  
  22278761.000 6     -1933.645 6   2152502.853 6   1677837.91847  22278753.41847
        47.500          32.250  
  22918138.648 6     -1337.123 6    748263.642 6    595535.41947  22918131.00847
        47.000          33.250  
  24529294.445 1     -3704.131 1   5002314.728 1   3877517.87245  24529293.60245
        33.500          17.250  
  20723368.633 7      -723.500 7    136691.296 7    122622.65849  20723358.35549
        51.000          42.000  
  24544765.375 5      3347.604 5  -4750250.259 5  -5791925.12946  24544759.55146
        39.250          19.000  
  23908719.594 6      3677.199 6  -6489416.531 6  -5052104.32347  23908715.76247
        42.500          27.500  
 11  3 30 18 28 45.0000000  0 11G03G06G09G11G14G18G19G21G22G24G31   
  24012816.422 5     -2851.742 5   3686789.784 5   2862580.70346  24012813.05946
        42.250          26.250  
  24152809.305 5     -2793.852 5   3637087.801 5   2825766.17346  24152806.00046
        42.000          23.250  
  23351556.773 6     -2327.355 6   2248989.303 6   1754204.41846  23351551.00846
        43.000          24.500  
  23679044.633 5      2878.875 5  -5700386.730 5  -4409513.20746  23679037.34446
        42.250          22.750  
  20301218.438 6       -37.365 6  -1285669.137 6   -974397.23949  20301209.91849
        46.000          41.500  
  22284289.539 7     -1936.673 7   2181552.949 7   1700474.33247  22284280.55147
        47.750          32.750  
  22921977.695 6     -1344.891 6    768437.007 6    611254.89947  22921969.46947
        46.500          33.000  
  24539875.039 2     -3706.275 2   5057908.856 2   3920837.78245  24539872.08645
        34.250          17.250  
  20725445.688 7      -727.557 7    147604.652 7    131126.56649  20725434.88349
        50.500          42.000  
  24535214.508 5      3345.998 5  -4800440.226 5  -5831034.20646  24535209.56346
        39.250          19.500  
  23898226.703 6      3676.218 6  -6544559.806 6  -5095073.02647  23898222.63747
        42.500          26.500  
 11  3 30 18 29  0.0000000  0 11G03G06G09G11G14G18G19G21G22G24G31   
  24020961.094 6     -2853.311 6   3729589.451 6   2895931.01946  24020957.84846
        42.500          25.750  
  24160787.367 5     -2794.975 5   3679012.422 5   2858434.62446  24160783.65246
        41.250          24.500  
  23358224.875 5     -2336.091 5   2284030.661 5   1781509.33846  23358218.69946
        42.250          24.000  
  23670841.383 5      2873.813 5  -5743493.929 5  -4443103.20846  23670834.21146
        42.000          23.000  
  20301345.859 6       -44.717 6  -1284998.382 6   -973874.56949  20301337.63349
        47.250          41.750  
  22289825.305 6     -1939.520 6   2210645.741 6   1723144.01947  22289817.07847
        46.750          33.000  
  22925838.063 6     -1352.469 6    788724.041 6    627062.94647  22925830.24647
        45.000          33.500  
  24550459.094 1     -3708.220 1   5113532.151 1   3964180.45545  24550457.54745
        33.500          18.250  
  20727533.250 7      -731.443 7    158576.290 7    139675.88249  20727522.50449
        50.750          42.000  
  24525667.664 5      3344.549 5  -4850608.466 5  -5870126.34446  24525663.30546
        39.750          19.000  
  23887735.203 6      3675.396 6  -6599690.751 6  -5138032.12547  23887731.37147
        42.500          27.750  
 11  3 30 18 29 15.0000000  0 11G03G06G09G11G14G18G19G21G22G24G31   
  24029110.797 6     -2855.160 6   3772416.843 6   2929302.93147  24029107.84447
        42.750          26.500  
  24168769.234 5     -2796.369 5   3720957.953 5   2891119.38446  24168765.57846
        41.250          24.000  
  23364919.320 5     -2345.107 5   2319207.261 5   1808919.64646  23364913.14546
        41.750          25.250  
  23662653.461 5      2868.435 5  -5786520.456 5  -4476630.36446  23662646.87546
        41.750          22.250  
  20301495.594 7       -52.358 7  -1284213.015 7   -973262.59149  20301486.95749
        48.500          42.000  
  22295370.555 6     -1942.658 6   2239785.612 6   1745850.38447  22295361.44947
        47.000          33.500  
  22929720.961 6     -1360.321 6    809128.860 6    642962.77547  22929713.37947
        46.000          33.250  
  24561050.398 1     -3710.439 1   5169188.734 1   4007549.04045  24561049.08645
        33.750          16.750  
  20729632.938 7      -735.625 7    169610.671 7    148274.09349  20729622.71949
        51.500          42.000  
  24516126.398 5      3342.792 5  -4900750.345 5  -5909197.92346  24516121.62946
        39.250          19.250  
  23877247.234 6      3674.257 6  -6654804.605 6  -5180977.89247  23877243.22747
        43.000          27.500  
 11  3 30 18 29 30.0000000  0 11G03G06G09G11G14G18G19G21G22G24G31   
  24037265.438 6     -2856.832 6   3815269.319 6   2962694.40746  24037262.30946
        43.000          25.250  
  24176754.820 5     -2797.594 5   3762921.869 5   2923818.45946  24176751.39846
        41.500          22.500  
  23371637.766 5     -2353.941 5   2354516.381 5   1836433.20946  23371631.70746
        42.000          23.000  
  23654481.266 5      2863.182 5  -5829468.185 5  -4510096.09746  23654473.50846
        41.500          22.000  
  20301666.461 7       -59.844 7  -1283315.350 7   -972563.10649  20301658.05949
        49.500          41.500  
  22300923.891 6     -1945.657 6   2268970.465 6   1768591.80147  22300916.25047
        47.000          33.000  
  22933625.891 6     -1368.015 6    829649.078 6    658952.53547  22933618.13347
        46.000          33.250  
  24571647.820 1     -3712.492 1   5224876.112 1   4050941.66945  24571646.80145
        33.500          17.250  
  20731744.195 7      -739.655 7    180705.490 7    156919.39949  20731734.21149
        51.000          41.750  
  24506589.234 4      3341.164 4  -4950867.802 4  -5948250.46546  24506584.34846
        37.750          19.750  
  23866762.469 5      3673.242 5  -6709903.236 5  -5223911.80947  23866758.10947
        42.250          27.000  
 11  3 30 18 29 45.0000000  0 11G03G06G09G11G14G18G19G21G22G24G31   
  24045424.570 6     -2858.489 6   3858146.654 6   2996105.24246  24045421.14846
        43.250          24.750  
  24184744.047 5     -2798.802 5   3804903.904 5   2956531.65146  24184741.03546
        41.000          24.750  
  23378382.539 5     -2362.767 5   2389957.883 5   1864049.92446  23378376.48046
        41.250          25.250  
  23646323.234 5      2857.904 5  -5872336.743 5  -4543500.15846  23646315.71146
        41.750          21.750  
  20301858.398 7       -67.340 7  -1282305.252 7   -971776.01749  20301849.82049
        49.000          41.750  
  22306486.359 6     -1948.668 6   2298200.480 6   1791368.41047  22306478.42647
        46.500          32.500  
  22937552.719 6     -1375.700 6    850284.585 6    675032.12047  22937544.78547
        46.000          33.000  
  24582249.750 1     -3714.551 1   5280594.379 1   4094358.29445  24582249.25845
        33.250          18.500  
  20733866.875 7      -743.704 7    191861.047 7    165612.03749  20733856.48049
        51.250          41.750  
  24497056.680 4      3339.510 4  -5000960.454 4  -5987283.70946  24497052.26246
        38.000          19.750  
  23856280.711 6      3672.182 6  -6764985.969 6  -5266833.34347  23856276.29347
        43.000          27.750  
 11  3 30 18 30  0.0000000  0 11G03G06G09G11G14G18G19G21G22G24G31   
  24053588.492 5     -2860.080 5   3901047.847 5   3029534.66346  24053585.18846
        41.000          24.750  
  24192736.031 4     -2799.946 4   3846903.088 4   2989258.22346  24192733.02046
        39.000          23.750  
  23385152.078 6     -2371.538 6   2425530.950 6   1891769.18146  23385146.25446
        43.000          23.500  
  23638180.617 5      2852.647 5  -5915126.446 5  -4576842.75446  23638173.68046
        41.250          22.250  
  20302071.898 7       -74.756 7  -1281183.917 7   -970902.24448  20302063.32048
        49.250          41.000  
  22312057.500 6     -1951.640 6   2327475.081 6   1814179.76147  22312048.98047
        46.500          32.500  
  22941500.852 6     -1383.329 6    871034.520 6    691200.86847  22941493.73847
        46.000          33.500  
  24592858.469 2     -3716.543 2   5336342.517 2   4137798.26345  24592857.44945
        35.000          18.500  
  20736001.602 7      -747.712 7    203076.732 7    174351.51649  20735990.91449
        51.000          41.500  
  24487529.328 3      3337.875 3  -5051028.584 3  -6026297.80245  24487525.14545
        37.250          17.750  
  23845801.859 6      3671.143 6  -6820053.120 6  -5309742.72947  23845797.14847
        43.500          27.500  
 11  3 30 18 30 15.0000000  0 11G03G06G09G11G14G18G19G21G22G24G31   
  24061757.148 6     -2861.693 6   3943973.245 6   3062982.96746  24061753.66846
        43.000          24.750  
  24200732.203 4     -2801.109 4   3888919.723 4   3021998.39146  24200728.66446
        38.750          23.750  
  23391946.289 6     -2380.329 6   2461235.882 6   1919591.14946  23391939.99646
        42.750          25.500  
  23630053.422 5      2847.324 5  -5957836.299 5  -4610123.15546  23630046.25046
        41.250          21.250  
  20302306.891 7       -82.219 7  -1279950.634 7   -969941.23748  20302298.02048
        48.750          41.250  
  22317636.609 6     -1954.651 6   2356794.852 6   1837026.30647  22317627.97347
        46.750          32.250  
  22945471.633 6     -1390.973 6    891899.110 6    707458.95647  22945463.93447
        46.250          33.250  
  24603473.500 1     -3718.558 1   5392120.880 1   4181261.73946  24603472.36346
        33.250          19.000  
  20738147.031 7      -751.752 7    214353.009 7    183138.21249  20738136.81349
        51.000          42.000  
  24478006.547 4      3336.186 4  -5101071.371 4  -6065292.14446  24478001.66046
        37.500          19.750  
  23835325.664 6      3670.040 6  -6875103.718 6  -5352639.22047  23835321.65647
        43.000          28.000  
 11  3 30 18 30 30.0000000  0 11G03G06G09G11G14G18G19G21G22G24G31   
  24069930.266 6     -2863.247 6   3986921.945 6   3096449.39946  24069927.25446
        43.000          24.500  
  24208730.391 5     -2802.232 5   3930953.201 5   3054751.67246  24208726.96946
        40.250          23.750  
  23398765.648 5     -2389.071 5   2497071.951 5   1947515.34746  23398759.47346
        41.750          25.250  
  23621941.453 5      2842.013 5  -6000466.497 5  -4643341.45946  23621933.52046
        41.500          21.250  
  20302562.281 6       -89.650 6  -1278605.884 6   -968893.37949  20302553.64549
        47.250          41.500  
  22323224.906 6     -1957.626 6   2386159.248 6   1859907.62947  22323215.85947
        46.500          32.000  
  22949463.719 6     -1398.578 6    912877.773 6    723805.94147  22949456.13747
        46.500          32.500  
  24614093.789 3     -3720.539 3   5447928.961 3   4224748.40246  24614092.00846
        35.750          19.250  
  20740304.305 7      -755.778 7    225689.684 7    191971.98249  20740293.91049
        50.500          41.750  
  24468488.289 4      3334.503 4  -5151088.916 4  -6104266.84246  24468483.75446
        38.000          20.000  
  23824853.016 6      3668.936 6  -6930137.761 6  -5395522.82147  23824848.83247
        43.500          28.250  
 11  3 30 18 30 45.0000000  0 11G03G06G09G11G14G18G19G21G22G24G31   
  24078107.367 5     -2864.805 5   4029894.016 5   3129934.07746  24078104.41446
        41.000          24.750  
  24216731.930 5     -2803.351 5   3973003.459 5   3087518.01446  24216729.38746
        39.250          23.000  
  23405610.117 6     -2397.821 6   2533039.271 6   1975541.81646  23405604.11746
        43.000          24.250  
  23613843.805 5      2836.642 5  -6043016.131 5  -4676497.01446  23613836.86746
        42.000          21.500  
  20302839.609 7       -97.099 7  -1277149.405 7   -967758.45848  20302831.20748
        48.500          41.250  
  22328820.891 6     -1960.641 6   2415568.862 6   1882824.18847  22328813.25047
        46.000          32.250  
  22953477.523 6     -1406.195 6    933970.696 6    740241.95647  22953469.53147
        46.500          32.250  
  24624719.102 2     -3722.526 2   5503766.851 2   4268258.30846  24624717.55546
        35.250          19.500  
  20742473.141 7      -759.839 7    237087.276 7    200853.21049  20742462.80549
        51.500          42.000  
  24458975.227 4      3332.774 4  -5201080.526 4  -6143221.27246  24458970.34046
        38.500          20.000  
  23814383.523 6      3667.779 6  -6985154.446 6  -5438392.88447  23814379.16447
        44.250          28.500  
 11  3 30 18 31  0.0000000  0 11G03G06G09G11G14G18G19G21G22G24G31   
  24086289.273 5     -2866.296 5   4072888.451 5   3163436.15746  24086286.08646
        42.000          25.000  
  24224736.852 5     -2804.404 5   4015069.520 5   3120296.68946  24224734.19146
        40.000          22.750  
  23412479.406 6     -2406.517 6   2569137.031 6   2003669.90847  23412473.58247
        43.000          26.750  
  23605762.336 5      2831.301 5  -6085485.644 5  -4709590.12446  23605755.16446
        41.250          20.750  
  20303137.945 7      -104.498 7  -1275581.937 7   -966537.05448  20303128.84048
        49.500          41.000  
  22334426.078 6     -1963.616 6   2445023.109 6   1905775.52347  22334417.61747
        46.000          31.500  
  22957513.164 6     -1413.764 6    955177.151 6    756766.44147  22957505.05547
        46.500          33.000  
  24635350.813 3     -3724.453 3   5559633.645 3   4311790.72146  24635349.09046
        36.500          20.000  
  20744653.969 7      -763.856 7    248545.118 7    209781.38849  20744643.75049
        50.500          41.750  
  24449467.211 4      3331.058 4  -5251046.397 4  -6182155.76846  24449462.61746
        37.750          20.500  
  23803917.445 6      3666.639 6  -7040154.035 6  -5481249.64247  23803913.32047
        44.250          28.500  
 11  3 30 18 31 15.0000000  0 11G03G06G09G11G14G18G19G21G22G24G31   
  24094474.609 5     -2867.791 5   4115905.311 5   3196955.71946  24094471.94946
        40.750          23.750  
  24232745.672 5     -2805.457 5   4057151.378 5   3153087.69046  24232742.54346
        39.500          22.500  
  23419373.414 6     -2415.209 6   2605365.165 6   2031899.60847  23419366.94547
        43.500          26.500  
  23597695.953 5      2825.919 5  -6127874.422 5  -4742620.31546  23597688.89846
        41.500          21.500  
  20303457.352 7      -111.912 7  -1273903.254 7   -965228.98049  20303448.36349
        49.000          41.500  
  22340039.734 6     -1966.608 6   2474522.222 6   1928761.82047  22340031.62547
        45.500          31.750  
  22961570.133 6     -1421.327 6    976497.059 6    773379.32647  22961562.31647
        46.750          32.500  
  24645987.461 4     -3726.379 4   5615529.337 4   4355345.65546  24645985.62146
        37.500          19.500  
  20746845.797 7      -767.898 7    260063.594 7    218756.81049  20746835.40249
        51.000          42.000  
  24439963.734 4      3329.311 4  -5300986.069 4  -6221069.76146  24439959.19946
        38.750          21.250  
  23793454.695 6      3665.450 6  -7095135.792 6  -5524092.48747  23793450.51247
        44.500          27.750  
 11  3 30 18 31 30.0000000  0 11G03G06G09G11G14G18G19G21G22G24G31   
  24102665.203 5     -2869.280 5   4158944.517 5   3230492.66946  24102662.25046
        41.250          24.500  
  24240755.508 5     -2806.505 5   4099248.948 5   3185890.91546  24240753.25846
        39.250          22.500  
  23426292.406 6     -2423.887 6   2641723.472 6   2060230.72646  23426285.76246
        43.750          25.250  
  23589644.797 5      2820.492 5  -6170181.806 5  -4775587.11046  23589637.56646
        41.500          21.000  
  20303797.992 7      -119.339 7  -1272113.168 7   -963834.10049  20303789.23849
        48.500          41.750  
  22345661.500 6     -1969.617 6   2504066.472 6   1951783.29047  22345653.15647
        46.000          31.000  
  22965648.930 6     -1428.893 6    997930.459 6    790080.65747  22965641.23047
        46.500          32.750  
  24656629.508 3     -3728.317 3   5671454.088 3   4398923.29746  24656627.90246
        37.250          19.500  
  20749049.070 7      -771.958 7    271642.960 7    227779.68549  20749038.38349
        50.250          41.750  
  24430465.813 5      3327.535 5  -5350899.092 5  -6259963.00046  24430460.39846
        39.250          21.500  
  23782995.633 6      3664.219 6  -7150099.083 6  -5566920.96147  23782991.74247
        44.500          28.000  
 11  3 30 18 31 45.0000000  0 11G03G06G09G11G14G18G19G21G22G24G31   
  24110859.266 5     -2870.713 5   4202005.217 5   3264046.39546  24110856.37146
        41.500          25.500  
  24248769.711 4     -2807.503 4   4141361.490 4   3218705.79146  24248766.99246
        38.000          22.750  
  23433235.219 6     -2432.521 6   2678211.281 6   2088662.76146  23433229.51246
        43.750          25.000  
  23581609.961 5      2815.081 5  -6212408.026 5  -4808490.63346  23581602.78946
        41.500          21.250  
  20304159.344 7      -126.716 7  -1270212.435 7   -962353.00848  20304150.64848
        48.000          41.250  
  22351291.898 6     -1972.599 6   2533655.452 6   1974839.60747  22351284.14147
        46.250          31.750  
  22969749.250 6     -1436.407 6   1019476.569 6    806869.80347  22969741.43447
        46.000          32.500  
  24667277.148 4     -3730.199 4   5727407.077 4   4442522.85646  24667276.07046
        38.750          21.500  
  20751264.070 7      -775.986 7    283282.744 7    236849.63849  20751253.55949
        50.750          42.000  
  24420972.500 5      3325.760 5  -5400785.491 5  -6298835.51346  24420967.90646
        39.750          21.500  
  23772539.969 6      3662.996 6  -7205044.019 6  -5609735.12347  23772535.72747
        44.750          29.000  
 11  3 30 18 32  0.0000000  0 11G03G06G09G11G14G18G19G21G22G24G31   
  24119058.156 5     -2872.118 5   4245086.985 5   3297616.53046  24119054.91046
        39.750          22.750  
  24256786.125 5     -2808.475 5   4183488.615 5   3251532.04046  24256783.40646
        39.250          22.750  
  23440203.555 6     -2441.142 6   2714828.407 6   2117195.57146  23440197.14546
        43.250          25.500  
  23573590.031 5      2809.640 5  -6254552.620 5  -4841330.57246  23573583.27046
        41.500          22.000  
  20304542.344 7      -134.097 7  -1268200.979 7   -960785.63248  20304533.59048
        48.250          41.000  
  22356931.555 6     -1975.590 6   2563289.301 6   1997930.87947  22356923.27047
        46.250          31.500  
  22973870.695 6     -1443.916 6   1041135.309 6    823746.71347  22973862.58647
        47.000          33.000  
  24677929.938 3     -3732.073 3   5783388.172 3   4486144.37846  24677929.38746
        37.000          20.250  
  20753490.586 7      -780.021 7    294983.052 7    245966.74549  20753480.13349
        50.750          41.750  
  24411485.156 5      3323.956 5  -5450644.837 5  -6337686.92646  24411480.32846
        40.000          22.500  
  23762087.664 6      3661.727 6  -7259969.927 6  -5652534.47047  23762083.59847
        44.750          28.500  
 11  3 30 18 32 15.0000000  0 11G03G06G09G11G14G18G19G21G22G24G31   
  24127259.383 5     -2873.494 5   4288189.393 5   3331202.75146  24127257.07446
        40.750          22.750  
  24264806.266 4     -2809.421 4   4225629.924 4   3284369.36046  24264802.66846
        38.000          22.250  
  23447196.008 6     -2449.737 6   2751574.459 6   2145828.84346  23447189.65646
        43.500          25.750  
  23565585.789 5      2804.190 5  -6296615.476 5  -4874106.82646  23565579.32046
        41.750          22.000  
  20304946.094 7      -141.458 7  -1266079.112 7   -959132.22448  20304937.75048
        48.000          41.250  
  22362579.250 6     -1978.564 6   2592967.758 6   2021056.92547  22362570.78947
        45.250          31.500  
  22978013.695 6     -1451.391 6   1062906.174 6    840711.00647  22978005.46947
        46.000          33.250  
  24688588.914 4     -3733.918 4   5839396.940 4   4529787.45246  24688587.42646
        38.250          20.000  
  20755728.531 7      -784.053 7    306743.849 7    255130.99349  20755718.48849
        51.250          41.500  
  24402002.094 5      3322.153 5  -5500477.133 5  -6376517.27546  24401997.61746
        40.500          22.500  
  23751639.555 6      3660.460 6  -7314876.826 6  -5695318.99947  23751635.07847
        45.250          28.000  
 11  3 30 18 32 30.0000000  0 11G03G06G09G11G14G18G19G21G22G24G31   
  24135465.461 5     -2874.890 5   4331312.740 5   3364805.26946  24135462.97746
        40.000          22.500  
  24272827.602 5     -2810.389 5   4267785.760 5   3317217.96646  24272825.00046
        40.250          22.000  
  23454214.063 6     -2458.344 6   2788449.625 6   2174562.71647  23454207.18447
        44.500          27.000  
  23557597.180 5      2798.673 5  -6338595.577 5  -4906818.56946  23557589.42246
        42.000          22.250  
  20305370.984 7      -148.854 7  -1263846.308 7   -957392.37148  20305362.64148
        49.000          41.000  
  22368235.570 6     -1981.585 6   2622691.533 6   2044218.27247  22368227.52047
        46.250          31.250  
  22982177.570 6     -1458.900 6   1084789.668 6    857763.04947  22982169.81347
        46.500          33.000  
  24699251.875 4     -3735.801 4   5895433.957 4   4573452.54546  24699250.68046
        39.000          19.750  
  20757978.086 7      -788.126 7    318565.739 7    264342.84349  20757967.69149
        50.750          42.000  
  24392524.344 5      3320.288 5  -5550281.455 5  -6415325.82446  24392520.51246
        40.500          22.000  
  23741194.102 6      3659.126 6  -7369763.709 6  -5738087.93947  23741190.27047
        45.000          27.750  
 11  3 30 18 32 45.0000000  0 11G03G06G09G11G14G18G19G21G22G24G31   
  24143675.758 5     -2876.220 5   4374456.045 5   3398423.35846  24143672.51246
        40.250          22.500  
  24280852.125 4     -2811.288 4   4309955.075 4   3350077.11846  24280849.23046
        38.250          21.250  
  23461254.719 6     -2466.888 6   2825452.947 6   2203396.46347  23461249.01247
        44.000          27.500  
  23549624.453 5      2793.183 5  -6380493.326 5  -4939466.15246  23549617.34046
        42.250          22.750  
  20305816.719 7      -156.194 7  -1261503.401 7   -955566.72148  20305808.19948
        48.500          40.750  
  22373900.469 7     -1984.567 7   2652460.039 7   2067414.48647  22373892.12547
        47.750          32.000  
  22986363.188 6     -1466.344 6   1106784.835 6    874902.12347  22986355.37147
        46.250          32.750  
  24709920.672 4     -3737.608 4   5951498.078 4   4617138.72546  24709919.41846
        38.500          20.250  
  20760239.406 7      -792.157 7    330448.088 7    273601.80749  20760228.89549
        50.250          42.000  
  24383052.500 5      3318.448 5  -5600058.174 5  -6454112.87246  24383047.96546
        41.000          24.000  
  23730753.273 6      3657.800 6  -7424630.704 6  -5780841.37047  23730749.09047
        44.500          27.500  
 11  3 30 18 33  0.0000000  0 11G03G06G09G11G14G18G19G21G22G24G31   
  24151889.141 5     -2877.541 5   4417619.159 5   3432056.87346  24151886.24646
        39.250          21.750  
  24288879.523 4     -2812.186 4   4352137.863 4   3382946.74046  24288876.51246
        39.000          22.000  
  23468320.625 6     -2475.429 6   2862584.379 6   2232330.02347  23468314.15647
        43.750          26.500  
  23541667.367 5      2787.666 5  -6422308.316 5  -4972049.26946  23541659.49246
        41.750          22.750  
  20306283.875 7      -163.547 7  -1259050.193 7   -953655.13748  20306274.94548
        48.500          40.750  
  22379573.320 6     -1987.572 6   2682273.625 6   2090645.81047  22379565.38747
        46.500          31.000  
  22990570.305 6     -1473.790 6   1128891.690 6    892128.21747  22990562.54747
        47.250          32.250  
  24720594.125 5     -3739.410 5   6007589.231 5   4660845.98646  24720593.69146
        39.250          20.500  
  20762511.953 7      -796.214 7    342391.301 7    282908.19249  20762501.44149
        50.500          42.000  
  24373585.570 5      3316.566 5  -5649806.658 5  -6492877.91246  24373580.97746
        41.250          22.750  
  23720316.375 6      3656.431 6  -7479477.167 6  -5823578.82147  23720312.13347
        44.500          27.000  
 11  3 30 18 33 15.0000000  0 11G03G06G09G11G14G18G19G21G22G24G31   
  24160106.859 5     -2878.820 5   4460801.460 5   3465705.33846  24160103.96546
        39.750          22.250  
  24296909.422 4     -2813.047 4   4394333.568 4   3415826.42946  24296906.05946
        38.500          21.250  
  23475411.148 6     -2483.950 6   2899843.630 6   2261363.18247  23475404.73847
        44.000          27.750  
  23533725.641 5      2782.127 5  -6464040.218 5  -5004567.60446  23533718.05946
        41.250          22.500  
  20306771.352 7      -170.881 7  -1256486.982 7   -951657.82648  20306762.24648
        49.000          40.500  
  22385255.125 6     -1990.555 6   2712131.947 6   2113912.00547  22385247.54347
        47.000          31.250  
  22994798.047 6     -1481.185 6   1151109.465 6    909440.74147  22994790.05547
        46.500          32.500  
  24731273.711 5     -3741.192 5   6063707.109 5   4704574.05746  24731272.28146
        40.000          20.000  
  20764796.328 7      -800.262 7    354395.228 7    292261.89149  20764786.22749
        50.750          42.000  
  24364124.203 5      3314.680 5  -5699526.858 5  -6531620.88146  24364119.43446
        41.750          22.250  
  23709883.438 6      3655.047 6  -7534302.865 6  -5866300.08347  23709879.48847
        44.750          27.000  
 11  3 30 18 33 30.0000000  0 11G03G06G09G11G14G18G19G21G22G24G31   
  24168327.648 5     -2880.103 5   4504003.001 5   3499368.78446  24168324.34446
        39.500          21.000  
  24304941.266 3     -2813.890 3   4436541.923 3   3448715.97146  24304938.07846
        36.750          19.750  
  23482525.977 6     -2492.456 6   2937230.476 6   2290495.77947  23482519.39147
        44.250          27.500  
  23525800.188 5      2776.550 5  -6505688.461 5  -5037020.77546  23525792.84046
        41.500          22.000  
  20307280.516 7      -178.222 7  -1253813.657 7   -949574.71048  20307271.76248
        48.750          41.000  
  22390945.609 6     -1993.559 6   2742035.330 6   2137213.31947  22390937.55947
        46.250          31.000  
  22999047.023 6     -1488.611 6   1173438.636 6    926840.07547  22999039.26647
        46.250          32.500  
  24741957.281 5     -3742.988 5   6119851.934 5   4748323.14546  24741956.49646
        40.500          20.000  
  20767092.313 7      -804.332 7    366460.203 7    301663.15348  20767081.62548
        50.500          41.250  
  24354668.172 5      3312.765 5  -5749218.337 5  -6570341.50546  24354663.81346
        41.500          24.000  
  23699454.492 6      3653.633 6  -7589107.362 6  -5909004.83747  23699450.48447
        44.500          27.000  
 11  3 30 18 33 45.0000000  0 11G03G06G09G11G14G18G19G21G22G24G31   
  24176552.313 4     -2881.329 4   4547222.940 4   3533046.60646  24176549.41846
        39.000          20.750  
  24312975.305 4     -2814.703 4   4478762.469 4   3481615.00846  24312972.46946
        38.000          20.500  
  23489664.703 6     -2500.919 6   2974744.259 6   2319727.27747  23489658.29347
        44.500          27.500  
  23517891.133 5      2770.981 5  -6547253.178 5  -5069408.85246  23517883.78546
        41.500          23.500  
  20307810.016 7      -185.534 7  -1251030.649 7   -947406.12948  20307801.08648
        48.250          40.750  
  22396644.773 6     -1996.547 6   2771983.540 6   2160549.55947  22396636.84047
        46.000          31.250  
  23003317.508 6     -1495.990 6   1195878.482 6    944325.64647  23003309.51647
        46.750          32.000  
  24752646.445 5     -3744.730 5   6176022.887 5   4792092.59546  24752645.42646
        39.500          19.000  
  20769399.445 7      -808.376 7    378585.845 7    311111.70449  20769389.22749
        50.750          41.500  
  24345217.461 5      3310.849 5  -5798881.074 5  -6609039.72746  24345212.92646
        42.000          24.500  
  23689029.961 6      3652.206 6  -7643890.453 6  -5951692.89547  23689024.66447
        44.500          26.500  
 11  3 30 18 34  0.0000000  0 11G03G06G09G11G14G18G19G21G22G24G31   
  24184780.805 4     -2882.553 4   4590461.239 4   3566738.68846  24184777.14846
        39.000          21.000  
  24321012.305 4     -2815.516 4   4520995.208 4   3514523.58446  24321009.35246
        37.500          19.500  
  23496827.250 6     -2509.387 6   3012385.062 6   2349057.76747  23496820.43047
        44.750          27.500  
  23509997.469 5      2765.357 5  -6588733.534 5  -5101731.18346  23509990.47346
        42.000          22.500  
  20308360.055 7      -192.860 7  -1248137.749 7   -945151.91748  20308351.65248
        48.750          40.750  
  22402352.469 6     -1999.557 6   2801976.888 6   2183920.96947  22402344.24247
        46.000          31.500  
  23007608.531 6     -1503.375 6   1218429.103 6    961897.54547  23007601.06647
        46.250          32.500  
  24763340.836 5     -3746.472 5   6232219.967 5   4835882.38946  24763339.93446
        40.000          19.000  
  20771718.742 7      -812.449 7    390772.583 7    320607.85149  20771708.40649
        50.250          41.500  
  24335772.320 5      3308.880 5  -5848514.275 5  -6647714.93346  24335767.90246
        42.250          22.750  
  23678609.109 6      3650.730 6  -7698651.398 6  -5994363.71547  23678604.57447
        43.750          26.750  
 11  3 30 18 34 15.0000000  0 11G03G06G09G11G14G18G19G21G22G24G31   
  24193011.453 4     -2883.736 4   4633717.281 4   3600444.60546  24193008.73446
        38.500          20.250  
  24329050.656 3     -2816.278 3   4563239.384 3   3547441.05046  24329047.87946
        36.750          19.500  
  23504013.914 6     -2517.804 6   3050152.123 6   2378486.63547  23504007.44547
        44.250          28.750  
  23502119.953 6      2759.749 6  -6630129.765 6  -5133987.97746  23502113.07446
        42.500          24.500  
  20308931.516 7      -200.135 7  -1245135.728 7   -942812.68248  20308922.87948
        49.000          41.250  
  22408068.344 6     -2002.543 6   2832015.029 6   2207327.28247  22408060.41047
        46.250          31.500  
  23011920.898 6     -1510.712 6   1241089.778 6    979555.18447  23011912.84847
        46.500          32.500  
  24774039.625 5     -3748.177 5   6288442.617 5   4879692.09645  24774038.02045
        40.000          18.500  
  20774049.078 7      -816.492 7    403019.965 7    330151.25349  20774039.15249
        50.250          41.500  
  24326333.289 5      3306.922 5  -5898118.108 5  -6686367.25446  24326328.75446
        42.250          22.750  
  23668192.555 6      3649.250 6  -7753390.151 6  -6037017.23147  23668188.13747
        43.500          26.750  
 11  3 30 18 34 30.0000000  0 11G03G06G09G11G14G18G19G21G22G24G31   
  24201246.188 4     -2884.904 4   4676990.841 4   3634164.20546  24201243.17646
        39.000          21.500  
  24337091.352 3     -2817.021 3   4605494.692 3   3580367.16346  24337088.69146
        37.000          19.250  
  23511224.188 6     -2526.214 6   3088045.334 6   2408013.77447  23511218.59847
        43.750          28.000  
  23494258.500 5      2754.114 5  -6671441.471 5  -5166178.90846  23494251.09446
        40.500          22.750  
  20309523.742 7      -207.424 7  -1242024.369 7   -940388.24548  20309514.81348
        48.000          41.000  
  22413793.180 6     -2005.525 6   2862097.899 6   2230768.44047  22413784.71947
        45.750          31.500  
  23016253.859 6     -1518.034 6   1263860.291 6    997298.42047  23016245.86747
        46.750          32.250  
  24784743.531 5     -3749.877 5   6344690.766 5   4923521.71645  24784742.27745
        40.000          16.750  
  20776391.656 7      -820.544 7    415328.118 7    339742.01149  20776380.85249
        51.000          41.500  
  24316899.406 5      3304.947 5  -5947692.310 5  -6724996.47846  24316894.98846
        42.000          23.750  
  23657780.141 6      3647.751 6  -7808106.418 6  -6079653.22147  23657775.72347
        44.000          27.250  
 11  3 30 18 34 45.0000000  0 11G03G06G09G11G14G18G19G21G22G24G31   
  24209484.648 5     -2886.054 5   4720281.645 5   3667897.22246  24209481.81346
        39.500          20.500  
  24345134.820 4     -2817.745 4   4647760.869 4   3613301.74846  24345131.86746
        37.500          19.250  
  23518459.766 6     -2534.610 6   3126064.484 6   2437639.06447  23518453.29747
        44.750          27.250  
  23486413.680 6      2748.450 6  -6712668.222 6  -5198303.61846  23486406.68446
        42.500          24.750  
  20310136.313 7      -214.718 7  -1238803.598 7   -937878.55148  20310127.79348
        49.000          41.000  
  22419526.070 6     -2008.515 6   2892225.627 6   2254244.55847  22419518.25447
        46.250          30.750  
  23020608.016 6     -1525.345 6   1286740.462 6   1015127.10447  23020600.08247
        46.750          32.250  
  24795452.016 5     -3751.572 5   6400964.346 5   4967371.11645  24795451.23045
        41.000          16.750  
  20778745.180 7      -824.605 7    427697.196 7    349380.24249  20778734.55149
        50.500          41.750  
  24307471.234 5      3302.946 5  -5997236.499 5  -6763602.32046  24307467.05146
        42.250          22.000  
  23647372.594 6      3646.215 6  -7862799.647 6  -6122271.26347  23647367.47347
        43.500          26.750  
 11  3 30 18 35  0.0000000  0 11G03G06G09G11G14G18G19G21G22G24G31   
  24217725.945 4     -2887.181 4   4763589.364 4   3701643.41846  24217722.81646
        39.000          20.000  
  24353180.578 4     -2818.460 4   4690037.770 4   3646244.76246  24353177.56646
        37.500          19.250  
  23525718.375 6     -2542.980 6   3164209.190 6   2467362.19047  23525711.55547
        44.000          26.750  
  23478584.422 6      2742.759 6  -6753809.600 6  -5230361.83646  23478577.36746
        42.500          22.750  
  20310770.367 7      -222.001 7  -1235473.576 7   -935283.72649  20310761.55549
        48.750          41.500  
  22425267.906 6     -2011.527 6   2922398.527 6   2277755.87147  22425259.79747
        45.750          30.250  
  23024982.930 6     -1532.656 6   1309730.302 6   1033041.23747  23024974.93847
        46.250          31.500  
  24806165.195 5     -3753.255 5   6457263.169 5   5011240.21945  24806164.82045
        40.500          16.750  
  20781110.648 7      -828.676 7    440127.341 7    359066.06249  20781100.48849
        50.750          41.750  
  24298049.258 6      3300.917 6  -6046750.252 6  -6802184.44846  24298045.13346
        42.750          24.500  
  23636969.023 6      3644.639 6  -7917469.230 6  -6164870.87146  23636964.60546
        43.750          26.000  
 11  3 30 18 35 15.0000000  0 11G03G06G09G11G14G18G19G21G22G24G31   
  24225970.195 5     -2888.259 5   4806913.247 5   3735402.17746  24225967.12546
        39.750          21.250  
  24361227.391 4     -2819.136 4   4732324.804 4   3679195.58846  24361224.61346
        37.750          20.000  
  23533001.398 6     -2551.312 6   3202478.876 6   2497182.69947  23532994.46147
        44.500          27.500  
  23470771.992 6      2737.066 6  -6794865.592 6  -5262353.49646  23470764.52746
        43.500          24.000  
  20311424.539 7      -229.252 7  -1232034.793 7   -932604.15048  20311415.55148
        48.500          41.000  
  22431018.352 6     -2014.514 6   2952616.236 6   2301302.09147  22431010.06647
        46.250          31.000  
  23029378.500 6     -1539.916 6   1332829.044 6   1051040.23647  23029370.15647
        46.750          32.000  
  24816883.281 5     -3754.895 5   6513586.591 5   5055128.62645  24816882.61345
        40.000          15.500  
  20783487.656 7      -832.731 7    452618.311 7    368799.27249  20783477.20349
        51.000          41.750  
  24288633.406 6      3298.894 6  -6096233.657 6  -6840742.93146  24288628.75446
        42.750          24.500  
  23626570.297 6      3643.060 6  -7972115.129 6  -6207452.05047  23626565.76247
        43.250          27.250  
 11  3 30 18 35 30.0000000  0 11G03G06G09G11G14G18G19G21G22G24G31   
  24234217.461 5     -2889.321 5   4850253.055 5   3769173.42546  24234214.27346
        39.750          20.750  
  24369276.602 4     -2819.778 4   4774621.481 4   3712153.93646  24369273.12146
        38.500          19.750  
  23540306.969 6     -2559.625 6   3240873.256 6   2527100.37947  23540300.38347
        44.000          27.500  
  23462975.773 6      2731.352 6  -6835835.878 6  -5294278.37347  23462967.89847
        42.500          26.500  
  20312099.758 7      -236.500 7  -1228487.293 7   -929839.87148  20312091.29748
        48.000          41.250  
  22436776.461 6     -2017.507 6   2982878.846 6   2324883.31547  22436768.87947
        47.250          30.750  
  23033794.500 6     -1547.172 6   1356036.620 6   1069124.04147  23033786.80147
        47.000          32.000  
  24827606.375 5     -3756.520 5   6569934.393 5   5099035.85945  24827605.70745
        40.250          14.750  
  20785876.281 7      -836.794 7    465170.227 7    378579.97248  20785865.71148
        50.750          41.000  
  24279222.523 6      3296.847 6  -6145686.357 6  -6879277.49546  24279218.04746
        43.500          22.750  
  23616176.391 6      3641.455 6  -8026736.956 6  -6250014.44647  23616171.56347
        44.250          27.500  
 11  3 30 18 35 45.0000000  0 11G03G06G09G11G14G18G19G21G22G24G31   
  24242467.375 5     -2890.372 5   4893608.628 5   3802956.91746  24242465.24246
        39.250          21.500  
  24377326.461 4     -2820.412 4   4816927.657 4   3745119.75046  24377323.91846
        38.000          19.500  
  23547636.789 6     -2567.922 6   3279392.087 6   2557115.02347  23547630.73047
        44.000          26.750  
  23455195.586 6      2725.615 6  -6876720.110 6  -5326136.20246  23455188.76646
        42.500          25.750  
  20312795.398 7      -243.746 7  -1224831.109 7   -926990.89548  20312786.58648
        49.000          41.000  
  22442544.789 6     -2020.494 6   3013186.260 6   2348499.46047  22442535.91847
        46.000          30.250  
  23038231.617 6     -1554.410 6   1379352.766 6   1087292.44247  23038223.33247
        46.500          32.000  
  24838333.414 5     -3758.133 5   6626306.391 5   5142962.03945  24838332.16045
        39.750          14.750  
  20788276.469 7      -840.868 7    477783.241 7    388408.28348  20788266.07448
        50.500          41.250  
  24269818.203 6      3294.775 6  -6195107.978 6  -6917787.83846  24269813.55146
        43.250          22.750  
  23605786.766 6      3639.824 6  -8081334.310 6  -6292557.78547  23605781.99647
        43.750          27.750  
 11  3 30 18 36  0.0000000  0 11G03G06G09G11G14G18G19G21G22G24G31   
  24250721.320 5     -2891.397 5   4936979.582 5   3836752.39746  24250717.84046
        40.750          21.250  
  24385379.266 4     -2821.042 4   4859243.285 4   3778092.89246  24385375.96146
        38.750          20.000  
  23554990.359 6     -2576.215 6   3318035.315 6   2587226.59247  23554984.41847
        44.250          27.250  
  23447431.414 6      2719.841 6  -6917517.719 6  -5357926.51546  23447424.47746
        43.000          26.000  
  20313511.688 7      -250.995 7  -1221066.179 7   -924057.18048  20313503.10948
        48.500          41.000  
  22448320.359 6     -2023.513 6   3043538.950 6   2372150.86947  22448312.36747
        45.500          30.000  
  23042689.039 6     -1561.643 6   1402777.417 6   1105545.39347  23042680.69547
        46.500          32.500  
  24849064.969 5     -3759.751 5   6682702.652 5   5186907.06645  24849064.00845
        39.500          15.500  
  20790688.273 7      -844.956 7    490457.581 7    398284.38349  20790677.99649
        50.000          42.000  
  24260419.438 6      3292.665 6  -6244497.958 6  -6956273.51346  24260415.02046
        43.500          23.750  
  23595401.805 6      3638.143 6  -8135906.451 6  -6335081.46846  23595397.09446
        43.500          26.250  
 11  3 30 18 36 15.0000000  0 11G03G06G09G11G14G18G19G21G22G24G31   
  24258977.047 5     -2892.384 5   4980365.340 5   3870559.40946  24258974.03546
        39.500          22.000  
  24393433.852 3     -2821.618 3   4901567.553 3   3811072.76046  24393430.66446
        37.250          19.750  
  23562367.336 6     -2584.459 6   3356802.206 6   2617434.53946  23562361.39546
        43.500          26.000  
  23439684.727 6      2714.067 6  -6958228.723 6  -5389649.35946  23439677.84846
        43.000          25.000  
  20314248.805 7      -258.211 7  -1217193.018 7   -921039.13848  20314240.28548
        48.500          41.250  
  22454104.617 6     -2026.499 6   3073936.431 6   2395837.18147  22454096.50847
        46.500          31.000  
  23047167.234 6     -1568.828 6   1426309.834 6   1123882.32847  23047159.18447
        46.250          31.750  
  24859802.234 4     -3761.326 4   6739122.549 4   5230870.56645  24859800.74645
        38.500          14.750  
  20793111.727 7      -849.021 7    503192.894 7    408207.99549  20793101.15649
        50.500          41.750  
  24251026.820 6      3290.558 6  -6293856.328 6  -6994734.57546  24251021.99246
        43.000          22.750  
  23585021.242 6      3636.468 6  -8190453.472 6  -6377585.59647  23585017.05947
        43.250          26.500  
 11  3 30 18 36 30.0000000  0 11G03G06G09G11G14G18G19G21G22G24G31   
  24267235.875 5     -2893.352 5   5023765.617 5   3904377.74146  24267233.39146
        40.750          21.000  
  24401489.672 5     -2822.170 5   4943900.109 5   3844059.07546  24401486.83646
        40.250          19.250  
  23569767.852 6     -2592.680 6   3395692.408 6   2647738.56947  23569762.08647
        44.250          26.750  
  23431954.445 6      2708.272 6  -6998852.807 6  -5421304.47746  23431947.44946
        43.000          24.500  
  20315006.461 7      -265.410 7  -1213211.870 7   -917936.94748  20314997.35548
        48.250          41.250  
  22459897.828 6     -2029.486 6   3104378.725 6   2419558.41547  22459889.71947
        46.000          31.750  
  23051665.563 6     -1575.989 6   1449949.674 6   1142302.96647  23051657.74647
        46.500          32.000  
  24870542.891 4     -3762.873 4   6795565.645 4   5274852.07445  24870541.69545
        39.000          15.500  
  20795546.852 7      -853.082 7    515989.119 7    418179.06749  20795536.51649
        50.750          41.750  
  24241640.188 6      3288.441 6  -6343182.945 6  -7033170.89446  24241635.65246
        43.000          22.500  
  23574646.039 6      3634.758 6  -8244974.848 6  -6420069.71747  23574642.09047
        43.750          26.500  
 11  3 30 18 36 45.0000000  0 11G03G06G09G11G14G18G19G21G22G24G31   
  24275497.734 5     -2894.308 5   5067180.241 5   3938207.26646  24275494.72346
        39.750          21.500  
  24409546.211 4     -2822.726 4   4986241.005 4   3877051.94446  24409543.19946
        38.750          19.500  
  23577192.414 6     -2600.903 6   3434705.949 6   2678138.68846  23577186.64846
        43.000          26.250  
  23424240.242 6      2702.439 6  -7039389.387 6  -5452891.40746  23424233.36346
        42.500          25.750  
  20315784.641 7      -272.629 7  -1209122.434 7   -914750.36948  20315776.06348
        47.750          40.750  
  22465699.172 6     -2032.496 6   3134866.166 6   2443314.82647  22465691.35547
        46.250          30.000  
  23056184.633 6     -1583.168 6   1473697.202 6   1160807.51147  23056176.40647
        46.250          31.500  
  24881288.461 4     -3764.434 4   6852032.154 4   5318851.82945  24881286.62145
        37.500          14.750  
  20797993.555 7      -857.167 7    528846.624 7    428197.89049  20797983.39549
        50.250          41.750  
  24232259.844 6      3286.280 6  -6392477.148 6  -7071581.94746  24232255.13346
        43.000          22.250  
  23564276.508 6      3633.011 6  -8299470.011 6  -6462533.41447  23564271.97347
        42.500          26.500  
 11  3 30 18 37  0.0000000  0 11G03G06G09G11G14G18G19G21G22G24G31   
  24283761.766 4     -2895.213 4   5110608.441 4   3972047.34246  24283759.22346
        39.000          21.500  
  24417604.711 5     -2823.233 5   5028589.492 5   3910050.66746  24417602.75446
        39.500          20.750  
  23584639.742 6     -2609.078 6   3473842.117 6   2708634.37947  23584633.80147
        43.250          26.750  
  23416543.273 5      2696.601 5  -7079838.395 5  -5484410.08646  23416536.16046
        42.000          25.500  
  20316583.648 7      -279.804 7  -1204925.375 7   -911479.93948  20316574.54348
        48.250          40.750  
  22471509.688 6     -2035.477 6   3165398.328 6   2467106.08947  22471501.05147
        46.000          31.000  
  23060724.258 6     -1590.305 6   1497551.778 6   1179395.47047  23060715.73847
        46.000          32.250  
  24892037.758 3     -3765.944 3   6908521.313 3   5362869.26545  24892036.09445
        36.250          13.750  
  20800451.773 7      -861.226 7    541765.011 7    438264.16049  20800441.26249
        50.250          41.750  
  24222886.039 6      3284.134 6  -6441739.154 6  -7109967.92146  24222880.80146
        43.000          22.500  
  23553911.836 6      3631.259 6  -8353938.889 6  -6504976.63847  23553906.94947
        43.000          27.250  
 11  3 30 18 37 15.0000000  0 11G03G06G09G11G14G18G19G21G22G24G31   
  24292028.570 5     -2896.116 5   5154050.179 5   4005897.97346  24292025.96946
        40.000          22.000  
  24425664.906 5     -2823.732 5   5070945.475 5   3943055.27646  24425662.48046
        40.500          20.250  
  23592110.352 6     -2617.256 6   3513100.959 6   2739225.65646  23592104.23446
        43.000          25.500  
  23408862.781 5      2690.741 5  -7120199.506 5  -5515860.27246  23408855.90246
        42.000          25.500  
  20317402.547 7      -286.998 7  -1200620.404 7   -908125.41548  20317393.91048
        47.750          41.000  
  22477327.992 6     -2038.472 6   3195975.414 6   2490932.35247  22477319.76647
        46.000          31.000  
  23065284.094 6     -1597.435 6   1521513.298 6   1198066.76247  23065276.16047
        46.000          32.250  
  24902791.492 2     -3767.450 2   6965033.057 2   5406904.27145  24902790.47345
        35.000          13.750  
  20802921.617 7      -865.309 7    554744.643 7    448378.14849  20802911.57449
        50.500          42.000  
  24213517.172 6      3281.937 6  -6490968.208 6  -7148328.20346  24213512.98846
        42.750          21.500  
  23543551.406 6      3629.472 6  -8408380.976 6  -6547398.97547  23543546.40247
        43.000          26.750  
 11  3 30 18 37 30.0000000  0 11G03G06G09G11G14G18G19G21G22G24G31   
  24300297.758 5     -2896.996 5   5197505.112 5   4039758.90646  24300294.98046
        39.250          22.000  
  24433726.438 5     -2824.205 5   5113308.543 5   3976065.37546  24433723.60246
        40.000          20.250  
  23599604.063 6     -2625.402 6   3552481.992 6   2769912.14047  23599597.65247
        43.750          27.500  
  23401198.883 6      2684.857 6  -7160472.363 6  -5547241.70447  23401192.18047
        42.500          27.750  
  20318242.094 7      -294.185 7  -1196207.628 7   -904686.89749  20318233.51649
        48.000          41.500  
  22483155.492 6     -2041.476 6   3226597.555 6   2514793.72147  22483147.03147
        46.000          30.750  
  23069863.930 6     -1604.541 6   1545581.411 6   1216821.10947  23069856.23047
        47.000          31.750  
  24913549.133 1     -3768.952 1   7021567.340 1   5450956.76645  24913549.22745
        32.750          14.750  
  20805403.422 7      -869.397 7    567785.594 7    458539.92349  20805392.91049
        49.500          41.750  
  24204155.742 6      3279.730 6  -6540164.164 6  -7186662.69846  24204150.91446
        42.500          21.250  
  23533196.688 6      3627.652 6  -8462795.762 6  -6589800.04847  23533191.80147
        43.500          28.000  
 11  3 30 18 37 45.0000000  0 11G03G06G09G11G14G18G19G21G22G24G31   
  24308569.203 5     -2897.813 5   5240972.304 5   4073629.38046  24308566.54346
        39.250          22.500  
  24441789.734 5     -2824.630 5   5155677.998 5   4009080.47646  24441785.90246
        40.750          21.500  
  23607121.750 6     -2633.501 6   3591984.509 6   2800693.28647  23607115.34047
        42.750          26.750  
  23393552.313 6      2678.989 6  -7200657.197 6  -5578554.54047  23393545.02347
        42.750          26.500  
  20319102.609 7      -301.316 7  -1191687.883 7   -901165.01949  20319093.44549
        49.000          42.000  
  22488991.211 6     -2044.452 6   3257264.329 6   2538689.87447  22488982.80947
        45.500          30.250  
  23074464.250 6     -1611.599 6   1569755.391 6   1235657.95447  23074455.96547
        46.000          32.250  
  24924311.906 1     -3770.427 1   7078123.753 1   5495026.67045  24924311.76645
        31.250          14.750  
  20807896.383 7      -873.454 7    580887.397 7    468749.10549  20807886.04749
        50.500          41.500  
  24194800.813 5      3277.532 5  -6589327.148 5  -7224971.50846  24194795.51646
        42.000          22.500  
  23522846.758 6      3625.837 6  -8517183.321 6  -6632179.89747  23522841.93047
        43.000          27.500  
 11  3 30 18 38  0.0000000  0 11G03G06G09G11G14G18G19G21G22G24G31   
  24316843.602 5     -2898.649 5   5284452.041 5   4107509.60246  24316840.70746
        41.000          22.000  
  24449853.313 5     -2825.069 5   5198054.039 5   4042100.68046  24449850.06646
        41.250          21.500  
  23614661.492 6     -2641.622 6   3631608.838 6   2831569.36446  23614655.43446
        42.750          25.000  
  23385922.289 6      2673.057 6  -7240753.050 6  -5609798.03847  23385914.76647
        42.500          26.500  
  20319982.750 7      -308.487 7  -1187060.577 7   -897559.32748  20319974.05548
        48.000          41.000  
  22494834.734 6     -2047.468 6   3287976.352 6   2562621.28247  22494827.38747
        46.000          30.250  
  23079084.531 6     -1618.689 6   1594035.726 6   1254577.67647  23079076.71547
        46.250          32.500  
  24935078.227 1     -3771.889 1   7134702.082 1   5539113.45445  24935078.55545
        29.750          14.750  
  20810401.359 7      -877.549 7    594050.630 7    479006.15748  20810390.84848
        49.750          41.000  
  24185451.656 5      3275.268 5  -6638456.163 5  -7263253.86446  24185446.65246
        41.750          21.250  
  23512502.602 6      3623.956 6  -8571542.654 6  -6674537.74147  23512497.94947
        43.750          27.000  
 11  3 30 18 38 15.0000000  0 11G03G06G09G11G14G18G19G21G22G24G31   
  24325120.102 5     -2899.669 5   5327947.077 5   4141401.79246  24325117.50046
        40.500          22.500  
  24457918.938 5     -2825.697 5   5240439.498 5   4075128.24346  24457916.51246
        40.750          22.500  
  23622225.344 5     -2649.921 5   3671357.647 5   2862542.41346  23622219.46146
        41.500          24.750  
  23378309.453 5      2666.897 5  -7280756.505 5  -5640969.54846  23378302.22346
        42.000          26.250  
  20320884.836 7      -315.861 7  -1182322.657 7   -893867.44348  20320875.78948
        48.250          41.250  
  22500689.211 6     -2050.689 6   3318736.692 6   2586590.33147  22500681.04347
        46.500          30.000  
  23083726.070 6     -1625.959 6   1618425.113 6   1273582.37047  23083718.19547
        45.500          32.500  
  24945849.25811     -3773.35011   2465045.31911                
        26.750  
  20812918.688 7      -881.861 7    607278.550 7    489313.61848  20812908.17648
        50.000          41.000  
  24176109.547 5      3272.784 5  -6687547.915 5  -7301507.15646  24176104.83646
        41.750          21.000  
  23502164.406 6      3621.842 6  -8625870.284 6  -6716870.89247  23502159.57847
        44.250          28.750  
 11  3 30 18 38 30.0000000  0 11G03G06G09G11G14G18G19G21G22G24G31   
  24333399.359 5     -2900.206 5   5371450.168 5   4175300.23446  24333395.64546
        40.500          22.500  
  24465985.141 5     -2825.848 5   5282827.221 5   4108157.56946  24465982.77346
        41.000          22.500  
  23629812.117 6     -2657.741 6   3711223.762 6   2893606.88646  23629805.82446
        43.000          24.500  
  23370713.320 5      2661.170 5  -7320674.056 5  -5672074.12046  23370706.67646
        41.750          26.000  
  20321805.977 7      -322.760 7  -1177481.256 7   -890094.92649  20321797.16449
        49.000          41.750  
  22506550.398 6     -2053.459 6   3349538.573 6   2610591.76447  22506542.64147
        45.500          31.500  
  23088386.023 6     -1632.751 6   1642916.379 6   1292666.45147  23088377.91447
        46.250          32.000  
  24956624.09411     -3775.21911                                
        27.250  
  20815446.836 7      -885.721 7    620564.366 7    499666.19449  20815436.20749
        50.000          41.500  
  24166773.805 5      3270.743 5  -6736609.057 5  -7339736.61946  24166768.62546
        41.250          20.500  
  23491830.852 6      3620.165 6  -8680172.762 6  -6759184.44547  23491826.60947
        43.000          28.500  
 11  3 30 18 38 45.0000000  0 11G03G06G09G11G14G18G19G21G22G24G31   
  24341679.203 5     -2900.968 5   5414964.694 5   4209207.57346  24341676.54346
        40.750          22.750  
  24474052.398 5     -2826.209 5   5325220.359 5   4141191.10146  24474049.85546
        39.750          22.000  
  23637421.547 5     -2665.765 5   3751210.234 5   2924765.14546  23637415.19546
        42.000          25.250  
  23363134.016 5      2655.200 5  -7360502.052 5  -5703108.90546  23363127.43046
        41.500          26.000  
  20322747.172 7      -329.886 7  -1172532.967 7   -886239.11449  20322738.82849
        49.000          41.500  
  22512420.625 6     -2056.460 6   3380385.470 6   2634628.27347  22512412.39847
        45.750          31.000  
  23093066.797 6     -1639.767 6   1667512.884 6   1311832.53147  23093059.03947
        46.750          32.000  
  24967403.39811     -3776.40611   2578308.40911                
        28.000  
  20817986.750 7      -889.814 7    633911.570 7    510066.60048  20817976.12148
        50.250          41.250  
  24157443.758 5      3268.445 5  -6785635.733 5  -7377939.19046  24157438.52046
        40.000          19.750  
  23481502.961 6      3618.217 6  -8734446.014 6  -6801475.20747  23481498.60247
        43.750          29.500  
 11  3 30 18 39  0.0000000  0 11G03G06G09G11G14G18G19G21G22G24G31   
  24349961.867 5     -2901.690 5   5458490.037 5   4243123.36646  24349959.32446
        40.500          22.750  
  24482120.625 5     -2826.531 5   5367618.329 5   4174228.40046  24482118.02346
        41.500          23.750  
  23645053.250 5     -2673.759 5   3791316.619 5   2956016.82846  23645046.89846
        42.000          24.000  
  23355572.797 5      2649.213 5  -7400240.243 5  -5734073.70347  23355565.85947
        40.500          26.500  
  20323709.242 6      -336.991 6  -1167478.103 6   -882300.25849  20323700.84049
        47.500          41.500  
  22518298.766 6     -2059.441 6   3411277.090 6   2658699.62747  22518291.12547
        44.750          31.500  
  23097767.531 6     -1646.744 6   1692214.050 6   1331080.16747  23097759.65647
        46.250          32.000  
  24978186.17211         0.00011   2634971.16811                
        28.000  
  20820538.203 7      -893.889 7    647319.907 7    520514.64848  20820527.34048
        50.000          41.000  
  24148121.133 5      3266.137 5  -6834627.794 5  -7416114.80946  24148115.48446
        40.250          20.000  
  23471180.445 5      3616.259 5  -8788689.905 5  -6843743.10447  23471175.79347
        42.000          29.750  
 11  3 30 18 39 15.0000000  0 11G03G06G09G11G14G18G19G21G22G24G31   
  24358246.172 5     -2902.163 5   5502022.489 5   4277044.68746  24358243.04346
        41.500          22.750  
  24490189.156 5     -2826.621 5   5410017.643 5   4207266.75846  24490186.96546
        41.250          22.000  
  23652707.156 5     -2681.518 5   3831539.383 5   2987359.18646  23652701.09846
        40.750          22.000  
  23348027.219 5      2643.415 5  -7439891.461 5  -5764970.73646  23348020.04746
        41.000          25.500  
  20324690.961 7      -343.867 7  -1162320.092 7   -878281.03449  20324681.85549
        48.000          41.500  
  22524185.313 6     -2062.216 6   3442210.331 6   2682803.41647  22524177.90647
        45.750          30.500  
  23102487.148 6     -1653.487 6   1717016.355 6   1350406.61147  23102479.39147
        46.000          32.500  
  24988971.67211      3776.40611   2691651.11311                
        30.750  
  20823100.828 7      -897.755 7    660786.235 7    531007.88448  20823090.19948
        50.250          40.500  
  24138804.047 5      3264.033 5  -6883588.283 5  -7454265.83146  24138798.57446
        40.500          19.250  
  23460863.539 6      3614.497 6  -8842907.356 6  -6885990.38347  23460858.77047
        44.000          29.500  
 11  3 30 18 39 30.0000000  0 11G03G06G09G11G14G18G19G21G22G24G31   
  24366532.203 5     -2903.051 5   5545568.253 5   4310976.38546  24366530.07046
        40.500          24.750  
  24498258.719 5     -2827.126 5   5452424.536 5   4240311.02046  24498256.29346
        41.500          22.750  
  23660384.375 5     -2689.696 5   3871884.826 5   3018797.16446  23660378.84446
        40.250          22.750  
  23340499.406 5      2637.157 5  -7479448.816 5  -5795794.62546  23340492.52746
        41.250          25.750  
  20325693.086 6      -351.179 6  -1157052.404 6   -874176.33748  20325684.50848
        47.500          41.250  
  22530081.063 6     -2065.440 6   3473191.934 6   2706944.89447  22530072.66047
        46.250          31.000  
  23107227.391 6     -1660.659 6   1741926.233 6   1369816.88147  23107219.45747
        46.250          32.500  
  24999763.53112      7552.81312   2748354.86212                
        34.500  
  20825675.813 7      -902.069 7    674317.271 7    541551.53748  20825665.24248
        49.750          40.750  
  24129494.867 5      3261.466 5  -6932510.275 5  -7492386.84446  24129489.21946
        40.750          19.750  
  23450551.914 6      3612.267 6  -8897091.360 6  -6928211.61147  23450547.32047
        43.250          29.250  
 11  3 30 18 39 45.0000000  0 11G03G06G09G11G14G18G19G22G24G27G31   
  24374820.617 5     -2903.699 5   5589123.745 5   4344915.66046  24374818.60246
        41.250          24.000  
  24506329.156 5     -2827.378 5   5494835.209 5   4273358.22346  24506326.96546
        41.500          22.500  
  23668084.242 5     -2697.620 5   3912349.132 5   3050327.75246  23668078.18446
        39.750          23.750  
  23332989.141 5      2631.124 5  -7518915.669 5  -5826548.00846  23332982.32046
        41.250          26.250  
  20326715.789 6      -358.244 6  -1151678.746 6   -869989.08449  20326707.27049
        47.250          41.750  
  22535985.055 6     -2068.422 6   3504218.259 6   2731121.22447  22535977.06347
        46.250          31.250  
  23111986.961 6     -1667.576 6   1766939.876 6   1389308.01547  23111979.26247
        46.250          32.500  
  20828261.984 7      -906.147 7    687909.482 7    552142.87048  20828251.76648
        50.250          41.250  
  24120191.430 5      3259.109 5  -6981396.909 5  -7530480.29246  24120186.71946
        40.250          19.500  
  25980843.26611     -3048.46911   -724972.56011                
        31.500  
  23440247.469 6      3610.242 6  -8951244.992 6  -6970409.15747  23440242.52347
        44.250          29.750  
 11  3 30 18 40  0.0000000  0 11G03G06G09G11G14G18G19G22G24G27G31   
  24383111.391 5     -2904.369 5   5632689.283 5   4378862.77246  24383108.73046
        41.000          24.750  
  24514400.750 5     -2827.659 5   5537250.102 5   4306408.70746  24514398.44146
        42.000          24.500  
  23675807.977 5     -2705.576 5   3952932.769 5   3081951.32846  23675801.15646
        40.000          22.500  
  23325496.797 5      2625.006 5  -7558290.761 5  -5857229.87146  23325489.27346
        40.750          24.750  
  20327758.484 6      -365.365 6  -1146198.276 6   -865718.58448  20327749.78948
        47.500          41.250  
  22541898.008 6     -2071.468 6   3535290.284 6   2755333.16147  22541890.13347
        46.500          30.500  
  23116767.047 6     -1674.529 6   1792057.809 6   1408880.39947  23116759.46547
        45.750          32.500  
  20830860.648 7      -910.289 7    701563.822 7    562782.60248  20830849.90248
        50.000          41.000  
  24110896.164 5      3256.679 5  -7030247.089 5  -7568545.38846  24110890.45746
        39.750          20.250  
  25989548.008 1     -3050.007 1   -679222.462 1                
        32.000  
  23429948.078 6      3608.134 6  -9005366.995 6  -7012582.05747  23429943.19147
        43.000          29.750  
 11  3 30 18 40 15.0000000  0 11G03G06G09G11G14G18G19G22G24G27G31   
  24391403.063 5     -2904.941 5   5676263.393 5   4412816.54346  24391400.81346
        41.500          25.000  
  24522472.289 5     -2827.849 5   5579667.842 5   4339461.42546  24522470.15646
        41.000          25.500  
  23683552.680 5     -2713.431 5   3993634.239 5   3113666.72646  23683546.91446
        39.500          22.250  
  23318021.398 5      2618.946 5  -7597574.950 5  -5887840.90446  23318013.40646
        42.000          26.000  
  20328821.797 7      -372.392 7  -1140612.398 7   -861365.95448  20328813.04348
        48.500          41.000  
  22547819.070 6     -2074.428 6   3566406.700 6   2779579.68147  22547811.48847
        46.250          31.000  
  23121566.273 6     -1681.388 6   1817278.632 6   1428532.96847  23121558.86747
        45.500          32.000  
  20833470.742 7      -914.355 7    715279.143 7    573469.85348  20833460.11348
        50.500          41.000  
  24101606.609 5      3254.298 5  -7079061.558 5  -7606582.59946  24101601.60546
        39.250          20.000  
  25998262.922 1     -3053.051 1   -633426.695 1                
        33.750  
  23419654.711 6      3606.074 6  -9059458.102 6  -7054730.87847  23419650.35247
        44.250          30.000  
 11  3 30 18 40 30.0000000  0 11G03G06G09G11G14G18G19G22G24G27G31   
  24399696.617 5     -2905.570 5   5719846.947 5   4446777.68746  24399694.42646
        41.250          23.000  
  24530545.469 5     -2828.099 5   5622089.324 5   4372517.04746  24530542.92646
        42.250          25.500  
  23691320.258 5     -2721.355 5   4034454.563 5   3145474.70846  23691314.90246
        39.750          22.250  
  23310563.375 5      2612.779 5  -7636766.632 5  -5918379.86346  23310555.85246
        41.250          26.000  
  20329904.922 6      -379.495 6  -1134919.976 6   -856930.30148  20329896.28548
        47.500          40.750  
  22553749.414 6     -2077.472 6   3597568.786 6   2803861.79447  22553741.36347
        46.500          30.500  
  23126385.359 6     -1688.308 6   1842603.251 6   1448266.41247  23126377.30947
        45.500          32.250  
  20836092.242 7      -918.517 7    729056.897 7    584205.76148  20836081.90648
        50.250          40.750  
  24092324.859 4      3251.822 4  -7127838.883 4  -7644590.88646  24092320.14846
        38.750          20.000  
  26006986.703 2     -3056.160 2   -587584.297 2   -457791.65656  26006978.53556
        35.500          19.250  
  23409367.250 6      3603.904 6  -9113516.656 6  -7096854.33247  23409362.94947
        44.000          30.750  
 11  3 30 18 40 45.0000000  0 11G03G06G09G11G14G18G19G22G24G27G31   
  24407991.828 5     -2906.065 5   5763437.918 5   4480744.61946  24407989.52046
        40.250          24.000  
  24538617.609 5     -2828.204 5   5664512.387 5   4405573.88746  24538615.30146
        41.750          23.500  
  23699110.984 4     -2729.136 4   4075391.608 4   3177373.67846  23699104.39846
        39.000          21.250  
  23303122.281 5      2606.715 5  -7675867.358 5  -5948847.93746  23303115.05146
        41.250          24.500  
  20331008.070 7      -386.469 7  -1129122.941 7   -852413.12648  20330999.37548
        47.750          41.000  
  22559687.078 6     -2080.409 6   3628774.927 6   2828178.22247  22559680.19947
        46.500          30.750  
  23131223.945 6     -1695.095 6   1868029.682 6   1468079.18247  23131215.95347
        45.500          32.500  
  20838725.883 7      -922.558 7    742895.263 7    594988.89249  20838715.25449
        50.250          41.500  
  24083048.969 4      3249.434 4  -7176580.401 4  -7682571.25546  24083044.78546
        39.000          19.250  
  26015718.703 2     -3059.137 2   -541697.244 2   -422035.49946  26015712.93846
        35.000          19.250  
  23399087.055 6      3601.827 6  -9167544.061 6  -7138953.51847  23399082.05147
        43.250          29.000  
 11  3 30 18 41  0.0000000  0 11G03G06G09G11G14G18G19G22G24G27G31   
  24416289.102 5     -2906.566 5   5807036.408 5   4514717.39946  24416286.44146
        40.750          24.500  
  24546691.180 5     -2828.340 5   5706937.485 5   4438632.33346  24546689.22346
        41.750          24.500  
  23706923.695 4     -2736.937 4   4116445.669 4   3209363.78846  23706917.16846
        38.500          21.000  
  23295698.680 6      2600.583 6  -7714876.108 6  -5979244.34847  23295692.50447
        43.000          26.500  
  20332131.055 7      -393.483 7  -1123220.695 7   -847813.98348  20332122.71148
        48.250          41.250  
  22565634.719 6     -2083.386 6   3660025.724 6   2852529.45547  22565626.37547
        46.250          30.750  
  23136082.078 6     -1701.905 6   1893558.252 6   1487971.54147  23136074.43847
        46.500          32.500  
  20841370.695 7      -926.641 7    756794.875 7    605819.74948  20841360.30148
        50.000          41.250  
  24073781.219 5      3246.988 5  -7225285.227 5  -7720523.05446  24073775.62946
        39.500          20.000  
  26024459.438 3     -3062.144 3   -495765.089 3   -386244.26645  26024454.37545
        36.500          18.500  
  23388811.914 6      3599.680 6  -9221539.256 6  -7181027.59847  23388806.67647
        44.000          29.500  
 11  3 30 18 41 15.0000000  0 11G03G06G09G11G14G18G19G22G24G27G31   
  24424586.469 5     -2907.121 5   5850643.217 5   4548696.66946  24424584.80546
        41.000          24.500  
  24554765.211 5     -2828.515 5   5749365.210 5   4471692.81546  24554762.78546
        42.000          24.750  
  23714757.102 5     -2744.781 5   4157617.390 5   3241445.63046  23714751.57046
        39.750          20.750  
  23288294.203 5      2594.372 5  -7753791.689 5  -6009568.15547  23288287.03147
        41.750          26.500  
  20333274.711 6      -400.541 6  -1117212.585 6   -843132.33548  20333266.13348
        47.500          41.000  
  22571589.914 6     -2086.425 6   3691322.104 6   2876916.22047  22571581.57047
        47.000          30.500  
  23140959.750 6     -1708.756 6   1919189.594 6   1507943.98447  23140951.75847
        46.000          32.000  
  20844027.766 7      -930.787 7    770756.683 7    616699.06848  20844017.02048
        50.500          41.000  
  24064520.891 5      3244.458 5  -7273952.094 5  -7758445.26646  24064514.83246
        39.250          21.250  
  26033209.266 3     -3065.193 3   -449787.186 3   -350417.37846  26033203.91046
        37.250          19.250  
  23378543.188 6      3597.443 6  -9275500.906 6  -7223075.52847  23378538.12547
        43.500          29.000  
 11  3 30 18 41 30.0000000  0 11G03G06G09G11G14G18G19G22G24G27G31   
  24432885.922 5     -2907.573 5   5894256.811 5   4582681.20346  24432884.02346
        40.250          24.500  
  24562839.344 5     -2828.591 5   5791794.076 5   4504754.18346  24562836.68446
        40.250          22.250  
  23722614.313 4     -2752.535 4   4198905.409 4   3273618.05646  23722608.43046
        38.750          21.250  
  23280906.008 5      2588.209 5  -7792614.828 5  -6039819.94046  23280899.07046
        42.000          24.500  
  20334437.828 7      -407.525 7  -1111099.710 7   -838369.05948  20334429.13348
        48.500          40.750  
  22577553.625 6     -2089.399 6   3722663.085 6   2901337.73147  22577545.92647
        46.250          30.250  
  23145856.203 6     -1715.524 6   1944922.455 6   1527995.53947  23145848.85547
        45.750          32.750  
  20846696.242 7      -934.865 7    784779.664 7    627626.05848  20846685.43848
        49.250          41.000  
  24055266.234 5      3241.983 5  -7322581.844 5  -7796338.55646  24055261.40646
        40.000          21.250  
  26041966.664 3     -3068.149 3   -403764.956 3   -314555.91746  26041961.89546
        37.250          21.000  
  23368280.492 6      3595.259 6  -9329429.787 6  -7265097.92847  23368275.89847
        44.000          30.000  
 11  3 30 18 41 45.0000000  0 11G03G06G09G11G14G18G19G22G24G27G31   
  24441187.336 5     -2908.028 5   5937877.237 5   4616671.07046  24441184.44146
        40.750          24.750  
  24570913.859 5     -2828.663 5   5834224.023 5   4537816.41146  24570911.14146
        40.500          24.500  
  23730493.555 4     -2760.277 4   4240309.563 4   3305880.98546  23730487.73046
        38.500          21.250  
  23273535.867 5      2582.012 5  -7831345.006 5  -6069999.28446  23273528.75446
        40.750          25.250  
  20335620.992 6      -414.512 6  -1104882.034 6   -833524.11948  20335612.12148
        47.250          40.750  
  22583526.688 6     -2092.390 6   3754048.930 6   2925794.19447  22583518.81347
        46.500          31.000  
  23150772.797 6     -1722.294 6   1970756.858 6   1548126.21547  23150764.86347
        45.500          32.500  
  20849376.234 7      -938.967 7    798864.175 7    638600.99448  20849365.78148
        50.250          41.000  
  24046019.336 5      3239.472 5  -7371173.930 5  -7834202.49946  24046014.97746
        39.500          21.750  
  26050732.391 3     -3071.102 3   -357698.429 3   -278659.90546  26050727.56346
        36.500          19.250  
  23358024.359 6      3593.025 6  -9383325.163 6  -7307094.22647  23358019.94147
        43.000          30.250  
 11  3 30 18 42  0.0000000  0 11G03G06G09G11G14G18G19G22G24G27G31   
  24449489.211 5     -2908.459 5   5981504.121 5   4650665.98046  24449486.19946
        39.750          24.250  
  24578987.359 5     -2828.727 5   5876654.930 5   4570879.35846  24578985.52046
        40.500          23.250  
  23738394.453 4     -2768.005 4   4281829.637 4   3338234.26046  23738388.57046
        38.250          21.000  
  23266183.281 5      2575.788 5  -7869981.828 5  -6100105.87346  23266176.34446
        41.500          25.000  
  20336823.898 7      -421.494 7  -1098559.630 7   -828597.57348  20336815.32048
        48.250          41.250  
  22589507.563 6     -2095.391 6   3785479.800 6   2950285.75347  22589499.68847
        46.250          30.750  
  23155707.703 6     -1729.042 6   1996692.493 6   1568335.76747  23155699.65247
        45.000          32.000  
  20852068.219 7      -943.075 7    813010.301 7    649623.93848  20852057.76648
        49.750          40.500  
  24036780.250 5      3236.931 5  -7419727.893 5  -7872036.72646  24036775.24646
        40.000          22.250  
  26059506.859 3     -3074.047 3   -311587.720 3   -242729.49446  26059502.55946
        37.000          21.750  
  23347774.758 6      3590.757 6  -9437186.514 6  -7349064.00747  23347770.10547
        44.000          30.250  
 11  3 30 18 42 15.0000000  0 11G03G06G09G11G14G18G19G22G24G27G31   
  24457792.141 5     -2908.852 5   6025136.895 5   4684665.47546  24457790.30146
        41.250          24.750  
  24587061.453 5     -2828.744 5   5919086.088 5   4603942.52746  24587060.19946
        40.000          23.500  
  23746317.109 4     -2775.697 4   4323465.092 4   3370677.43146  23746311.57846
        39.000          21.000  
  23258848.961 5      2569.554 5  -7908525.143 5  -6130139.61646  23258841.90646
        41.750          24.500  
  20338046.922 7      -428.450 7  -1092132.881 7   -823589.71948  20338038.28548
        48.000          41.000  
  22595497.516 6     -2098.373 6   3816955.398 6   2974812.16947  22595489.52347
        46.000          30.750  
  23160662.523 6     -1735.759 6   2022728.872 6   1588623.82847  23160654.47347
        45.500          32.000  
  20854771.875 7      -947.171 7    827217.867 7    660694.75948  20854761.30548
        49.750          40.750  
  24027548.031 5      3234.390 5  -7468243.737 5  -7909841.23946  24027542.44146
        40.250          22.750  
  26068290.398 4     -3076.958 4   -265433.357 4   -206765.09246  26068285.21946
        38.500          21.500  
  23337531.906 6      3588.479 6  -9491013.695 6  -7391007.15747  23337526.66847
        43.500          29.750  
 11  3 30 18 42 30.0000000  0 11G03G06G09G11G14G18G19G22G24G27G31   
  24466096.516 5     -2909.249 5   6068775.623 5   4718669.60846  24466094.09046
        40.000          24.750  
  24595136.945 5     -2828.760 5   5961517.490 5   4637005.86946  24595134.16846
        39.500          24.500  
  23754262.711 4     -2783.380 4   4365215.793 4   3403210.38446  23754256.88746
        38.750          21.750  
  23251532.531 5      2563.289 5  -7946974.477 5  -6160100.12746  23251525.06646
        42.000          25.750  
  20339290.031 7      -435.416 7  -1085601.642 7   -818500.44748  20339281.27748
        48.500          41.000  
  22601495.531 6     -2101.372 6   3848475.982 6   2999373.62647  22601487.65647
        46.250          31.000  
  23165636.258 6     -1742.475 6   2048865.991 6   1608990.38047  23165628.79347
        45.500          31.750  
  20857487.195 7      -951.284 7    841487.122 7    671813.65248  20857476.85948
        49.000          40.500  
  24018323.102 5      3231.804 5  -7516720.790 5  -7947615.56346  24018317.80546
        40.750          22.750  
  26077081.320 4     -3079.872 4   -219235.275 4   -170766.63146  26077076.14146
        38.000          19.750  
  23327295.414 6      3586.162 6  -9544806.129 6  -7432923.23147  23327290.29347
        43.750          29.750  
 11  3 30 18 42 45.0000000  0 11G03G06G09G11G14G18G19G22G24G27G31   
  24474400.805 5     -2909.617 5   6112419.879 5   4752678.04446  24474398.96546
        41.000          22.750  
  24603211.273 4     -2828.764 4   6003948.952 4   4670069.26046  24603209.08246
        38.250          22.500  
  23762229.703 5     -2791.041 5   4407081.405 5   3435832.91746  23762223.17646
        39.500          20.750  
  23244233.508 5      2556.994 5  -7985329.385 5  -6189987.03946  23244226.74646
        41.500          24.500  
  20340552.820 7      -442.381 7  -1078965.922 7   -813329.75949  20340543.89149
        48.250          41.500  
  22607502.320 6     -2104.377 6   3880041.633 6   3023970.20947  22607494.32847
        47.000          30.500  
  23170629.242 6     -1749.168 6   2075103.516 6   1629435.17447  23170621.48447
        45.250          32.250  
  20860214.570 7      -955.407 7    855818.232 7    682980.73848  20860203.88348
        48.500          40.750  
  24009106.125 5      3229.196 5  -7565158.729 5  -7985359.36746  24009101.00446
        41.000          22.500  
  26085881.102 5     -3082.768 5   -172993.758 5   -134734.28946  26085875.68846
        40.000          20.750  
  23317065.648 6      3583.807 6  -9598563.233 6  -7474811.76847  23317060.58647
        42.750          30.000  
 11  3 30 18 43  0.0000000  0 11G03G06G09G11G14G18G19G22G24G27G31   
  24482707.727 5     -2909.945 5   6156069.060 5   4786690.32846  24482705.53546
        41.250          25.750  
  24611285.516 4     -2828.719 4   6046379.733 4   4703132.13646  24611283.67646
        38.500          22.500  
  23770218.156 5     -2798.659 5   4449061.289 5   3468544.47046  23770212.09846
        40.000          20.750  
  23236952.703 5      2550.702 5  -8023589.915 5  -6219800.43446  23236945.41446
        42.250          25.250  
  20341834.938 7      -449.306 7  -1072226.325 7   -808078.12148  20341826.59448
        47.750          40.750  
  22613517.531 6     -2107.365 6   3911652.115 6   3048601.72247  22613509.71547
        46.500          30.500  
  23175640.961 6     -1755.822 6   2101440.848 6   1649957.73947  23175633.14547
        46.250          32.000  
  20862953.258 7      -959.521 7    870211.048 7    694195.90748  20862942.68848
        49.500          41.000  
  23999895.102 5      3226.590 5  -7613557.576 5  -8023072.72346  23999890.62546
        41.250          24.500  
  26094689.695 5     -3085.622 5   -126709.426 5    -98668.58246  26094684.39846
        40.500          22.750  
  23306842.875 6      3581.452 6  -9652285.011 6  -7516672.78147  23306837.69547
        43.000          29.750  
 11  3 30 18 43 15.0000000  0 11G03G06G09G11G14G18G19G22G24G27G31   
  24491014.953 5     -2910.252 5   6199722.844 5   4820706.17346  24491012.58646
        40.000          24.000  
  24619359.148 4     -2828.651 4   6088809.504 4   4736194.21346  24619357.95346
        38.750          22.250  
  23778228.781 5     -2806.253 5   4491155.081 5   3501344.78246  23778222.13746
        40.500          20.500  
  23229690.578 5      2544.390 5  -8061755.767 5  -6249540.04646  23229683.28946
        41.000          25.500  
  20343137.289 7      -456.234 7  -1065382.812 7   -802745.51748  20343128.65248
        48.500          40.750  
  22619541.789 6     -2110.357 6   3943307.466 6   3073268.19947  22619533.85547
        46.500          30.750  
  23180671.703 6     -1762.461 6   2127877.764 6   1670557.89247  23180664.18047
        45.500          32.750  
  20865703.719 7      -963.635 7    884665.566 7    705459.15648  20865693.26648
        49.250          40.500  
  23990692.961 5      3223.965 5  -7661917.045 5  -8060755.40646  23990688.07446
        41.500          22.500  
  26103504.438 5     -3088.466 5    -80382.436 5    -62569.64846  26103500.02046
        39.250          22.000  
  23296626.336 6      3579.066 6  -9705971.001 6  -7558505.91747  23296621.27347
        43.250          28.750  
 11  3 30 18 43 30.0000000  0 11G03G06G09G11G14G18G19G22G24G27G31   
  24499322.313 5     -2910.558 5   6243381.218 5   4854725.60846  24499320.41446
        40.500          23.750  
  24627434.047 4     -2828.584 4   6131238.271 4   4769255.52846  24627432.14846
        38.250          22.500  
  23786260.344 4     -2813.849 4   4533362.813 4   3534233.88346  23786253.87546
        38.250          21.250  
  23222445.281 6      2538.045 6  -8099826.444 6  -6279205.49147  23222438.57847
        42.500          26.500  
  20344459.414 7      -463.167 7  -1058435.308 7   -797331.87849  20344450.83649
        48.500          41.750  
  22625573.664 6     -2113.362 6   3975007.895 6   3097969.80047  22625565.55547
        45.500          31.000  
  23185721.617 6     -1769.078 6   2154413.930 6   1691235.40047  23185713.85947
        45.000          32.000  
  20868466.078 7      -967.764 7    899182.032 7    716770.67448  20868456.21148
        49.000          40.500  
  23981497.977 5      3221.302 5  -7710236.581 5  -8098406.96446  23981493.32446
        42.250          22.000  
  26112328.336 5     -3091.307 5    -34012.833 5    -26437.51446  26112322.80546
        39.500          22.000  
  23286417.141 6      3576.643 6  -9759620.652 6  -7600310.73347  23286412.43047
        43.000          29.750  
 11  3 30 18 43 45.0000000  0 11G03G06G09G11G14G18G19G22G24G27G31   
  24507631.102 5     -2910.812 5   6287043.395 5   4888748.00846  24507629.14546
        40.250          22.750  
  24635507.375 3     -2828.478 3   6173665.446 3   4802315.55646  24635505.12546
        37.250          21.750  
  23794313.703 5     -2821.395 5   4575683.735 5   3567211.19646  23794307.64546
        40.000          21.000  
  23215218.852 5      2531.694 5  -8137801.857 5  -6308796.70046  23215212.14846
        42.000          25.750  
  20345801.492 7      -470.061 7  -1051384.399 7   -791837.67548  20345792.62148
        48.250          41.000  
  22631615.031 6     -2116.355 6   4006753.220 6   3122706.37547  22631606.86347
        45.500          30.250  
  23190789.852 6     -1775.687 6   2181049.241 6   1711990.15047  23190782.15247
        45.250          32.250  
  20871239.719 7      -971.875 7    913760.153 7    728130.23648  20871229.73448
        49.000          41.000  
  23972310.539 5      3218.648 5  -7758516.295 5  -8136027.49046  23972306.00446
        42.000          23.500  
  26121160.336 5     -3094.102 5     12398.702 5      9727.28546  26121155.50846
        40.000          21.750  
  23276215.117 6      3574.215 6  -9813233.875 6  -7642087.15247  23276209.76247
        43.500          29.750  
 11  3 30 18 44  0.0000000  0 11G03G06G09G11G14G18G19G22G24G27G31   
  24515940.695 5     -2911.070 5   6330709.445 5   4922773.41646  24515938.44546
        40.250          22.750  
  24643580.586 3     -2828.371 3   6216091.014 3   4835374.33746  24643578.68846
        36.000          21.000  
  23802388.398 5     -2828.946 5   4618117.932 5   3600276.75846  23802382.75046
        39.750          22.000  
  23208010.625 6      2525.296 6  -8175681.300 6  -6338313.14546  23208003.33646
        42.500          25.500  
  20347162.703 7      -476.977 7  -1044229.746 7   -786262.61848  20347154.06648
        48.000          41.000  
  22637663.930 6     -2119.372 6   4038543.797 6   3147478.21947  22637656.46547
        46.000          31.000  
  23195877.320 6     -1782.293 6   2207783.637 6   1732822.12347  23195869.62147
        45.500          31.500  
  20874026.359 7      -976.018 7    928400.427 7    739538.23548  20874015.90648
        49.250          40.750  
  23963131.070 5      3215.940 5  -7806755.397 5  -8173616.37146  23963126.82846
        42.000          22.500  
  26130000.531 5     -3096.914 5     58852.411 5     45924.97046  26129995.76246
        40.500          22.000  
  23266019.883 6      3571.727 6  -9866809.782 6  -7683834.50247  23266014.23447
        43.000          29.250  
 11  3 30 18 44 15.0000000  0 11G03G06G09G11G14G18G19G22G24G27G31   
  24524251.383 5     -2911.264 5   6374378.398 5   4956801.09946  24524248.60546
        40.000          22.750  
  24651653.664 3     -2828.206 3   6258514.099 3   4868431.20146  24651651.29746
        36.000          21.000  
  23810484.602 5     -2836.440 5   4660664.528 5   3633429.90746  23810478.48446
        39.250          22.000  
  23200821.125 6      2518.926 6  -8213465.183 6  -6367755.10446  23200813.60246
        42.500          25.000  
  20348543.898 7      -483.837 7  -1036972.187 7   -780607.38048  20348535.32048
        49.000          41.000  
  22643722.258 6     -2122.344 6   4070378.953 6   3172284.79947  22643714.67647
        45.500          29.750  
  23200983.633 6     -1788.846 6   2234616.330 6   1753730.67947  23200976.34447
        45.250          32.250  
  20876824.188 7      -980.118 7    943102.191 7    750994.13848  20876813.44148
        49.500          40.500  
  23953959.133 6      3213.254 6  -7854954.208 6  -8211173.84246  23953954.77346
        42.500          25.250  
  26138847.852 5     -3099.666 5    105347.402 5     82154.83946  26138843.31646
        40.000          22.250  
  23255831.328 6      3569.246 6  -9920348.478 6  -7725552.85947  23255826.55947
        43.250          30.500  
 11  3 30 18 44 30.0000000  0 11G03G06G09G11G14G18G19G22G24G27G31   
  24532561.867 4     -2911.452 4   6418050.182 4   4990830.96646  24532559.44146
        38.500          22.500  
  24659726.578 3     -2828.039 3   6300934.689 3   4901486.10146  24659723.68446
        36.250          20.250  
  23818602.891 5     -2843.936 5   4703323.563 5   3666670.68146  23818596.65646
        40.250          22.000  
  23193648.375 5      2512.516 5  -8251152.928 5  -6397122.16046  23193641.73046
        42.000          24.500  
  20349944.438 7      -490.713 7  -1029611.489 7   -774871.77548  20349935.68448
        48.500          40.750  
  22649789.109 6     -2125.344 6   4102259.115 6   3197126.44547  22649781.35247
        46.000          30.000  
  23206108.516 6     -1795.392 6   2261547.204 6   1774715.74347  23206100.75847
        45.250          32.250  
  20879633.789 7      -984.245 7    957865.871 7    762498.29548  20879623.10248
        49.500          41.000  
  23944795.055 6      3210.522 6  -7903112.042 6  -8248699.41346  23944790.63746
        42.500          24.500  
  26147703.594 5     -3102.412 5    151883.589 5    118416.80346  26147698.53146
        40.250          22.750  
  23245650.344 6      3566.728 6  -9973849.391 6  -7767241.78147  23245645.57447
        43.750          30.000  
 11  3 30 18 44 45.0000000  0 11G03G06G09G11G14G18G19G22G24G27G31   
  24540872.188 5     -2911.626 5   6461724.577 5   5024862.88946  24540870.34846
        39.250          22.750  
  24667798.078 3     -2827.856 3   6343352.532 3   4934538.88646  24667795.94546
        36.500          20.750  
  23826741.930 5     -2851.405 5   4746094.642 5   3699998.75446  23826735.22746
        41.250          22.250  
  23186495.633 6      2506.072 6  -8288744.015 6  -6426413.89346  23186488.52046
        43.500          26.000  
  20351364.508 7      -497.584 7  -1022147.723 7   -769055.85948  20351356.10548
        48.500          41.250  
  22655864.586 6     -2128.343 6   4134184.259 6   3222003.14847  22655856.24247
        45.500          29.750  
  23211251.906 6     -1801.919 6   2288575.991 6   1795777.09047  23211244.50047
        45.250          31.750  
  20882454.742 7      -988.385 7    972691.638 7    774050.82948  20882444.11348
        51.000          41.000  
  23935638.648 6      3207.767 6  -7951228.549 6  -8286192.77946  23935634.23046
        43.000          25.500  
  26156566.742 5     -3105.152 5    198460.869 5    154710.75346  26156561.91446
        39.750          21.750  
  23235477.273 6      3564.180 6 -10027312.087 6  -7808900.91247  23235471.44947
        44.500          29.000  
 11  3 30 18 45  0.0000000  0 11G03G06G09G11G14G18G19G22G24G27G31   
  24549183.609 4     -2911.761 4   6505400.990 4   5058896.38646  24549181.88746
        39.000          22.000  
  24675869.391 3     -2827.623 3   6385766.874 3   4967588.96646  24675867.49246
        36.500          20.750  
  23834902.648 5     -2858.835 5   4788977.165 5   3733413.68546  23834895.94546
        41.250          22.500  
  23179361.023 6      2499.630 6  -8326238.459 6  -6455630.32847  23179353.50047
        42.500          27.250  
  20352804.813 7      -504.427 7  -1014581.318 7   -763159.96049  20352796.23449
        49.000          41.500  
  22661947.656 6     -2131.324 6   4166154.117 6   3246914.69447  22661940.25047
        45.250          29.750  
  23216413.766 6     -1808.409 6   2315702.127 6   1816914.30247  23216406.18447
        45.500          31.500  
  20885287.766 7      -992.498 7    987579.108 7    785651.44348  20885277.25448
        50.250          41.000  
  23926490.500 6      3205.011 6  -7999303.718 6  -8323653.91546  23926485.55546
        43.000          25.250  
  26165438.203 5     -3107.852 5    245078.643 5    191036.26546  26165432.84846
        40.000          20.500  
  23225310.227 6      3561.624 6 -10080736.448 6  -7850530.17747  23225305.28147
        43.750          29.250  
 11  3 30 18 45 15.0000000  0 11G03G06G09G11G14G18G19G22G24G27G31   
  24557495.742 5     -2911.897 5   6549079.448 5   5092931.46846  24557493.60946
        39.750          22.250  
  24683940.039 3     -2827.404 3   6428177.928 3   5000636.41846  24683937.78946
        36.500          19.750  
  23843084.203 5     -2866.262 5   4831971.092 5   3766915.41646  23843077.55946
        41.750          22.250  
  23172244.141 6      2493.149 6  -8363635.698 6  -6484771.00146  23172237.08646
        42.500          26.000  
  20354263.930 7      -511.276 7  -1006912.184 7   -757184.00748  20354255.52748
        48.250          41.000  
  22668040.000 6     -2134.330 6   4198169.066 6   3271861.36847  22668031.89147
        45.250          29.750  
  23221594.992 6     -1814.899 6   2342925.605 6   1838127.36647  23221586.88347
        44.750          31.750  
  20888132.594 7      -996.647 7   1002528.817 7    797300.55348  20888121.78948
        50.500          41.250  
  23917350.164 6      3202.212 6  -8047336.892 6  -8361082.33746  23917345.16046
        43.000          25.500  
  26174316.891 5     -3110.556 5    291736.978 5    227393.41346  26174311.94546
        41.000          21.500  
  23215151.477 6      3559.023 6 -10134121.792 6  -7892129.04847  23215146.18047
        45.250          29.500  
 11  3 30 18 45 30.0000000  0 11G03G06G09G11G14G18G19G22G24G27G31   
  24565807.398 4     -2912.000 4   6592759.451 4   5126967.74946  24565805.38346
        39.000          21.500  
  24692009.750 3     -2827.142 3   6470585.055 3   5033680.86146  24692007.44146
        37.000          19.250  
  23851286.461 5     -2873.648 5   4875075.813 5   3800503.46646  23851280.22746
        41.250          22.750  
  23165145.938 6      2486.662 6  -8400935.627 6  -6513835.86246  23165139.23446
        42.750          25.500  
  20355743.102 7      -518.103 7   -999140.632 7   -751128.25048  20355734.23048
        48.750          41.250  
  22674140.578 6     -2137.318 6   4230228.841 6   3296842.96747  22674132.93847
        45.750          29.750  
  23226793.148 6     -1821.357 6   2370245.963 6   1859415.91747  23226785.33247
        45.000          32.000  
  20890989.125 7     -1000.772 7   1017540.399 7    808997.87448  20890978.73048
        51.250          40.750  
  23908217.492 6      3199.415 6  -8095328.120 6  -8398478.06046  23908212.95746
        43.000          26.000  
  26183202.805 4     -3113.231 4    338435.447 4    263781.84546  26183198.09446
        38.250          20.250  
  23204999.836 6      3556.403 6 -10187467.837 6  -7933697.28747  23204994.42247
        45.000          30.000  
 11  3 30 18 45 45.0000000  0 11G03G06G09G11G14G18G19G22G24G27G31   
  24574120.078 4     -2912.065 4   6636440.427 4   5161004.79846  24574117.94546
        38.750          21.500  
  24700078.578 3     -2826.857 3   6512987.909 3   5066721.95946  24700076.44546
        36.750          19.500  
  23859510.555 5     -2881.020 5   4918291.110 5   3834177.69446  23859503.55946
        41.250          22.500  
  23158066.641 5      2480.170 5  -8438138.176 5  -6542824.84247  23158059.76247
        41.500          26.500  
  20357241.273 7      -524.916 7   -991266.895 7   -744992.87749  20357232.46149
        48.500          41.500  
  22680249.891 6     -2140.319 6   4262333.629 6   3321859.65447  22680242.77747
        45.500          29.750  
  23232010.688 6     -1827.797 6   2397662.911 6   1880779.73647  23232003.10547
        44.750          32.000  
  20893857.945 7     -1004.904 7   1032613.954 7    820743.48548  20893847.43448
        51.500          40.500  
  23899093.180 6      3196.585 6  -8143276.901 6  -8435840.73446  23899088.41046
        42.750          25.500  
  26192097.109 5     -3115.897 5    385173.909 5    300201.36946  26192092.10546
        42.000          21.750  
  23194856.008 6      3553.760 6 -10240774.244 6  -7975234.64447  23194850.71147
        45.500          28.250  
 11  3 30 18 46  0.0000000  0 11G03G06G09G11G14G18G19G22G24G27G31   
  24582432.141 4     -2912.098 4   6680121.901 4   5195042.22146  24582430.88746
        37.500          21.500  
  24708145.977 4     -2826.543 4   6555386.053 4   5099759.41146  24708144.89846
        37.500          19.000  
  23867754.430 5     -2888.356 5   4961616.445 5   3867937.66746  23867748.84046
        41.500          23.750  
  23151005.883 5      2473.650 5  -8475242.920 5  -6571737.60646  23150998.77046
        42.250          26.250  
  20358758.938 7      -531.698 7   -983291.431 7   -738778.22248  20358749.89148
        48.250          41.000  
  22686368.258 6     -2143.301 6   4294483.140 6   3346911.17647  22686360.26647
        45.500          30.000  
  23237246.297 6     -1834.200 6   2425175.911 6   1902218.40547  23237238.42247
        44.500          31.750  
  20896737.680 7     -1009.029 7   1047749.393 7    832537.32648  20896726.81648
        50.000          40.500  
  23889976.422 6      3193.758 6  -8191183.274 6  -8473170.35546  23889971.30146
        42.500          26.000  
  26200999.383 5     -3118.515 5    431951.634 5    336651.54446  26200993.14846
        40.000          22.500  
  23184719.547 6      3551.104 6 -10294040.799 6  -8016740.95647  23184714.54347
        45.250          29.500  
 11  3 30 18 46 15.0000000  0 11G03G06G09G11G14G18G19G22G24G27G31   
  24590744.453 4     -2912.136 4   6723803.937 4   5229080.10546  24590742.67246
        37.500          20.750  
  24716213.547 3     -2826.233 3   6597779.549 3   5132793.20346  24716211.88346
        36.250          19.500  
  23876020.008 5     -2895.689 5   5005051.773 5   3901783.34246  23876013.71546
        41.000          22.750  
  23143963.945 6      2467.078 6  -8512249.093 6  -6600573.55646  23143956.83246
        42.750          24.750  
  20360296.172 7      -538.510 7   -975213.775 7   -732483.95248  20360287.06648
        48.250          41.000  
  22692494.195 6     -2146.314 6   4326677.847 6   3371997.94447  22692486.78947
        45.000          29.500  
  23242500.008 6     -1840.613 6   2452785.102 6   1923732.01647  23242492.25047
        44.250          31.250  
  20899629.766 7     -1013.187 7   1062947.191 7    844379.75348  20899619.48848
        50.250          40.250  
  23880868.641 6      3190.878 6  -8239046.445 6  -8510466.31246  23880864.16446
        42.500          24.500  
  26209907.250 4     -3121.150 4    478768.889 4    373132.52446  26209902.48046
        39.000          20.000  
  23174591.211 6      3548.395 6 -10347266.724 6  -8058215.61447  23174585.79747
        45.250          30.250  
 11  3 30 18 46 30.0000000  0 11G03G06G09G11G14G18G19G22G24G27G31   
  24599056.906 4     -2912.145 4   6767486.105 4   5263118.08346  24599055.88746
        37.500          20.250  
  24724280.617 4     -2825.879 4   6640167.735 4   5165822.87546  24724278.42646
        37.750          19.500  
  23884306.727 5     -2902.981 5   5048596.493 5   3935714.23746  23884300.02346
        41.500          23.000  
  23136940.570 6      2460.511 6  -8549156.764 6  -6629332.75647  23136933.10547
        43.500          27.000  
  20361852.391 7      -545.306 7   -967034.184 7   -726110.24548  20361843.57848
        49.250          40.250  
  22698629.563 6     -2149.304 6   4358917.411 6   3397119.63947  22698622.56647
        44.500          30.000  
  23247772.063 6     -1846.989 6   2480489.937 6   1945320.16247  23247764.65647
        44.500          31.500  
  20902533.625 7     -1017.319 7   1078206.981 7    856270.48148  20902523.34848
        50.000          40.750  
  23871768.891 6      3187.995 6  -8286866.371 6  -8547728.56046  23871764.23846
        42.500          25.500  
  26218823.602 5     -3123.753 5    525625.183 5    409643.87246  26218819.30146
        40.000          20.750  
  23164470.164 6      3545.671 6 -10400451.784 6  -8099658.41047  23164464.80947
        46.000          30.250  
 11  3 30 18 46 45.0000000  0 11G03G06G09G11G14G18G19G22G24G27G31   
  24607369.281 3     -2912.114 3   6811167.816 3   5297155.69746  24607367.61746
        37.250          19.750  
  24732345.734 4     -2825.506 4   6682550.327 4   5198848.19046  24732343.54346
        38.250          19.500  
  23892613.797 5     -2910.240 5   5092250.096 5   3969730.00546  23892607.15246
        41.500          24.000  
  23129935.766 6      2453.940 6  -8585965.858 6  -6658015.14547  23129928.82847
        44.500          27.000  
  20363428.758 7      -552.070 7   -958753.128 7   -719657.47348  20363419.30148
        49.000          41.000  
  22704773.430 6     -2152.297 6   4391201.870 6   3422276.31647  22704765.26247
        45.250          30.250  
  23253062.133 6     -1853.337 6   2508289.993 6   1966982.50947  23253054.84447
        44.500          31.750  
  20905449.258 7     -1021.456 7   1093528.816 7    868209.55148  20905438.45348
        49.500          41.250  
  23862677.188 6      3185.103 6  -8334642.918 6  -8584957.01446  23862672.53546
        42.500          25.000  
  26227747.922 5     -3126.326 5    572520.066 5    446185.36346  26227742.97746
        40.250          21.000  
  23154356.336 6      3542.940 6 -10453595.886 6  -8141069.32747  23154351.39147
        45.500          29.000  
 11  3 30 18 47  0.0000000  0 11G03G06G09G11G14G18G19G22G24G27G31   
  24615681.805 3     -2912.080 3   6854849.012 3   5331192.91346  24615680.55146
        37.000          19.750  
  24740409.430 4     -2825.124 4   6724927.183 4   5231869.03346  24740407.94146
        38.250          19.000  
  23900941.156 5     -2917.496 5   5136012.540 5   4003830.58946  23900935.15646
        42.000          24.250  
  23122949.953 6      2447.337 6  -8622675.907 6  -6686620.34347  23122943.30947
        42.750          26.500  
  20365023.516 7      -558.841 7   -950370.509 7   -713125.56148  20365014.93848
        48.500          41.000  
  22710925.078 6     -2155.304 6   4423531.436 6   3447468.15847  22710917.37947
        45.000          29.500  
  23258370.852 6     -1859.683 6   2536185.242 6   1988719.02047  23258362.74247
        44.500          32.000  
  20908376.914 7     -1025.608 7   1108912.935 7    880197.16548  20908366.28548
        49.250          40.750  
  23853593.828 6      3182.171 6  -8382375.487 6  -8622151.19346  23853589.29346
        42.500          26.000  
  26236679.406 4     -3128.898 4    619453.541 4    482756.87445  26236673.05545
        38.750          18.250  
  23144251.891 6      3540.151 6 -10506698.156 6  -8182447.62347  23144246.77047
        46.000          29.500  
 11  3 30 18 47 15.0000000  0 11G03G06G09G11G14G18G19G22G24G27G31   
  24623993.836 3     -2912.012 3   6898529.193 3   5365229.32746  24623991.99646
        37.000          20.000  
  24748473.180 4     -2824.717 4   6767297.941 4   5264885.11846  24748470.81346
        38.000          19.250  
  23909289.820 6     -2924.731 6   5179883.506 6   4038015.71746  23909283.58646
        42.500          24.500  
  23115983.945 6      2440.707 6  -8659286.511 6  -6715148.07247  23115976.48047
        42.750          27.500  
  20366638.336 7      -565.595 7   -941886.578 7   -706514.71548  20366629.69948
        48.250          41.250  
  22717085.727 6     -2158.302 6   4455905.970 6   3472695.02647  22717077.85247
        45.500          29.250  
  23263696.813 6     -1865.998 6   2564175.213 6   2010529.35247  23263689.17247
        43.500          31.250  
  20911316.023 7     -1029.764 7   1124359.400 7    892233.35248  20911305.68848
        50.500          40.750  
  23844519.445 5      3179.218 5  -8430063.763 5  -8659310.86947  23844514.20747
        42.000          27.000  
  26245617.797 4     -3131.456 4    666425.374 4    519358.27545  26245612.14845
        38.750          17.250  
  23134155.102 6      3537.343 6 -10559758.304 6  -8223793.09547  23134149.57047
        46.250          30.250  
 11  3 30 18 47 30.0000000  0 11G03G06G09G11G14G18G19G22G24G27G31   
  24632305.664 3     -2911.910 3   6942207.843 3   5399264.55846  24632303.76646
        36.000          20.500  
  24756534.211 4     -2824.265 4   6809661.914 4   5297895.92546  24756532.31346
        38.000          19.500  
  23917658.773 5     -2931.909 5   5223862.137 5   4072284.74946  23917652.48046
        42.000          24.250  
  23109035.625 6      2434.077 6  -8695797.666 6  -6743598.30247  23109028.57047
        43.000          27.000  
  20368271.664 7      -572.320 7   -933301.783 7   -699825.26148  20368262.91048
        48.750          41.250  
  22723255.203 6     -2161.285 6   4488325.250 6   3497956.78147  22723248.20747
        45.500          28.750  
  23269040.727 6     -1872.279 6   2592259.399 6   2032413.08947  23269033.73047
        43.250          31.750  
  20914267.070 7     -1033.899 7   1139867.882 7    904317.87148  20914257.02748
        50.000          41.000  
  23835453.016 5      3176.276 5  -8477707.898 5  -8696436.13546  23835447.71946
        42.000          25.500  
  26254563.516 4     -3133.967 4    713434.880 4    555989.02745  26254557.51645
        37.500          17.250  
  23124065.977 6      3534.535 6 -10612776.327 6  -8265105.74847  23124060.38747
        46.000          29.750  
 11  3 30 18 47 45.0000000  0 11G03G06G09G11G14G18G19G22G24G27G31   
  24640616.977 3     -2911.796 3   6985884.783 3   5433298.44646  24640615.13746
        36.500          20.000  
  24764594.961 5     -2823.806 5   6852019.001 5   5330901.35345  24764592.41845
        39.500          18.250  
  23926047.984 5     -2939.079 5   5267948.327 5   4106637.58646  23926041.69146
        41.500          24.250  
  23102106.531 6      2427.425 6  -8732209.047 6  -6771970.77347  23102099.30147
        44.000          27.750  
  20369924.539 7      -579.041 7   -924616.163 7   -693057.25548  20369915.84448
        48.250          41.000  
  22729432.883 6     -2164.276 6   4520789.387 6   3523253.47447  22729425.30147
        46.000          29.250  
  23274403.391 6     -1878.548 6   2620437.620 6   2054370.09647  23274395.75047
        43.500          32.250  
  20917230.438 7     -1038.045 7   1155438.559 7    916450.85548  20917220.16048
        48.000          40.750  
  23826395.336 5      3173.298 5  -8525307.361 5  -8733526.58846  23826390.15646
        41.500          22.500  
  26263516.031 4     -3136.489 4    760482.222 4    592649.29945  26263510.79345
        37.500          17.250  
  23113985.008 6      3531.692 6 -10665751.712 6  -8306385.18547  23113979.24247
        46.750          30.000  
 11  3 30 18 48  0.0000000  0 11G03G06G09G11G14G18G19G22G24G27G31   
  24648929.023 4     -2911.675 4   7029559.907 4   5467330.94246  24648926.59846
        37.500          19.500  
  24772654.234 4     -2823.347 4   6894369.211 4   5363901.45145  24772651.45745
        39.000          18.500  
  23934457.836 5     -2946.249 5   5312142.062 5   4141074.23046  23934451.95346
        41.750          23.500  
  23095197.180 6      2420.724 6  -8768519.909 6  -6800264.93747  23095189.94947
        43.000          27.000  
  20371596.352 7      -585.778 7   -915829.487 7   -686210.49348  20371587.53948
        48.500          41.000  
  22735619.289 6     -2167.304 6   4553298.945 6   3548585.55647  22735611.64847
        45.750          29.000  
  23279783.344 6     -1884.827 6   2648710.029 6   2076400.50847  23279775.76247
        43.750          31.750  
  20920205.133 7     -1042.224 7   1171071.920 7    928632.67748  20920195.09048
        49.750          40.750  
  23817346.484 5      3170.272 5  -8572861.439 5  -8770581.70546  23817340.42646
        42.250          23.000  
  26272475.273 3     -3139.003 3    807567.269 3    629338.93645  26272471.38345
        37.000          18.250  
  23103912.336 6      3528.794 6 -10718683.626 6  -8347630.74147  23103906.86347
        46.500          30.250  
 11  3 30 18 48 15.0000000  0 11G03G06G09G11G14G18G19G22G24G27G31   
  24657239.367 3     -2911.499 3   7073232.399 3   5501361.37546  24657237.05946
        36.750          20.250  
  24780711.500 4     -2822.826 4   6936711.608 4   5396895.47245  24780708.84045
        39.000          17.750  
  23942887.438 5     -2953.353 5   5356442.358 5   4175593.89946  23942881.61346
        41.500          25.000  
  23088306.445 6      2414.058 6  -8804730.787 6  -6828481.18347  23088299.21547
        43.750          27.000  
  20373287.625 7      -592.456 7   -906942.642 7   -679285.67648  20373278.81348
        48.750          40.750  
  22741814.344 6     -2170.277 6   4585853.097 6   3573952.39447  22741806.29347
        45.000          28.000  
  23285181.250 6     -1891.031 6   2677075.500 6   2098503.42347  23285173.60947
        44.250          32.250  
  20923191.914 7     -1046.363 7   1186767.364 7    940862.88148  20923181.52048
        50.000          40.500  
  23808305.039 5      3167.271 5  -8620370.510 5  -8807601.73146  23808299.85946
        42.250          22.500  
  26281442.953 3     -3141.454 3    854689.080 3    666057.20045  26281436.95345
        36.000          16.250  
  23093847.813 6      3525.914 6 -10771572.340 6  -8388842.64247  23093842.28147
        46.000          30.500  
 11  3 30 18 48 30.0000000  0 11G03G06G09G11G14G18G19G22G24G27G31   
  24665548.055 4     -2911.315 4   7116902.122 4   5535389.66446  24665547.56346
        38.000          19.500  
  24788767.430 5     -2822.305 5   6979046.181 5   5429883.36446  24788765.06346
        39.750          19.000  
  23951338.391 5     -2960.458 5   5400849.223 5   4210196.63546  23951332.27346
        41.500          24.750  
  23081434.500 6      2407.339 6  -8840840.879 6  -6856618.89346  23081427.73846
        44.250          26.250  
  20374997.813 7      -599.152 7   -897955.362 7   -672282.60148  20374988.94148
        49.000          40.750  
  22748017.758 6     -2173.278 6   4618452.265 6   3599354.29947  22748009.94147
        45.000          29.000  
  23290596.875 6     -1897.238 6   2705534.069 6   2120678.89047  23290589.70347
        44.250          32.500  
  20926190.703 7     -1050.515 7   1202525.082 7    953141.60548  20926180.36748
        49.750          40.500  
  23799273.102 5      3164.227 5  -8667833.921 5  -8844586.17946  23799267.68846
        41.250          23.000  
  26290416.375 2     -3143.908 2    901847.696 2    702804.12245  26290411.84045
        35.250          15.500  
  23083791.383 6      3522.991 6 -10824417.204 6  -8430020.37847  23083786.02747
        46.750          30.750  
 11  3 30 18 48 45.0000000  0 11G03G06G09G11G14G18G19G22G24G27G31   
  24673859.195 4     -2911.126 4   7160569.011 4   5569415.72546  24673857.12146
        38.500          20.250  
  24796822.102 5     -2821.779 5   7021372.873 5   5462865.15146  24796819.79346
        40.000          19.250  
  23959809.359 5     -2967.559 5   5445362.609 5   4244882.35446  23959803.06646
        41.750          24.250  
  23074582.555 6      2400.583 6  -8876849.622 6  -6884677.63147  23074575.14847
        43.750          28.000  
  20376727.188 7      -605.849 7   -888867.633 7   -665201.25749  20376718.43449
        48.500          41.500  
  22754229.547 6     -2176.289 6   4651096.607 6   3624791.41047  22754221.55547
        45.750          28.750  
  23296030.148 6     -1903.444 6   2734085.732 6   2142926.89947  23296022.09847
        44.000          32.000  
  20929201.250 7     -1054.685 7   1218345.363 7    965469.08648  20929190.50448
        50.000          40.500  
  23790250.008 5      3161.150 5  -8715251.178 5  -8881534.68346  23790244.24246
        41.750          22.750  
  26299397.766 2     -3146.361 2    949043.114 2    739579.77645  26299393.05545
        34.500          14.750  
  23073744.305 6      3520.022 6 -10877217.529 6  -8471163.41647  23073738.48047
        46.750          31.250  
 11  3 30 18 49  0.0000000  0 11G03G06G09G11G14G18G19G22G24G27G31   
  24682168.492 3     -2910.880 3   7204232.207 3   5603438.92546  24682166.41846
        37.000          20.000  
  24804874.852 5     -2821.197 5   7063690.822 5   5495840.10245  24804872.60245
        41.250          17.750  
  23968299.555 5     -2974.592 5   5489981.494 5   4279650.28046  23968293.49646
        40.750          23.750  
  23067749.633 6      2393.856 6  -8912757.460 6  -6912657.73647  23067742.16847
        44.000          27.750  
  20378475.758 7      -612.507 7   -879680.033 7   -658042.09248  20378466.88748
        48.500          41.000  
  22760450.164 6     -2179.267 6   4683785.615 6   3650263.32247  22760442.87547
        45.250          27.750  
  23301480.938 6     -1909.598 6   2762729.695 6   2165246.81947  23301473.06347
        44.000          30.750  
  20932223.344 7     -1058.829 7   1234227.800 7    977844.99448  20932212.48048
        50.250          40.500  
  23781235.016 5      3158.089 5  -8762622.514 5  -8918447.39246  23781230.01246
        42.250          22.500  
  26308385.492 2     -3148.766 2    996274.600 2    776383.49445  26308380.60545
        34.000          14.750  
  23063705.336 6      3517.057 6 -10929973.386 6  -8512271.80547  23063699.39547
        47.000          31.250  
 11  3 30 18 49 15.0000000  0 11G03G06G09G11G14G18G19G22G24G27G31   
  24690476.367 4     -2910.628 4   7247891.620 4   5637459.16646  24690473.88346
        39.000          20.500  
  24812925.555 5     -2820.601 5   7105999.839 5   5528808.09145  24812924.06645
        41.250          18.250  
  23976809.969 5     -2981.619 5   5534705.774 5   4314500.33147  23976804.20347
        40.500          26.500  
  23060935.641 6      2387.091 6  -8948563.819 6  -6940558.77647  23060928.76247
        43.500          27.250  
  20380243.195 7      -619.166 7   -870392.549 7   -650805.09648  20380234.03148
        48.500          40.750  
  22766679.320 6     -2182.261 6   4716519.528 6   3675770.23847  22766671.73847
        46.250          27.750  
  23306949.156 6     -1915.749 6   2791465.933 6   2187638.64847  23306941.69147
        44.250          31.250  
  20935257.719 7     -1062.988 7   1250172.614 7    990269.51048  20935247.38348
        50.500          40.250  
  23772229.617 5      3154.987 5  -8809947.317 5  -8955323.83646  23772224.67246
        41.750          22.500  
  26317380.180 1     -3151.170 1   1043542.152 1                
        31.750  
  23053674.469 6      3514.054 6 -10982684.202 6  -8553345.09247  23053668.41047
        46.500          31.500  
 11  3 30 18 49 30.0000000  0 10G03G06G09G11G14G18G19G22G24G31      
  24698782.570 5     -2909.977 5   7291541.277 5   5671471.81446  24698780.67246
        39.750          21.250  
  24820974.320 5     -2819.620 5   7148294.140 5   5561764.60145  24820972.89145
        41.500          18.250  
  23985339.898 5     -2988.255 5   5579529.592 5   4349427.93646  23985333.84046
        41.000          25.000  
  23054140.922 6      2380.674 6  -8984273.923 6  -6968384.81547  23054133.22347
        43.250          28.500  
  20382028.102 7      -625.444 7   -861010.891 7   -643494.71348  20382019.52348
        48.750          40.750  
  22772915.875 6     -2184.888 6   4749292.852 6   3701307.85747  22772907.94147
        44.750          28.000  
  23312433.375 6     -1921.501 6   2820288.447 6   2210097.70347  23312426.49647
        44.500          31.500  
  20938302.852 7     -1066.781 7   1266174.324 7   1002738.36248  20938292.22348
        50.250          40.500  
  23763231.953 5      3152.236 5  -8857230.860 5  -8992168.13646  23763226.65646
        41.250          22.750  
  23043651.375 6      3511.397 6 -11035355.160 6  -8594387.31747  23043645.90247
        46.750          31.000  
 11  3 30 18 49 45.0000000  0 10G03G06G09G11G14G18G19G22G24G31      
  24707088.805 4     -2909.962 4   7335190.708 4   5705484.30746  24707086.96546
        39.000          20.250  
  24829021.508 5     -2819.280 5   7190583.334 5   5594717.17445  24829020.02045
        41.250          17.750  
  23993890.859 5     -2995.528 5   5624462.510 5   4384440.57346  23993884.62546
        41.500          26.000  
  23047365.086 6      2373.572 6  -9019877.497 6  -6996127.83847  23047357.85547
        44.250          28.500  
  20383833.422 7      -632.372 7   -851525.309 7   -636103.34949  20383824.55149
        48.500          41.500  
  22779161.828 6     -2188.177 6   4782115.508 6   3726883.91047  22779154.18847
        46.000          28.000  
  23317936.727 6     -1927.885 6   2849206.720 6   2232631.36947  23317929.32047
        44.250          30.500  
  20941360.578 7     -1071.242 7   1282242.947 7   1015259.35248  20941350.18448
        50.500          40.500  
  23754243.805 5      3148.810 5  -8904463.017 5  -9028972.39246  23754238.91846
        41.250          22.750  
  23033637.875 6      3508.044 6 -11087975.822 6  -8635390.37347  23033632.52047
        46.500          31.500  
 11  3 30 18 50  0.0000000  0 10G03G06G09G11G14G18G19G22G24G31      
  24715394.344 5     -2909.638 5   7378835.274 5   5739492.99146  24715391.44946
        39.250          20.750  
  24837067.359 5     -2818.612 5   7232862.521 5   5627661.91845  24837065.52045
        41.500          18.500  
  24002460.922 5     -3002.478 5   5669499.678 5   4419534.44046  24002455.39146
        41.250          24.500  
  23040609.531 6      2366.761 6  -9055378.919 6  -7023791.24947  23040602.18447
        44.000          28.000  
  20385657.227 7      -638.983 7   -841940.571 7   -628634.73648  20385648.53148
        48.250          41.250  
  22785416.125 6     -2191.160 6   4814982.910 6   3752494.83847  22785408.54347
        46.500          29.000  
  23323457.367 6     -1933.963 6   2878216.158 6   2255236.08947  23323449.31647
        44.000          30.500  
  20944430.445 7     -1075.402 7   1298373.973 7   1027828.97148  20944419.75848
        50.500          41.000  
  23745264.523 5      3145.660 5  -8951647.913 5  -9065739.80846  23745259.57846
        41.250          21.750  
  23023633.617 6      3504.981 6 -11140550.538 6  -8676357.60247  23023627.91047
        47.000          31.000  
 11  3 30 18 50 15.0000000  0 10G03G06G09G11G14G18G19G22G24G31      
  24723698.273 5     -2909.279 5   7422474.453 5   5773497.47046  24723696.37546
        40.000          20.250  
  24845110.977 5     -2817.932 5   7275131.499 5   5660598.75545  24845108.96145
        41.000          18.500  
  24011050.820 5     -3009.404 5   5714640.738 5   4454709.25446  24011045.28946
        40.500          22.500  
  23033873.328 6      2359.928 6  -9090777.834 6  -7051374.79347  23033866.09847
        44.250          28.750  
  20387499.930 7      -645.582 7   -832256.842 7   -621088.97648  20387491.29348
        48.000          41.250  
  22791679.219 6     -2194.149 6   4847895.142 6   3778140.69447  22791671.52047
        45.500          28.500  
  23328994.820 6     -1940.013 6   2907316.348 6   2277911.50647  23328987.12147
        43.500          30.750  
  20947511.547 7     -1079.566 7   1314567.457 7   1040447.25548  20947501.15248
        51.000          40.250  
  23736294.625 5      3142.491 5  -8998785.274 5  -9102470.19946  23736289.91446
        41.000          21.750  
  23013637.289 6      3501.888 6 -11193078.858 6  -8717288.67947  23013631.93447
        46.500          31.250  
 11  3 30 18 50 30.0000000  0 10G03G06G09G11G14G18G19G22G24G31      
  24732001.828 5     -2908.906 5   7466108.037 5   5807497.61046  24731999.52046
        39.750          20.500  
  24853152.781 5     -2817.231 5   7317389.969 5   5693527.39345  24853150.06345
        41.250          17.250  
  24019661.133 5     -3016.307 5   5759885.344 5   4489964.77546  24019654.95746
        40.000          24.750  
  23027156.484 6      2353.066 6  -9126073.826 6  -7078878.14747  23027149.37147
        42.750          28.500  
  20389361.672 7      -652.176 7   -822474.205 7   -613466.14248  20389352.56648
        47.750          40.750  
  22797950.789 6     -2197.147 6   4880852.342 6   3803821.59047  22797942.85547
        45.250          29.000  
  23334549.906 6     -1946.047 6   2936507.048 6   2300657.45847  23334542.32447
        43.000          31.250  
  20950605.523 7     -1083.737 7   1330823.511 7   1053114.29848  20950594.83648
        50.250          41.000  
  23727333.930 5      3139.291 5  -9045874.634 5  -9139163.17546  23727329.10246
        40.750          22.250  
  23003650.195 6      3498.751 6 -11245560.129 6  -8758183.10847  23003644.84047
        46.000          31.750  
 11  3 30 18 50 45.0000000  0 10G03G06G09G11G14G18G19G22G24G31      
  24740303.914 5     -2908.492 5   7509735.415 5   5841492.89046  24740301.43046
        40.500          20.000  
  24861192.273 5     -2816.486 5   7359637.255 5   5726447.26545  24861189.84845
        41.500          17.750  
  24028290.531 5     -3023.163 5   5805232.781 5   4525300.37046  24028283.53546
        39.500          24.500  
  23020459.695 6      2346.207 6  -9161266.938 6  -7106301.32947  23020452.46547
        43.500          27.750  
  20391241.836 7      -658.730 7   -812593.259 7   -605766.71148  20391232.96548
        48.250          40.750  
  22804231.281 6     -2200.122 6   4913854.167 6   3829537.26947  22804223.69947
        45.500          28.500  
  23340121.320 6     -1952.033 6   2965787.537 6   2323473.37547  23340114.09047
        43.250          30.750  
  20953710.555 7     -1087.887 7   1347141.815 7   1065829.84748  20953700.27748
        51.000          41.000  
  23718382.367 5      3136.099 5  -9092916.117 5  -9175818.85546  23718376.95346
        41.500          21.250  
  22993672.375 6      3495.619 6 -11297994.418 6  -8799040.91647  22993666.66847
        46.000          31.500  
 11  3 30 18 51  0.0000000  0 10G03G06G09G11G14G18G19G22G24G31      
  24748604.469 5     -2908.096 5   7553356.855 5   5875483.56446  24748602.16046
        39.750          19.750  
  24869229.539 5     -2815.752 5   7401873.534 5   5759358.61745  24869226.93845
        41.250          18.250  
  24036938.836 4     -3030.031 4   5850683.247 4   4560716.29946  24036933.18846
        38.750          22.750  
  23013782.773 6      2339.307 6  -9196356.550 6  -7133643.85247  23013775.60247
        44.500          27.250  
  20393140.672 7      -665.340 7   -802613.160 7   -597990.01148  20393132.21148
        48.750          40.500  
  22810519.758 6     -2203.128 6   4946901.082 6   3855288.07347  22810512.58647
        46.000          27.750  
  23345710.609 6     -1958.045 6   2995158.214 6   2346359.57147  23345703.20347
        43.500          30.750  
  20956827.656 7     -1092.069 7   1363522.849 7   1078594.27548  20956817.37948
        51.000          40.750  
  23709440.352 5      3132.846 5  -9139908.808 5  -9212436.51246  23709434.76246
        41.500          22.750  
  22983704.203 6      3492.430 6 -11350380.875 6  -8839861.45647  22983697.55947
        46.500          31.000  
 11  3 30 18 51 15.0000000  0 10G03G06G09G11G14G18G19G22G24G31      
  24756904.633 5     -2907.639 5   7596971.435 5   5909468.89146  24756902.38346
        40.250          20.250  
  24877264.594 5     -2814.971 5   7444098.097 5   5792260.80946  24877262.28546
        40.500          19.000  
  24045607.078 4     -3036.844 4   5896235.913 4   4596211.83146  24045601.43046
        39.000          22.750  
  23007124.656 6      2332.416 6  -9231342.789 6  -7160905.83147  23007117.30947
        44.250          27.750  
  20395058.680 7      -671.872 7   -792535.087 7   -590136.97148  20395050.04348
        48.750          40.750  
  22816816.961 6     -2206.101 6   4979992.597 6   3881073.62847  22816809.26247
        45.250          28.750  
  23351316.688 6     -1963.993 6   3024618.116 6   2369315.28547  23351309.04747
        43.750          31.000  
  20959956.813 7     -1096.231 7   1379966.312 7   1091407.34848  20959946.24248
        50.250          41.000  
  23700506.641 5      3129.614 5  -9186853.011 5  -9249016.38346  23700502.10546
        41.500          22.500  
  22973743.211 6      3489.251 6 -11402719.634 6  -8880644.82247  22973737.73847
        45.500          32.000  
 11  3 30 18 51 30.0000000  0 10G03G06G09G11G14G18G19G22G24G31      
  24765202.430 5     -2907.182 5   7640579.160 5   5943448.85646  24765200.59046
        40.000          19.750  
  24885297.469 5     -2814.192 5   7486310.978 5   5825153.89045  24885294.98445
        40.750          17.250  
  24054294.992 4     -3043.657 4   5941890.764 4   4631787.02446  24054289.75446
        38.000          22.500  
  23000487.086 6      2325.481 6  -9266224.999 6  -7188086.75547  23000479.32847
        44.500          28.000  
  20396995.031 7      -678.426 7   -782358.692 7   -582207.32448  20396986.51248
        48.750          40.500  
  22823122.781 6     -2209.101 6   5013129.110 6   3906894.24747  22823115.25847
        45.250          28.250  
  23356940.055 6     -1969.941 6   3054167.229 6   2392340.52247  23356932.29747
        43.750          31.000  
  20963097.797 7     -1100.413 7   1396472.502 7   1104269.29848  20963087.05148
        50.000          40.750  
  23691582.820 5      3126.330 5  -9233747.963 5  -9285557.87446  23691577.87546
        41.500          22.000  
  22963793.352 6      3486.009 6 -11455009.767 6  -8921390.29747  22963787.35247
        46.500          32.250  
 11  3 30 18 51 45.0000000  0 10G03G06G09G11G14G18G19G22G24G31      
  24773499.695 5     -2906.671 5   7684179.232 5   5977422.88346  24773496.80146
        41.250          19.500  
  24893327.836 5     -2813.358 5   7528511.345 5   5858037.21245  24893326.40645
        41.000          18.250  
  24063002.359 3     -3050.412 3   5987646.949 3   4667441.15746  24062996.24246
        36.750          22.500  
  22993868.914 6      2318.553 6  -9301003.301 6  -7215186.70347  22993861.56647
        44.500          27.500  
  20398950.063 7      -684.939 7   -772084.611 7   -574201.55048  20398941.60248
        49.750          40.500  
  22829436.336 6     -2212.069 6   5046310.152 6   3932749.56347  22829429.28147
        45.500          28.500  
  23362579.648 6     -1975.845 6   3083804.900 6   2415434.76647  23362572.18447
        43.500          30.000  
  20966250.766 7     -1104.569 7   1413041.031 7   1117179.82048  20966240.13748
        50.500          41.000  
  23682668.656 5      3123.060 5  -9280593.866 5  -9322061.14846  23682663.06646
        42.000          22.750  
  22953852.117 6      3482.780 6 -11507251.467 6  -8962098.03147  22953846.17647
        46.750          31.750  
 11  3 30 18 52  0.0000000  0 10G03G06G09G11G14G18G19G22G24G31      
  24781794.820 5     -2906.174 5   7727771.837 5   6011391.08345  24781792.92245
        41.000          18.500  
  24901356.078 5     -2812.539 5   7570699.438 5   5890910.98145  24901353.94545
        41.250          17.750  
  24071729.648 3     -3057.186 3   6033504.734 3   4703174.47946  24071722.53546
        36.250          21.250  
  22987270.813 6      2311.561 6  -9335676.722 6  -7242204.93547  22987262.99647
        43.500          28.000  
  20400924.031 7      -691.481 7   -761712.397 7   -566119.31748  20400915.68848
        49.250          40.750  
  22835759.398 6     -2215.077 6   5079536.309 6   3958640.03047  22835751.81647
        45.250          28.750  
  23368236.852 6     -1981.760 6   3113531.303 6   2438598.14547  23368229.03547
        43.500          31.000  
  20969415.859 7     -1108.760 7   1429672.437 7   1130139.34048  20969405.05548
        49.500          40.500  
  23673763.320 6      3119.732 6  -9327389.853 6  -9358525.52546  23673758.02346
        42.750          23.250  
  22943919.969 6      3479.480 6 -11559443.662 6  -9002767.19647  22943914.08647
        46.250          32.000  
 11  3 30 18 52 15.0000000  0 10G03G06G09G11G14G18G19G22G24G31      
  24790088.828 5     -2905.607 5   7771355.949 5   6045352.68446  24790087.22346
        42.000          19.500  
  24909381.227 5     -2811.659 5   7612874.318 5   5923774.49846  24909379.56346
        40.500          19.250  
  24080473.664 3     -3063.880 3   6079462.927 3   4738986.02246  24080468.36746
        36.500          21.250  
  22980692.305 6      2304.609 6  -9370245.856 6  -7269141.89247  22980684.72347
        45.000          28.000  
  20402916.547 7      -697.969 7   -751242.863 7   -557961.23848  20402907.67648
        49.000          41.000  
  22842090.797 6     -2218.046 6   5112807.001 6   3984565.20247  22842082.92247
        45.750          29.500  
  23373910.148 6     -1987.613 6   3143345.501 6   2461829.93547  23373902.39147
        44.250          30.500  
  20972592.430 7     -1112.913 7   1446366.130 7   1143147.39348  20972582.03548
        50.250          40.000  
  23664868.133 5      3116.422 5  -9374136.177 5  -9394951.21646  23664862.60246
        42.000          22.750  
  22933997.570 6      3476.202 6 -11611586.690 6  -9043398.04347  22933991.86347
        46.500          31.000  
 11  3 30 18 52 30.0000000  0 10G03G06G09G11G14G18G19G22G24G31      
  24798380.813 6     -2905.047 6   7814931.652 6   6079307.70746  24798378.68046
        42.500          19.500  
  24917405.070 5     -2810.783 5   7655036.063 5   5956627.71846  24917403.40646
        40.750          19.250  
  24089238.422 3     -3070.572 3   6125521.507 3   4774875.78746  24089232.94946
        37.000          20.500  
  22974133.625 6      2297.618 6  -9404710.125 6  -7295997.13747  22974126.45347
        44.500          28.250  
  20404927.055 7      -704.469 7   -740675.820 7   -549727.18348  20404918.30148
        48.000          41.000  
  22848430.422 6     -2221.031 6   5146122.466 6   4010525.27647  22848422.84047
        46.250          28.250  
  23379600.156 6     -1993.471 6   3173247.563 6   2485130.18647  23379592.69147
        44.000          30.500  
  20975780.945 7     -1117.095 7   1463122.562 7   1156204.33648  20975770.72748
        50.250          41.000  
  23655982.375 6      3113.074 6  -9420832.285 6  -9431337.75946  23655976.96146
        42.750          22.500  
  22924084.422 6      3472.871 6 -11663679.749 6  -9083989.95747  22924078.53947
        46.500          31.750  
 11  3 30 18 52 45.0000000  0 10G03G06G09G11G14G18G19G22G24G31      
  24806671.461 5     -2904.487 5   7858498.960 5   6113256.19545  24806669.62145
        41.750          18.500  
  24925426.039 5     -2809.894 5   7697184.467 5   5989470.56446  24925423.55546
        40.500          19.500  
  24098023.086 3     -3077.261 3   6171680.427 3   4810843.73546  24098016.50046
        37.250          21.250  
  22967595.883 6      2290.588 6  -9439068.951 6  -7322770.23547  22967588.06647
        45.000          27.250  
  20406956.297 7      -710.963 7   -730011.381 7   -541417.23048  20406947.89548
        49.000          40.500  
  22854778.570 6     -2224.050 6   5179483.216 6   4036520.62747  22854771.45747
        45.500          28.750  
  23385306.984 6     -1999.320 6   3203237.366 6   2508498.81247  23385299.57847
        44.250          30.500  
  20978981.453 7     -1121.291 7   1479941.927 7   1169310.31948  20978971.29348
        50.500          40.750  
  23647105.781 5      3109.690 5  -9467477.640 5  -9467684.77546  23647100.48446
        42.250          22.750  
  22914181.188 6      3469.501 6 -11715722.261 6  -9124542.48447  22914175.65647
        46.250          31.750  
 11  3 30 18 53  0.0000000  0 10G03G06G09G11G14G18G19G22G24G31      
  24814960.469 5     -2903.862 5   7902056.885 5   6147197.36246  24814958.10246
        42.000          19.500  
  24933443.609 5     -2808.951 5   7739318.728 5   6022302.40145  24933441.30145
        40.500          18.500  
  24106825.938 2     -3083.891 2   6217938.795 2   4846889.17846  24106819.52746
        35.250          21.000  
  22961077.750 6      2283.577 6  -9473322.612 6  -7349461.36547  22961069.87547
        44.500          28.250  
  20409004.445 7      -717.411 7   -719250.214 7   -533031.90348  20408995.86748
        49.000          41.250  
  22861135.734 6     -2227.009 6   5212888.349 6   4062550.56747  22861128.15247
        46.000          28.750  
  23391030.648 6     -2005.109 6   3233314.006 6   2531935.10947  23391022.83247
        44.750          30.500  
  20982194.055 7     -1125.452 7   1496823.703 7   1182464.94148  20982183.48448
        50.000          40.500  
  23638238.805 6      3106.324 6  -9514072.495 6  -9503992.42846  23638233.97746
        42.500          24.000  
  22904287.172 6      3466.144 6 -11767714.425 6  -9165055.76947  22904281.40647
        46.500          31.750  
 11  3 30 18 53 15.0000000  0 10G03G06G09G11G14G18G19G22G24G31      
  24823248.086 5     -2903.241 5   7945605.505 5   6181131.30246  24823245.54346
        42.250          20.250  
  24941458.820 5     -2808.014 5   7781438.936 5   6055123.26646  24941456.74646
        40.000          19.750  
  24115647.094 3     -3090.524 3   6264296.654 3   4883012.14546  24115641.68046
        36.750          21.500  
  22954579.289 6      2276.522 6  -9507470.447 6  -7376070.04647  22954571.82447
        43.750          27.250  
  20411070.313 7      -723.877 7   -708392.065 7   -524571.01448  20411062.02748
        49.000          40.500  
  22867501.336 6     -2229.993 6   5246338.246 6   4088615.37847  22867493.93047
        45.750          29.250  
  23396770.477 6     -2010.902 6   3263477.530 6   2555439.09747  23396762.83647
        44.500          29.750  
  20985418.711 7     -1129.638 7   1513768.277 7   1195668.48148  20985407.67248
        50.250          40.500  
  23629381.820 6      3102.911 6  -9560616.160 6  -9540260.18346  23629376.34846
        43.000          24.250  
  22894403.328 6      3462.736 6 -11819655.462 6  -9205529.21447  22894397.21147
        46.750          33.000  
 11  3 30 18 53 30.0000000  0 10G03G06G09G11G14G18G19G22G24G31      
  24831532.938 5     -2902.594 5   7989144.415 5   6215057.67446  24831530.74646
        42.000          20.500  
  24949471.453 4     -2807.057 4   7823544.787 4   6087932.97246  24949469.67246
        38.750          19.750  
  24124487.422 2     -3097.138 2   6310753.722 2   4919212.42146  24124482.18446
        35.500          20.000  
  22948100.844 6      2269.446 6  -9541512.139 6  -7402596.00647  22948094.14147
        44.500          27.250  
  20413155.695 7      -730.335 7   -697437.047 7   -516034.64248  20413146.41448
        48.750          40.250  
  22873874.523 6     -2232.994 6   5279833.153 6   4114715.27447  22873867.23447
        45.750          28.000  
  23402527.180 6     -2016.677 6   3293727.685 6   2579010.59947  23402519.71547
        44.250          30.000  
  20988655.016 7     -1133.838 7   1530775.842 7   1208921.11748  20988644.56348
        49.750          40.750  
  23620534.586 6      3099.477 6  -9607108.311 6  -9576487.81546  23620529.23046
        43.000          25.500  
  22884528.953 6      3459.298 6 -11871544.938 6  -9245962.50247  22884522.95347
        47.000          33.000  
 11  3 30 18 53 45.0000000  0 10G03G06G09G11G14G18G19G22G24G31      
  24839815.969 5     -2901.882 5   8032672.640 5   6248975.70346  24839814.48046
        42.000          19.250  
  24957481.047 4     -2806.037 4   7865635.346 4   6120730.72246  24957479.26646
        38.750          19.250  
  24133347.234 3     -3103.679 3   6357308.903 3   4955489.14046  24133341.29346
        36.000          21.500  
  22941643.070 6      2262.389 6  -9575447.967 6  -7429039.48547  22941636.36747
        44.250          28.000  
  20415258.305 7      -736.733 7   -686386.056 7   -507423.48548  20415249.43448
        48.500          41.000  
  22880257.594 6     -2235.949 6   5313372.381 6   4140849.68947  22880249.66047
        45.250          28.000  
  23408299.719 6     -2022.387 6   3324063.497 6   2602648.84747  23408292.37147
        45.000          30.500  
  20991903.211 7     -1137.995 7   1547845.767 7   1222222.34048  20991892.93448
        49.750          40.750  
  23611697.297 6      3096.057 6  -9653549.160 6  -9612675.46546  23611691.64846
        43.000          24.250  
  22874664.078 6      3455.878 6 -11923383.112 6  -9286355.80847  22874658.72347
        47.250          32.250  
 11  3 30 18 54  0.0000000  0 10G03G06G09G11G14G18G19G22G24G31      
  24848097.391 5     -2901.218 5   8076190.906 5   6282885.98046  24848095.25846
        41.250          19.500  
  24965487.672 3     -2805.061 3   7907711.264 3   6153517.09146  24965485.77346
        36.750          19.500  
  24142224.914 3     -3110.257 3   6403962.763 3   4991842.78646  24142218.44546
        36.750          19.500  
  22935205.898 6      2255.245 6  -9609276.645 6  -7455399.48347  22935198.60947
        44.500          28.500  
  20417379.617 7      -743.196 7   -675238.109 7   -498736.76848  20417371.03948
        48.250          40.750  
  22886648.430 6     -2238.966 6   5346956.873 6   4167019.38047  22886640.73047
        45.500          28.500  
  23414088.734 6     -2028.140 6   3354485.597 6   2626354.33147  23414080.97747
        44.500          30.750  
  20995163.648 7     -1142.221 7   1564979.081 7   1235572.95848  20995152.96148
        50.750          40.500  
  23602870.219 6      3092.558 6  -9699937.527 6  -9648822.23146  23602864.98046
        43.500          24.750  
  22864810.148 6      3452.362 6 -11975168.550 6  -9326707.99547  22864803.97347
        47.000          32.500  
 11  3 30 18 54 15.0000000  0 10G03G06G09G11G14G18G19G22G24G31      
  24856376.703 5     -2900.486 5   8119698.198 5   6316787.71546  24856374.16046
        42.000          19.500  
  24973491.203 3     -2804.020 3   7949771.566 3   6186291.26146  24973489.65646
        37.000          19.750  
  24151121.297 3     -3116.764 3   6450714.223 3   5028272.43246  24151115.23846
        35.750          19.500  
  22928789.023 6      2248.137 6  -9642998.703 6  -7481676.39147  22928781.73447
        43.000          28.000  
  20419519.281 7      -749.596 7   -663994.168 7   -489975.25848  20419510.64548
        48.000          41.000  
  22893047.344 6     -2241.940 6   5380585.977 6   4193223.84347  22893040.17247
        45.750          28.750  
  23419894.313 6     -2033.831 6   3384993.066 6   2650126.33047  23419886.43847
        44.000          30.250  
  20998435.766 7     -1146.401 7   1582175.093 7   1248972.43248  20998425.89848
        50.500          40.500  
  23594052.578 6      3089.081 6  -9746273.746 6  -9684928.33046  23594046.69546
        43.250          26.250  
  22854965.211 6      3448.867 6 -12026901.559 6  -9367019.35547  22854959.27047
        47.250          33.000  
 11  3 30 18 54 30.0000000  0 10G03G06G09G11G14G18G19G22G24G31      
  24864653.820 5     -2899.733 5   8163194.198 5   6350680.63346  24864651.51246
        41.500          21.250  
  24981492.625 3     -2802.955 3   7991815.891 3   6219053.03446  24981491.13746
        36.000          19.000  
  24160035.453 2     -3123.252 2   6497562.996 2   5064777.94946  24160030.33246
        35.000          19.750  
  22922391.906 6      2241.017 6  -9676613.959 6  -7507870.07147  22922384.67647
        42.500          28.500  
  20421677.734 7      -755.983 7   -652654.416 7   -481139.09548  20421668.21948
        48.500          40.750  
  22899455.469 6     -2244.926 6   5414259.868 6   4219463.19947  22899447.59447
        45.500          29.250  
  23425715.930 6     -2039.495 6   3415585.493 6   2673964.54947  23425708.58247
        44.000          30.500  
  21001720.430 7     -1150.584 7   1599433.860 7   1262420.80548  21001709.68448
        49.750          40.250  
  23585244.633 6      3085.583 6  -9792557.495 6  -9720993.57546  23585240.21546
        44.000          24.250  
  22845130.875 6      3445.354 6 -12078581.871 6  -9407289.64647  22845125.10947
        46.750          32.750  
 11  3 30 18 54 45.0000000  0 10G03G06G09G11G14G18G19G22G24G31      
  24872928.914 5     -2898.977 5   8206678.859 5   6384564.70846  24872927.25046
        41.500          20.750  
  24989490.328 3     -2801.904 3   8033844.452 3   6251802.48645  24989488.84045
        37.000          18.250  
  24168969.992 4     -3129.743 4   6544509.143 4   5101359.33746  24168963.99246
        37.500          20.500  
  22916016.008 6      2233.868 6  -9710121.986 6  -7533980.19747  22916008.25047
        42.500          28.000  
  20423853.070 7      -762.391 7   -641218.557 7   -472228.03048  20423844.43448
        48.000          40.250  
  22905871.898 6     -2247.922 6   5447978.695 6   4245737.56147  22905864.31647
        45.500          27.750  
  23431553.930 6     -2045.168 6   3446263.013 6   2697869.05347  23431546.52347
        43.500          29.500  
  21005016.484 7     -1154.801 7   1616755.873 7   1275918.46348  21005006.03148
        50.000          40.500  
  23576447.109 6      3082.038 6  -9838788.065 6  -9757017.35346  23576442.45746
        44.250          26.000  
  22835306.414 6      3441.777 6 -12130208.525 6  -9447518.12647  22835300.53147
        46.750          32.250  
 11  3 30 18 55  0.0000000  0 10G03G06G09G11G14G18G19G22G24G31      
  24881201.617 5     -2898.144 5   8250151.018 5   6418439.09646  24881199.36746
        41.250          20.750  
  24997484.258 3     -2800.773 3   8075856.049 3   6284538.71746  24997483.53146
        36.000          19.250  
  24177921.703 3     -3136.158 3   6591551.508 3   5138015.66346  24177915.76246
        36.250          20.750  
  22909659.852 6      2226.717 6  -9743522.748 6  -7560006.75747  22909652.73847
        43.750          29.000  
  20426047.586 7      -768.725 7   -629687.687 7   -463242.94148  20426039.12548
        48.000          41.000  
  22912297.117 6     -2250.867 6   5481741.693 6   4272046.34747  22912289.30147
        45.750          29.500  
  23437407.742 6     -2050.767 6   3477024.521 6   2721839.01447  23437400.33647
        44.000          30.250  
  21008324.703 7     -1158.955 7   1634140.193 7   1289464.66848  21008313.66448
        50.250          40.500  
  23567660.578 6      3078.525 6  -9884965.945 6  -9793000.09847  23567655.28147
        43.000          26.500  
  22825492.180 6      3438.234 6 -12181782.042 6  -9487705.20347  22825486.41447
        47.250          33.000  
 11  3 30 18 55 15.0000000  0 10G03G06G09G11G14G18G19G22G24G31      
  24889471.469 5     -2897.358 5   8293611.392 5   6452304.24946  24889469.57046
        40.750          20.500  
  25005475.844 2     -2799.673 2   8117851.140 2   6317262.10646  25005474.76646
        35.250          19.500  
  24186891.977 4     -3142.597 4   6638690.465 4   5174747.30146  24186885.80146
        37.750          19.250  
  22903324.289 6      2219.504 6  -9776815.312 6  -7585949.00147  22903316.76647
        45.000          29.000  
  20428260.039 7      -775.100 7   -618061.189 7   -454183.32648  20428250.99248
        48.750          41.000  
  22918730.281 6     -2253.869 6   5515549.722 6   4298390.22147  22918723.10947
        45.250          29.000  
  23443277.594 6     -2056.393 6   3507870.410 6   2745874.72447  23443269.60247
        44.000          30.000  
  21011644.813 7     -1163.161 7   1651587.601 7   1303060.04048  21011634.18448
        50.750          40.750  
  23558882.961 6      3074.934 6  -9931089.954 6  -9828940.85247  23558877.89847
        43.500          26.500  
  22815688.539 6      3434.606 6 -12233301.138 6  -9527849.87547  22815682.36347
        47.000          32.500  
 11  3 30 18 55 30.0000000  0 10G03G06G09G11G14G18G19G22G24G31      
  24897739.281 5     -2896.501 5   8337058.913 5   6486159.41746  24897737.50046
        41.000          20.250  
  25013463.805 2     -2798.513 2   8159828.836 2   6349971.95245  25013462.84445
        34.500          18.500  
  24195880.813 4     -3148.967 4   6685924.972 4   5211553.38646  24195874.93046
        39.000          19.500  
  22897009.078 6      2212.331 6  -9810000.272 6  -7611807.40247  22897001.90647
        44.500          29.000  
  20430490.281 7      -781.418 7   -606339.912 7   -445049.86448  20430481.93848
        49.500          41.000  
  22925172.820 6     -2256.823 6   5549402.061 6   4324768.63347  22925165.29747
        45.250          28.500  
  23449163.063 6     -2061.941 6   3538799.528 6   2769975.28147  23449155.59847
        44.250          31.250  
  21014976.977 7     -1167.339 7   1669097.680 7   1316704.23548  21014966.52348
        50.000          40.000  
  23550116.016 6      3071.375 6  -9977160.575 6  -9864839.99446  23550110.60246
        43.500          26.250  
  22805894.844 6      3431.011 6 -12284766.302 6  -9567952.51247  22805888.84447
        47.500          32.750  
 11  3 30 18 55 45.0000000  0 10G03G06G09G11G14G18G19G22G24G31      
  24906004.453 5     -2895.655 5   8380493.731 5   6520004.66246  24906002.78946
        40.500          19.750  
  25021448.344 2     -2797.352 2   8201789.122 2   6382668.16845  25021447.44145
        35.000          17.750  
  24204887.008 4     -3155.355 4   6733255.298 4   5248434.13046  24204881.47746
        38.250          19.250  
  22890715.250 6      2205.096 6  -9843076.717 6  -7637581.23547  22890708.02047
        43.000          28.500  
  20432738.969 7      -787.763 7   -594523.462 7   -435842.24448  20432730.33248
        47.750          41.000  
  22931622.828 6     -2259.821 6   5583299.382 6   4351182.08747  22931615.71547
        44.500          26.750  
  23455064.172 6     -2067.520 6   3569812.329 6   2794141.06647  23455056.82447
        44.500          31.000  
  21018320.727 7     -1171.556 7   1686671.025 7   1330397.73848  21018310.80148
        50.750          40.250  
  23541359.398 6      3067.753 6 -10023176.875 6  -9900696.82947  23541354.10247
        43.500          27.750  
  22796111.750 6      3427.340 6 -12336176.400 6  -9608012.24847  22796105.57447
        47.500          32.500  
 11  3 30 18 56  0.0000000  0 10G03G06G09G11G14G18G19G22G24G31      
  24914267.602 5     -2894.771 5   8423915.292 5   6553839.60846  24914266.11346
        39.750          21.000  
  25029430.742 2     -2796.183 2   8243731.861 2   6415350.80545  25029429.25445
        34.000          18.250  
  24213912.656 4     -3161.706 4   6780680.883 4   5285389.10346  24213906.24646
        37.500          20.000  
  22884441.977 6      2197.851 6  -9876044.486 6  -7663270.39047  22884434.10247
        44.000          28.000  
  20435005.828 7      -794.090 7   -582612.115 7   -426560.67648  20434996.89848
        48.750          41.250  
  22938082.063 6     -2262.804 6   5617241.440 6   4377630.40647  22938074.18847
        45.750          28.250  
  23460982.055 6     -2073.062 6   3600908.263 6   2818371.60847  23460974.76647
        45.000          30.250  
  21021677.258 7     -1175.755 7   1704307.347 7   1344140.30948  21021666.86348
        51.000          40.750  
  23532612.773 6      3064.130 6 -10069138.826 6  -9936511.30547  23532608.18047
        44.000          26.500  
  22786339.711 6      3423.654 6 -12387531.212 6  -9648028.91547  22786332.65647
        47.500          32.250  
 11  3 30 18 56 15.0000000  0 10G03G06G09G11G14G18G19G22G24G31      
  24922527.609 5     -2893.847 5   8467323.000 5   6587663.74646  24922526.00446
        39.750          21.500  
  25037409.969 2     -2794.956 2   8285656.206 2   6448019.01545  25037407.07445
        34.000          17.750  
  24222954.313 5     -3168.010 5   6828201.028 5   5322417.77446  24222948.95746
        40.000          20.000  
  22878188.672 6      2190.617 6  -9908903.744 6  -7688874.99147  22878181.50047
        43.250          28.500  
  20437290.406 7      -800.373 7   -570606.514 7   -417205.66048  20437281.59448
        48.750          41.250  
  22944549.234 6     -2265.760 6   5651227.845 6   4404113.28447  22944541.77047
        45.000          28.250  
  23466915.195 6     -2078.560 6   3632086.657 6   2842666.41547  23466907.49647
        45.000          30.000  
  21025045.172 7     -1179.940 7   1722006.452 7   1357931.80948  21025034.83648
        50.500          40.750  
  23523877.047 6      3060.505 6 -10115046.400 6  -9972283.40447  23523871.80947
        43.250          27.250  
  22776577.063 6      3419.968 6 -12438830.728 6  -9688002.48247  22776571.12147
        47.000          32.500  
 11  3 30 18 56 30.0000000  0 10G03G06G09G11G14G18G19G22G24G31      
  24930785.039 4     -2892.944 4   8510717.161 4   6621477.30146  24930783.55146
        38.500          21.000  
  25045383.289 1     -2793.753 1   8327562.501 1   6480673.22145  25045382.15245
        33.000          17.750  
  24232015.297 5     -3174.325 5   6875815.904 5   5359520.25246  24232009.82446
        39.750          20.000  
  22871956.586 6      2183.330 6  -9941653.693 6  -7714394.42047  22871949.35547
        43.250          28.750  
  20439593.008 7      -806.689 7   -558506.181 7   -407776.83448  20439584.48848
        48.000          40.750  
  22951024.984 6     -2268.759 6   5685259.233 6   4430631.20747  22951017.81347
        45.750          28.500  
  23472863.797 6     -2084.071 6   3663347.729 6   2867025.64447  23472856.09847
        45.500          30.500  
  21028425.273 7     -1184.166 7   1739768.949 7   1371772.69848  21028414.93848
        50.250          40.500  
  23515151.586 6      3056.825 6 -10160898.774 6 -10008012.50847  23515146.52347
        42.750          27.000  
  22766825.563 6      3416.216 6 -12490073.962 6  -9727932.20647  22766819.79747
        47.000          32.250  
 11  3 30 18 56 45.0000000  0 10G03G06G09G11G14G18G19G22G24G31      
  24939040.250 4     -2891.994 4   8554097.069 4   6655279.77546  24939038.76246
        38.000          21.250  
  25053353.875 1     -2792.497 1   8369449.951 1   6513312.71345  25053352.91445
        32.500          16.750  
  24241094.719 5     -3180.585 5   6923524.677 5   5396695.89446  24241088.54346
        40.750          20.250  
  22865745.359 6      2176.042 6  -9974294.322 6  -7739828.66647  22865738.07047
        43.500          27.750  
  20441913.422 7      -812.966 7   -546311.686 7   -398274.62448  20441904.72748
        48.250          40.500  
  22957509.133 6     -2271.725 6   5719335.115 6   4457183.79847  22957502.54747
        45.000          28.000  
  23478828.305 6     -2089.534 6   3694690.747 6   2891448.72547  23478820.31347
        45.500          29.250  
  21031817.422 7     -1188.365 7   1757594.419 7   1385662.66048  21031806.96948
        50.500          40.250  
  23506436.805 6      3053.150 6 -10206696.023 6 -10043698.64247  23506431.39147
        42.750          26.500  
  22757085.133 6      3412.466 6 -12541260.946 6  -9767818.08847  22757079.13347
        47.000          33.000  
 11  3 30 18 57  0.0000000  0 11G03G06G09G11G12G14G18G19G22G24G31   
  24947293.563 4     -2891.269 4   8597466.099 4   6689073.75446  24947291.43046
        38.000          20.500  
  25061321.906 1     -2791.471 1   8411322.023 1   6545940.23845  25061320.77045
        33.000          17.250  
  24250191.992 5     -3187.070 5   6971330.721 5   5433947.34546  24250185.64146
        40.500          20.000  
  22859555.883 6      2168.499 6 -10006821.803 6  -7765174.74047  22859548.59447
        44.000          28.000  
  25701844.14114      1639.21914   -836789.32314                
        38.750  
  20444252.852 7      -819.480 7   -534019.481 7   -388696.29348  20444244.09848
        48.500          40.500  
  22964003.586 6     -2274.958 6   5753459.482 6   4483774.17647  22963996.35547
        44.750          28.500  
  23484808.938 6     -2095.224 6   3726119.112 6   2915938.31147  23484801.59047
        45.000          29.750  
  21035222.102 7     -1192.814 7   1775486.627 7   1399604.62248  21035211.88348
        50.250          40.500  
  23497733.195 5      3049.203 5 -10252434.064 5 -10079338.64546  23497727.84046
        42.250          26.000  
  22747355.961 6      3408.446 6 -12592387.632 6  -9807656.98947  22747350.07847
        47.500          32.500  
 11  3 30 18 57 15.0000000  0 11G03G06G09G11G12G14G18G19G22G24G31   
  24955543.156 3     -2889.994 3   8640816.012 3   6722852.86546  24955540.90646
        37.250          21.250  
  25069285.086 1     -2789.904 1   8453170.579 1   6578549.42945  25069284.77045
        33.000          18.500  
  24259306.297 5     -3193.005 5   7019225.791 5   5471268.15046  24259300.06346
        40.000          20.000  
  22853386.047 6      2161.454 6 -10039243.608 6  -7790438.47247  22853378.69947
        43.750          27.750  
  25697171.828 5      1636.456 5   -861336.160 5                
        39.250  
  20446608.789 7      -825.456 7   -521637.635 7   -379048.09148  20446599.97748
        48.750          40.000  
  22970504.914 6     -2277.648 6   5787624.204 6   4510395.98747  22970496.98047
        44.000          28.000  
  23490804.219 6     -2100.373 6   3757624.700 6   2940488.07247  23490796.81347
        45.250          29.250  
  21038638.617 7     -1196.742 7   1793437.758 7   1413592.50248  21038628.10548
        50.500          39.750  
  23489039.164 6      3045.759 6 -10298120.449 6 -10114938.39947  23489033.92647
        42.750          27.000  
  22737637.109 6      3404.921 6 -12643461.440 6  -9847454.69647  22737630.46547
        47.250          32.000  
 11  3 30 18 57 30.0000000  0 11G03G06G09G11G12G14G18G19G22G24G31   
  24963788.672 4     -2888.953 4   8684150.314 4   6756619.78446  24963786.89146
        37.500          20.000  
  25077245.492 1     -2788.580 1   8494999.279 1   6611143.13945  25077244.00445
        33.250          18.250  
  24268437.102 5     -3199.183 5   7067213.532 5   5508661.16946  24268430.45746
        41.250          19.750  
  22847237.398 6      2154.128 6 -10071555.524 6  -7815616.57547  22847229.99247
        44.250          28.750  
  25692515.344 4      1631.108 4   -885802.781 4                
        38.500  
  20448982.867 7      -831.694 7   -509162.221 7   -369326.99348  20448973.93848
        48.250          40.750  
  22977014.844 6     -2280.619 6   5821833.494 6   4537052.53847  22977007.26247
        45.000          27.500  
  23496814.531 6     -2105.762 6   3789211.126 6   2965100.81947  23496807.47747
        45.000          30.000  
  21042066.086 7     -1200.940 7   1811451.863 7   1427629.45448  21042055.86748
        50.750          39.750  
  23480355.992 6      3042.026 6 -10343750.832 6 -10150494.51447  23480350.93047
        43.000          27.500  
  22727928.750 6      3401.109 6 -12694478.078 6  -9887207.85347  22727922.63347
        47.500          32.500  
 11  3 30 18 57 45.0000000  0 11G03G06G09G11G12G14G18G19G22G24G31   
  24972031.914 3     -2887.921 3   8727469.134 3   6790374.64646  24972030.42646
        35.750          20.250  
  25085200.680 1     -2787.269 1   8536808.313 1   6643721.52445  25085200.42245
        32.250          18.500  
  24277587.477 5     -3205.354 5   7115293.845 5   5546126.31946  24277580.89146
        41.000          20.000  
  22841109.391 6      2146.751 6 -10103756.782 6  -7840708.45447  22841101.98447
        44.000          28.500  
  25687875.836 5      1625.699 5   -910188.270 5                
        39.250  
  20451374.641 7      -837.941 7   -496593.113 7   -359532.88448  20451365.53548
        48.000          41.000  
  22983533.117 6     -2283.610 6   5856087.651 6   4563744.03747  22983525.53547
        44.250          28.000  
  23502841.234 6     -2111.153 6   3820878.413 6   2989776.58947  23502833.77047
        45.250          30.000  
  21045506.352 7     -1205.167 7   1829529.373 7   1441715.80748  21045495.72348
        50.000          40.250  
  23471683.695 6      3038.246 6 -10389324.525 6 -10186006.45147  23471678.34047
        42.750          26.500  
  22718232.016 7      3397.241 7 -12745436.689 7  -9926915.79047  22718225.25447
        47.750          32.000  
 11  3 30 18 58  0.0000000  0 11G03G06G09G11G12G14G18G19G22G24G31   
  24980272.125 3     -2886.861 3   8770772.052 3   6824117.09346  24980271.04746
        36.750          20.000  
  25093153.719 1     -2785.893 1   8578596.703 1   6676283.88745  25093152.81645
        33.500          18.500  
  24286754.398 5     -3211.485 5   7163466.114 5   5583663.15446  24286747.40246
        39.750          19.000  
  22835002.336 6      2139.390 6 -10135847.626 6  -7865714.28847  22834995.69147
        43.500          28.500  
  25683250.930 5      1620.300 5   -934492.764 5                
        41.000  
  20453784.266 7      -844.140 7   -483931.010 7   -349666.30948  20453775.21948
        48.000          41.250  
  22990060.047 6     -2286.578 6   5890386.319 6   4590470.22647  22990052.52347
        44.500          28.000  
  23508882.305 6     -2116.493 6   3852625.810 6   3014514.77447  23508874.95747
        45.250          30.000  
  21048959.047 7     -1209.364 7   1847669.828 7   1455851.20948  21048948.12548
        50.750          40.500  
  23463021.984 6      3034.476 6 -10434841.659 6 -10221474.31247  23463016.57047
        42.500          26.500  
  22708545.203 6      3393.368 6 -12796337.207 6  -9966578.46647  22708539.08647
        47.500          32.000  
 11  3 30 18 58 15.0000000  0 11G03G06G09G11G12G14G18G19G22G24G31   
  24988510.328 2     -2885.787 2   8814058.864 2   6857847.00446  24988508.43046
        35.250          19.500  
  25101101.945 2     -2784.533 2   8620364.701 2   6708830.30145  25101100.45745
        35.250          18.500  
  24295937.969 5     -3217.611 5   7211730.281 5   5621271.55946  24295932.14546
        39.750          20.000  
  22828916.570 6      2131.996 6 -10167827.569 6  -7890633.72147  22828909.92647
        43.000          28.500  
  25678640.461 5      1614.861 5   -958715.680 5   -723630.22056  25678635.63356
        40.500          21.000  
  20456211.234 7      -850.360 7   -471175.607 7   -339727.03548  20456202.48048
        47.750          40.250  
  22996595.375 6     -2289.566 6   5924729.802 6   4617231.33247  22996587.73447
        44.500          27.750  
  23514939.086 6     -2121.834 6   3884453.318 6   3039315.38547  23514931.62147
        45.750          29.500  
  21052422.211 7     -1213.593 7   1865873.724 7   1470036.04448  21052411.99248
        50.500          40.500  
  23454370.727 5      3030.660 5 -10480301.564 5 -10256897.57946  23454365.78146
        42.000          25.750  
  22698870.734 6      3389.453 6 -12847178.995 6 -10006195.38547  22698864.79347
        47.500          32.000  
 11  3 30 18 58 30.0000000  0 11G03G06G09G11G12G14G18G19G22G24G31   
  24996743.805 2     -2884.685 2   8857329.137 2   6891564.05346  24996742.43446
        34.750          19.000  
  25109045.734 3     -2783.137 3   8662111.759 3   6741360.42245  25109044.83245
        36.500          17.750  
  24305140.086 5     -3223.698 5   7260085.749 5   5658951.14446  24305133.67646
        41.000          20.250  
  22822852.516 6      2124.589 6 -10199696.406 6  -7915466.56347  22822845.34447
        44.000          28.250  
  25674047.164 5      1609.404 5   -982856.740 5   -742441.37246  25674041.34046
        40.000          20.500  
  20458656.641 7      -856.554 7   -458327.301 7   -329715.37548  20458647.65248
        48.000          40.500  
  23003138.703 6     -2292.529 6   5959117.743 6   4644027.09147  23003131.94147
        45.000          27.750  
  23521011.039 6     -2127.142 6   3916360.452 6   3064178.04247  23521003.22347
        44.500          30.500  
  21055898.523 7     -1217.811 7   1884140.881 7   1484270.18048  21055888.48048
        50.500          40.500  
  23445731.227 6      3026.836 6 -10525704.109 6 -10292276.15846  23445725.81346
        43.000          25.750  
  22689207.016 6      3385.528 6 -12897961.912 6 -10045766.42847  22689200.60547
        47.250          32.250  
 11  3 30 18 58 45.0000000  0 11G03G06G09G11G12G14G18G19G22G24G31   
  25004974.469 2     -2883.565 2   8900582.611 2   6925267.99546  25004973.33246
        35.250          20.250  
  25116986.453 3     -2781.730 3   8703837.708 3   6773874.08946  25116985.43446
        37.000          19.250  
  24314359.633 5     -3229.772 5   7308532.327 5   5696701.68546  24314353.45746
        41.750          19.500  
  22816809.641 6      2117.156 6 -10231453.750 6  -7940212.53647  22816801.76647
        43.250          27.500  
  25669469.391 5      1603.937 5  -1006915.792 5   -761188.56846  25669463.74246
        42.000          22.250  
  20461118.992 7      -862.742 7   -445386.170 7   -319631.37548  20461110.18048
        47.750          40.500  
  23009691.820 6     -2295.514 6   5993550.458 6   4670857.72747  23009683.88747
        44.750          27.500  
  23527097.945 6     -2132.437 6   3948347.005 6   3089102.57447  23527090.48047
        45.250          30.000  
  21059386.641 7     -1222.034 7   1902471.391 7   1498553.67948  21059376.12948
        50.000          40.250  
  23437101.820 6      3022.982 6 -10571048.836 6 -10327609.67646  23437097.28546
        43.000          25.750  
  22679554.688 6      3381.559 6 -12948685.300 6 -10085291.08647  22679548.10247
        47.000          32.250  
 11  3 30 18 59  0.0000000  0 11G03G06G09G11G12G14G18G19G22G24G31   
  25013201.633 3     -2882.399 3   8943818.592 3   6958958.28546  25013200.08646
        36.000          19.250  
  25124921.656 4     -2780.267 4   8745541.716 4   6806370.66746  25124921.28146
        37.750          20.250  
  24323595.336 5     -3235.789 5   7357069.158 5   5734522.60846  24323589.21946
        39.750          19.250  
  22810787.500 6      2109.739 6 -10263099.834 6  -7964871.81347  22810780.03547
        43.250          28.750  
  25664905.703 6      1598.470 6  -1030892.848 6   -779871.82646  25664900.23046
        42.500          22.000  
  20463599.141 7      -868.891 7   -432352.809 7   -309475.50548  20463590.56348
        48.500          40.500  
  23016252.375 6     -2298.490 6   6028027.810 6   4697723.14547  23016245.32047
        44.250          28.250  
  23533199.523 6     -2137.681 6   3980412.214 6   3114088.40247  23533192.11747
        44.000          30.000  
  21062886.992 7     -1226.229 7   1920864.823 7   1512886.20048  21062876.48048
        49.750          40.500  
  23428484.656 6      3019.138 6 -10616335.912 6 -10362898.29247  23428479.35947
        42.750          26.750  
  22669913.250 6      3377.599 6 -12999349.279 6 -10124769.44747  22669906.95747
        46.750          32.500  
 11  3 30 18 59 15.0000000  0 11G03G06G09G11G12G14G18G19G22G24G31   
  25021425.977 2     -2881.229 2   8987037.027 2   6992634.91546  25021424.89846
        34.250          19.250  
  25132854.727 4     -2778.818 4   8787223.986 4   6838850.30746  25132853.35546
        38.250          20.000  
  24332848.969 5     -3241.805 5   7405696.239 5   5772413.78946  24332842.96946
        41.750          20.000  
  22804786.414 6      2102.272 6 -10294633.921 6  -7989443.81747  22804779.18447
        43.500          28.250  
  25660358.789 6      1592.958 6  -1054787.221 6   -798490.71046  25660353.25846
        42.500          22.250  
  20466096.961 6      -875.056 6   -419226.969 6   -299247.58048  20466087.97348
        47.000          40.500  
  23022822.164 6     -2301.470 6   6062549.861 6   4724623.40647  23022814.34847
        44.500          28.000  
  23539316.570 6     -2142.934 6   4012556.227 6   3139135.64447  23539309.04747
        44.750          30.000  
  21066399.438 7     -1230.464 7   1939321.789 7   1527268.24548  21066388.57448
        50.250          40.500  
  23419877.781 6      3015.239 6 -10661564.491 6 -10398141.29047  23419872.54347
        43.500          27.000  
  22660283.625 6      3373.578 6 -13049952.945 6 -10164200.81947  22660277.39147
        46.500          32.500  
 11  3 30 18 59 30.0000000  0 11G03G06G09G11G12G14G18G19G22G24G31   
  25029648.141 2     -2880.032 2   9030237.514 2   7026297.55245  25029646.06645
        34.750          18.250  
  25140781.875 4     -2777.352 4   8828884.269 4   6871312.81746  25140780.73846
        38.250          20.500  
  24342119.766 5     -3247.798 5   7454413.208 5   5810375.06246  24342113.06346
        39.750          19.000  
  22798807.203 6      2094.797 6 -10326055.874 6  -8013928.44447  22798799.79747
        43.750          29.000  
  25655828.289 6      1587.431 6  -1078598.682 6   -817045.11146  25655822.40646
        43.000          22.750  
  20468612.539 7      -881.204 7   -406008.915 7   -288947.80648  20468603.66848
        48.500          40.250  
  23029399.719 6     -2304.443 6   6097116.507 6   4751558.40147  23029392.13747
        44.500          27.500  
  23545447.742 6     -2148.158 6   4044778.596 6   3164243.93247  23545440.92247
        45.000          30.000  
  21069923.133 7     -1234.696 7   1957842.226 7   1541699.73848  21069912.62148
        50.500          39.500  
  23411281.891 6      3011.329 6 -10706734.432 6 -10433338.60647  23411276.71147
        42.500          26.750  
  22650665.430 6      3369.539 6 -13100496.035 6 -10203584.99447  22650659.37147
        47.000          32.500  
 11  3 30 18 59 45.0000000  0 11G03G06G09G11G12G14G18G19G22G24G31   
  25037864.539 2     -2878.814 2   9073419.723 2   7059946.00046  25037863.46146
        34.750          19.000  
  25148705.492 5     -2775.840 5   8870521.864 5   6903757.61946  25148704.29746
        39.500          21.250  
  24351407.297 5     -3253.754 5   7503219.512 5   5848405.92746  24351400.82846
        40.750          20.000  
  22792849.070 6      2087.315 6 -10357365.594 6  -8038325.62347  22792841.48847
        44.500          28.000  
  25651312.148 6      1581.875 6  -1102326.813 6   -835534.54046  25651307.32046
        43.000          22.750  
  20471145.211 7      -887.329 7   -392698.977 7   -278576.41948  20471136.10548
        48.500          40.000  
  23035985.438 6     -2307.409 6   6131727.647 6   4778528.07047  23035978.03147
        43.750          27.000  
  23551594.672 6     -2153.339 6   4077078.680 6   3189412.76847  23551587.50047
        44.750          29.250  
  21073460.367 7     -1238.918 7   1976426.001 7   1556180.58948  21073449.21148
        50.750          40.000  
  23402698.180 6      3007.415 6 -10751845.656 6 -10468490.18947  23402693.05947
        43.000          26.500  
  22641059.289 6      3365.489 6 -13150978.365 6 -10242921.81547  22641052.99647
        47.500          33.250  
 11  3 30 19  0  0.0000000  0 11G03G06G09G11G12G14G18G19G22G24G31   
  25046077.914 1     -2877.571 1   9116583.283 1   7093579.83645  25046076.77745
        33.500          18.250  
  25156623.719 4     -2774.318 4   8912136.639 4   6936184.68846  25156623.34446
        39.000          20.500  
  24360711.367 5     -3259.683 5   7552114.760 5   5886506.08246  24360705.95346
        39.500          20.250  
  22786912.453 6      2079.812 6 -10388562.768 6  -8062635.09047  22786905.16447
        44.250          28.000  
  25646813.000 6      1576.294 6  -1125971.229 6   -853958.75446  25646807.82046
        43.000          24.750  
  20473695.047 7      -893.438 7   -379297.406 7   -268133.64148  20473686.29348
        48.750          40.750  
  23042580.531 6     -2310.369 6   6166383.178 6   4805532.33047  23042573.59447
        44.250          27.500  
  23557756.078 6     -2158.511 6   4109456.348 6   3214642.07547  23557748.96547
        45.250          29.750  
  21077008.438 7     -1243.140 7   1995073.104 7   1570710.78148  21076997.98448
        49.250          40.000  
  23394124.914 6      3003.477 6 -10796897.810 6 -10503595.72847  23394119.79347
        43.000          26.500  
  22631464.781 6      3361.411 6 -13201399.527 6 -10282210.97847  22631457.84447
        47.000          32.500  
 11  3 30 19  0 15.0000000  0 11G03G06G09G11G12G14G18G19G22G24G31   
  25054288.695 2     -2876.303 2   9159727.822 2   7127198.91146  25054287.03146
        34.500          19.000  
  25164538.250 5     -2772.774 5   8953728.242 5   6968593.68046  25164538.22746
        40.500          21.000  
  24370032.867 5     -3265.600 5   7601098.763 5   5924675.43446  24370027.10246
        39.500          20.750  
  22780997.367 6      2072.294 6 -10419647.180 6  -8086856.70047  22780989.84447
        43.500          29.250  
  25642329.453 5      1570.700 5  -1149531.733 5   -872317.53346  25642323.80546
        41.250          22.750  
  20476263.227 7      -899.544 7   -365804.241 7   -257619.48348  20476254.23848
        48.500          40.500  
  23049183.555 5     -2313.332 5   6201083.164 5   4832571.23947  23049176.50047
        42.000          27.000  
  23563932.078 6     -2163.657 6   4141911.205 6   3239931.52347  23563924.67247
        44.250          29.500  
  21080568.883 7     -1247.380 7   2013783.806 7   1585290.54448  21080558.72348
        49.750          40.250  
  23385562.602 6      2999.508 6 -10841890.423 6 -10538654.87247  23385557.42247
        43.000          27.500  
  22621881.031 6      3357.304 6 -13251759.083 6 -10321452.13647  22621874.73847
        46.750          32.500  
 11  3 30 19  0 30.0000000  0 11G03G06G09G11G12G14G18G19G22G24G31   
  25062495.266 2     -2875.031 2   9202853.280 2   7160803.09345  25062493.60245
        35.000          17.750  
  25172449.734 5     -2771.225 5   8995296.614 5   7000984.54846  25172449.12546
        40.250          21.250  
  24379370.484 5     -3271.494 5   7650171.166 5   5962913.62246  24379364.95346
        40.250          21.500  
  22775103.695 6      2064.742 6 -10450618.316 6  -8110990.02247  22775095.99647
        43.500          29.500  
  25637862.406 5      1565.071 5  -1173007.799 5   -890610.45546  25637856.87546
        41.500          21.500  
  20478848.234 7      -905.645 7   -352219.562 7   -247034.01948  20478838.95348
        47.750          40.000  
  23055795.922 6     -2316.312 6   6235827.843 6   4859644.96247  23055788.10547
        44.500          28.000  
  23570122.367 6     -2168.789 6   4174443.033 6   3265280.95247  23570115.66447
        43.750          30.250  
  21084141.656 7     -1251.618 7   2032558.080 7   1599919.83848  21084130.91048
        50.000          40.250  
  23377012.594 6      2995.512 6 -10886823.105 6 -10573667.32747  23377007.23847
        43.250          26.500  
  22612309.977 7      3353.156 7 -13302056.425 7 -10360644.81747  22612303.74247
        47.750          32.500  
