     2.11           OBSERVATION DATA    GPS(GPS)            RINEX VERSION / TYPE
cnvtToRINEX 2.11.0  Stan Thomas         31-Mar-11 19:15 UTC PGM / RUN BY / DATE 
----------------------------------------------------------- COMMENT             
MD2                                                         MARKER NAME         
MD2                                                         MARKER NUMBER       
Stan Thomas         University of Utah                      OBSERVER / AGENCY   
4644124574          NetRS               1.12                REC # / TYPE / VERS 
12532422            TRM41249.00                             ANT # / TYPE        
 -1926193.3559 -4539633.1974  4033940.7349                  APPROX POSITION XYZ 
        1.3520        0.0000        0.0000                  ANTENNA: DELTA H/E/N
     1     1     0                                          WAVELENGTH FACT L1/2
     7    C1    D1    L1    L2    P2    S1    S2            # / TYPES OF OBSERV 
  2011     3    29    20    55   45.0000000     GPS         TIME OF FIRST OBS   
  2011     3    29    23    59   45.0000000     GPS         TIME OF LAST OBS    
     0                                                      RCV CLOCK OFFS APPL 
    15                                                      LEAP SECONDS        
    16                                                      # OF SATELLITES     
   G03   179   179   174   166   166   179   166            PRN / # OF OBS      
   G04   408   408   403   370   370   408   370            PRN / # OF OBS      
   G06   181   181   177   176   176   181   176            PRN / # OF OBS      
   G07   223   223   223   222   222   223   222            PRN / # OF OBS      
   G10   108   108   106   100   100   108   100            PRN / # OF OBS      
   G11   444   444   443   426   426   444   426            PRN / # OF OBS      
   G13   525   525   522   517   517   525   517            PRN / # OF OBS      
   G14   382   382   379   360   360   382   360            PRN / # OF OBS      
   G16   729   729   726   718   718   729   718            PRN / # OF OBS      
   G20   737   737   737   737   737   737   737            PRN / # OF OBS      
   G22   186   186   185   182   182   186   182            PRN / # OF OBS      
   G23   737   737   737   737   737   737   737            PRN / # OF OBS      
   G24   621   621   618   596   596   621   596            PRN / # OF OBS      
   G25   359   359   356   354   354   359   354            PRN / # OF OBS      
   G30   737   737   737   737   737   737   737            PRN / # OF OBS      
   G31   737   737   737   737   737   737   737            PRN / # OF OBS      
CARRIER PHASE MEASUREMENTS: PHASE SHIFTS REMOVED            COMMENT             
                                                            END OF HEADER       
 11  3 29 20 55 45.0000000  0  9G11G14G20G22G23G24G25G30G31         
  22614679.61717     -1754.93817   -349966.49317   -272028.87357  22614673.38357
        47.750          33.000  
  22801723.78915     -2394.54715   -162586.08615   -133698.30757  22801716.09057
        42.000          28.500  
  22679192.42216      2991.67216  -1627559.36816  -1221125.47757  22679185.60257
        45.500          29.500  
  23881959.75015     -3056.00015    -21929.40615    -23230.54356  23881953.51656
        40.500          23.000  
  24122863.15616      2657.20316  -1530009.02016  -1147883.03256  24122857.03956
        43.500          26.250  
  21458504.88317      -420.48417   -719877.34917   -544245.48058  21458499.00058
        49.000          37.250  
  23885190.46116      -139.18816   -774631.74616   -600263.61956  23885186.80556
        43.000          25.000  
  24424506.37516      3428.96916  -1519949.32616  -1176484.63856  24424505.64856
        43.000          22.750  
  20383673.68017      -237.59417   -770041.25817   -580906.53259  20383664.63359
        51.000          43.000  
 11  3 29 20 56  0.0000000  0  9G11G14G20G22G23G24G25G30G31         
  22619700.836 6     -1759.144 6   -323579.340 6   -251467.48447  22619694.48447
        47.000          31.250  
  22808562.250 6     -2395.954 6   -126646.776 6   -105693.69247  22808554.49247
        43.500          26.500  
  22670658.688 6      2989.588 6  -1672403.190 6  -1256068.67747  22670651.86747
        44.500          28.500  
  23890689.945 5     -3058.535 5     23948.622 5     12518.46246  23890684.29746
        40.500          25.500  
  24115281.578 6      2655.622 6  -1569843.358 6  -1178922.67246  24115276.86746
        42.750          25.250  
  21459721.016 7      -425.995 7   -713487.422 7   -539266.33648  21459714.78148
        49.000          37.000  
  23885602.680 5      -144.600 5   -772462.750 5   -598573.48946  23885600.07846
        41.250          23.500  
  24414721.539 6      3428.337 6  -1571374.387 6  -1216555.93946  24414719.87546
        43.500          23.250  
  20384367.406 7      -243.102 7   -766394.725 7   -578065.06449  20384358.82849
        51.750          43.250  
 11  3 29 20 56 15.0000000  0  9G11G14G20G22G23G24G25G30G31         
  22624741.625 6     -1765.900 6   -297090.840 6   -230827.12147  22624735.21547
        47.250          31.500  
  22815405.016 6     -2397.254 6    -90687.959 6    -77673.86447  22815397.84447
        42.750          29.250  
  22662133.094 6      2986.821 6  -1717205.510 6  -1290979.53447  22662126.15647
        44.750          29.250  
  23899429.656 5     -3061.637 5     69873.181 5     48303.75147  23899423.18847
        42.000          27.250  
  24107705.875 5      2654.147 5  -1609655.561 5  -1209945.06346  24107700.57846
        42.000          25.250  
  21460963.813 7      -435.405 7   -706956.347 7   -534177.19848  21460957.46148
        48.000          36.750  
  23886041.531 6      -153.789 6   -770155.910 6   -596775.96046  23886038.46146
        42.500          23.750  
  24404934.789 6      3428.673 6  -1622804.483 6  -1256631.18846  24404933.00846
        43.750          24.000  
  20385088.914 7      -252.627 7   -762605.321 7   -575112.27549  20385080.16049
        51.750          43.500  
 11  3 29 20 56 30.0000000  0 10G11G14G16G20G22G23G24G25G30G31      
  22629801.570 6     -1772.582 6   -270502.104 6   -210108.65047  22629794.92647
        47.000          31.500  
  22822251.492 6     -2398.488 6    -54710.634 6    -49639.61547  22822243.79347
        43.250          28.750  
  25642892.17215      3244.71915   -299306.88515   -213467.71556  25642894.32056
        41.000          20.000  
  22653615.391 6      2984.093 6  -1761966.904 6  -1325858.50647  22653608.45347
        44.500          29.750  
  23908177.359 6     -3064.651 6    115842.948 6     84124.24146  23908171.12546
        42.500          26.000  
  24100133.461 5      2652.731 5  -1649446.529 5  -1240950.90846  24100128.45746
        42.000          25.250  
  21462233.648 7      -444.746 7   -700285.154 7   -528978.88548  21462227.23848
        49.500          37.250  
  23886506.641 6      -162.913 6   -767712.210 6   -594871.79446  23886502.86746
        43.500          22.500  
  24395146.227 6      3429.059 6  -1674240.374 6  -1296710.97946  24395144.68046
        43.750          22.750  
  20385836.641 7      -262.079 7   -758674.143 7   -572049.00149  20385828.35549
        52.000          43.750  
 11  3 29 20 56 45.0000000  0 10G11G14G16G20G22G23G24G25G30G31      
  22634880.211 6     -1779.205 6   -243814.022 6   -189312.77847  22634873.68447
        47.500          31.500  
  22829101.031 6     -2399.688 6    -18715.313 6    -21591.34947  22829093.80147
        42.750          28.500  
  25633627.320 1      3245.351 1   -347987.155 1   -251400.49546  25633629.58646
        33.500          19.750  
  22645105.484 6      2981.381 6  -1806687.626 6  -1360705.77247  22645098.78147
        45.500          30.500  
  23916934.008 6     -3067.641 6    161857.565 6    119979.69447  23916928.06647
        42.500          26.500  
  24092565.594 6      2651.339 6  -1689216.615 6  -1271940.50046  24092559.82846
        42.500          25.750  
  21463529.414 7      -454.054 7   -693474.341 7   -523671.77848  21463523.18048
        48.750          37.250  
  23886997.539 5      -172.009 5   -765132.078 5   -592861.29146  23886994.17646
        42.250          22.000  
  24385356.977 6      3429.456 6  -1725682.206 6  -1336795.36246  24385355.13746
        43.250          22.000  
  20386611.766 7      -271.499 7   -754601.658 7   -568875.62949  20386602.77749
        51.500          43.500  
 11  3 29 20 57  0.0000000  0 10G11G14G16G20G22G23G24G25G30G31      
  22639977.086 6     -1785.875 6   -217025.891 6   -168438.93947  22639970.85247
        47.500          31.500  
  22835954.633 6     -2400.959 6     17299.069 6      6471.77147  22835947.16847
        44.500          28.750  
  25624356.023 4      3248.438 4   -396713.722 4   -289368.98746  25624357.23446
        38.750          20.000  
  22636603.203 6      2978.579 6  -1851366.313 6  -1395520.28447  22636596.50047
        45.500          31.250  
  23925698.234 5     -3070.700 5    207918.064 5    155870.89646  23925693.05546
        41.750          26.250  
  24085002.453 6      2649.876 6  -1728964.751 6  -1302912.98447  24084996.10247
        42.500          26.500  
  21464852.172 7      -463.431 7   -686522.877 7   -518255.05848  21464846.11348
        48.750          37.000  
  23887515.219 5      -181.183 5   -762414.333 5   -590743.57046  23887511.38746
        41.750          23.000  
  24375567.453 6      3429.741 6  -1777128.328 6  -1376883.13546  24375565.14546
        43.000          22.750  
  20387413.875 7      -280.977 7   -750386.998 7   -565591.46849  20387405.12149
        51.750          43.500  
 11  3 29 20 57 15.0000000  0 10G11G14G16G20G22G23G24G25G30G31      
  22645094.117 7     -1792.474 7   -190138.776 7   -147487.96447  22645087.59047
        47.750          31.500  
  22842810.750 6     -2402.153 6     53331.365 6     34548.85247  22842803.98847
        43.750          28.000  
  25615074.672 1      3251.546 1   -445486.907 1   -327373.98345  25615076.58645
        31.000          17.250  
  22628108.719 6      2975.834 6  -1896003.817 6  -1430302.72347  22628101.84047
        44.750          30.750  
  23934473.023 6     -3073.672 6    254023.141 6    191796.84247  23934467.19947
        43.000          26.750  
  24077442.000 5      2648.478 5  -1768691.927 5  -1333869.12047  24077436.46947
        42.000          26.750  
  21466201.875 7      -472.733 7   -679431.886 7   -512729.62548  21466195.81648
        49.750          37.500  
  23888058.016 5      -190.290 5   -759559.980 5   -588519.39646  23888055.06346
        42.000          25.000  
  24365775.484 6      3430.081 6  -1828579.543 6  -1416974.85546  24365774.28946
        42.500          22.000  
  20388242.484 7      -290.380 7   -746031.292 7   -562197.40649  20388233.73049
        51.750          43.250  
 11  3 29 20 57 30.0000000  0 10G11G14G16G20G22G23G24G25G30G31      
  22650229.586 7     -1799.103 7   -163152.224 7   -126459.52247  22650222.82447
        47.750          31.750  
  22849671.563 6     -2403.399 6     89382.355 6     62640.50547  22849664.68447
        43.500          29.500  
  25605783.75012      3254.65312   -494305.91212   -365414.51255  25605786.19155
        35.500          15.500  
  22619622.680 6      2973.007 6  -1940598.918 6  -1465052.08547  22619615.68447
        43.750          29.000  
  23943255.211 5     -3076.707 5    300173.747 5    227758.21747  23943249.03547
        42.250          27.250  
  24069886.750 6      2647.022 6  -1808397.255 6  -1364808.22747  24069880.04747
        42.750          26.500  
  21467577.891 7      -482.086 7   -672200.592 7   -507094.85748  21467571.83248
        50.250          37.750  
  23888626.633 5      -199.461 5   -756568.066 5   -586188.03446  23888624.20746
        42.250          22.750  
  24355983.203 6      3430.339 6  -1880034.626 6  -1457069.59846  24355981.94946
        42.750          22.000  
  20389098.289 7      -299.820 7   -741533.989 7   -558693.00249  20389089.71149
        51.500          43.000  
 11  3 29 20 57 45.0000000  0 10G11G14G16G20G22G23G24G25G30G31      
  22655383.797 6     -1805.713 6   -136066.534 6   -105353.81447  22655377.03547
        47.250          31.500  
  22856535.641 6     -2404.646 6    125452.043 6     90746.72147  22856528.99647
        43.750          29.000  
  25596484.492 3      3257.605 3   -543169.984 3   -403490.20746  25596487.69546
        35.750          19.250  
  22611144.648 6      2970.159 6  -1985151.298 6  -1499768.19647  22611137.82847
        44.500          29.750  
  23952046.336 6     -3079.729 6    346369.688 6    263754.99547  23952040.86347
        43.000          27.750  
  24062334.727 5      2645.568 5  -1848080.768 5  -1395730.35646  24062329.13746
        41.250          25.750  
  21468980.461 7      -491.437 7   -664829.041 7   -501350.80848  21468974.57848
        50.000          38.500  
  23889222.242 5      -208.632 5   -753438.587 5   -583749.49146  23889219.75846
        40.500          22.500  
  24346191.891 6      3430.565 6  -1931493.104 6  -1497166.97446  24346189.23046
        43.000          22.250  
  20389980.984 7      -309.265 7   -736895.012 7   -555078.20849  20389972.58249
        50.500          43.250  
 11  3 29 20 58  0.0000000  0 10G11G14G16G20G22G23G24G25G30G31      
  22660556.352 6     -1812.255 6   -108882.708 6    -84171.64547  22660549.59047
        47.250          31.250  
  22863402.445 6     -2405.837 6    161539.597 6    118866.85247  22863395.50847
        43.000          27.500  
  25587176.883 1      3260.666 1   -592079.973 1   -441601.80345  25587180.49645
        33.500          16.250  
  22602674.992 6      2967.346 6  -2029661.487 6  -1534451.40847  22602667.64547
        44.750          30.250  
  23960845.500 6     -3082.687 6    392609.998 6    299786.29647  23960839.50047
        43.000          28.000  
  24054787.391 6      2644.161 6  -1887743.183 6  -1426636.05846  24054780.68846
        44.000          25.500  
  21470410.031 7      -500.736 7   -657318.007 7   -495498.06348  21470403.56348
        50.750          38.000  
  23889843.945 5      -217.769 5   -750172.057 5   -581204.13546  23889841.75446
        41.500          23.750  
  24336398.438 5      3430.812 5  -1982955.281 5  -1537267.23946  24336396.71546
        42.250          22.250  
  20390890.797 7      -318.662 7   -732115.075 7   -551353.56949  20390882.04349
        51.750          43.750  
 11  3 29 20 58 15.0000000  0 10G11G14G16G20G22G23G24G25G30G31      
  22665748.406 6     -1818.814 6    -81600.500 6    -62912.81747  22665741.99647
        47.000          31.500  
  22870273.188 6     -2407.067 6    197645.600 6    147001.37647  22870266.48447
        42.750          29.500  
  25577861.609 1      3263.666 1   -641034.963 1   -479748.43545  25577864.34445
        33.500          14.750  
  22594213.008 6      2964.472 6  -2074128.566 6  -1569101.03547  22594205.83647
        43.500          28.500  
  23969652.813 6     -3085.687 6    438895.305 6    335852.67447  23969647.80947
        42.750          27.500  
  24047244.055 6      2642.706 6  -1927383.766 6  -1457524.74946  24047237.11746
        42.500          26.250  
  21471865.750 7      -510.070 7   -649666.955 7   -489536.22248  21471859.98448
        50.000          38.250  
  23890492.367 5      -226.942 5   -746767.927 5   -578551.56646  23890489.41446
        42.000          22.750  
  24326606.211 5      3430.993 5  -2034420.180 5  -1577369.61846  24326602.84846
        41.250          22.000  
  20391827.320 7      -328.089 7   -727193.745 7   -547518.75549  20391818.62549
        51.000          43.000  
 11  3 29 20 58 30.0000000  0 10G11G14G16G20G22G23G24G25G30G31      
  22670958.641 6     -1825.351 6    -54220.229 6    -41577.56447  22670951.99647
        47.500          31.000  
  22877147.531 6     -2408.273 6    233769.688 6    175149.98247  22877140.59447
        43.000          28.750  
  25568537.078 2      3266.661 2   -690034.885 2                
        35.250  
  22585758.969 6      2961.597 6  -2118552.517 6  -1603717.06047  22585752.14847
        44.750          31.000  
  23978469.359 6     -3088.668 6    485225.325 6    371953.88347  23978464.00447
        42.500          27.000  
  24039704.773 6      2641.258 6  -1967002.635 6  -1488396.49947  24039698.18847
        42.500          27.250  
  21473348.180 7      -519.384 7   -641876.191 7   -483465.50348  21473342.64848
        50.250          37.500  
  23891165.852 5      -236.104 5   -743226.372 5   -575791.93146  23891163.54346
        41.750          24.000  
  24316811.391 5      3431.157 5  -2085887.540 5  -1617473.91546  24316808.96546
        42.000          22.500  
  20392790.852 7      -337.500 7   -722131.250 7   -543573.95449  20392781.98049
        51.250          43.500  
 11  3 29 20 58 45.0000000  0 10G11G14G16G20G22G23G24G25G30G31      
  22676187.508 6     -1831.877 6    -26742.069 6    -20166.04147  22676181.21547
        46.500          31.500  
  22884025.102 5     -2409.495 5    269912.121 5    203312.88147  22884018.34047
        41.500          28.250  
  25559205.258 2      3269.603 2   -739078.928 2                
        35.000  
  22577313.852 6      2958.683 6  -2162932.763 6  -1638299.02547  22577306.62147
        44.500          30.500  
  23987294.609 6     -3091.655 6    531600.147 6    408090.01147  23987289.02047
        42.500          27.500  
  24032169.609 6      2639.801 6  -2006599.643 6  -1519251.21347  24032163.37547
        43.250          27.250  
  21474857.555 7      -528.711 7   -633945.534 7   -477285.78348  21474851.32048
        50.250          37.500  
  23891865.891 6      -245.294 6   -739546.961 6   -572924.83446  23891863.05546
        42.500          24.500  
  24307016.422 5      3431.277 5  -2137356.701 5  -1657579.64146  24307014.34846
        40.500          21.500  
  20393781.023 7      -346.921 7   -716927.432 7   -539519.02049  20393772.15249
        51.000          43.750  
 11  3 29 20 59  0.0000000  0 10G11G14G16G20G22G23G24G25G30G31      
  22681435.016 6     -1838.360 6       833.329 6      1321.24847  22681428.37147
        46.750          32.000  
  22890906.164 6     -2410.679 6    306072.302 6    231489.62547  22890899.28547
        42.500          27.750  
  25549864.25011      3272.54411   -788167.43911                
        32.250  
  22568876.766 6      2955.792 6  -2207269.647 6  -1672847.19747  22568869.59447
        44.500          31.250  
  23996127.195 5     -3094.592 5    578019.033 5    444260.48046  23996122.19146
        41.750          26.000  
  24024638.648 6      2638.364 6  -2046175.105 6  -1550089.15647  24024632.41447
        43.000          26.500  
  21476393.250 7      -537.995 7   -625875.616 7   -470997.55548  21476387.25048
        50.000          37.500  
  23892592.578 6      -254.445 6   -735730.294 6   -569950.79246  23892589.39146
        43.750          24.000  
  24297221.273 5      3431.421 5  -2188828.013 5  -1697686.98646  24297219.72746
        39.750          20.250  
  20394797.844 7      -356.284 7   -711583.165 7   -535354.64449  20394789.20749
        50.750          43.500  
 11  3 29 20 59 15.0000000  0 10G11G14G16G20G22G23G24G25G30G31      
  22686700.688 6     -1844.822 6     28505.657 6     22884.07747  22686694.33647
        46.000          31.750  
  22897791.133 5     -2411.868 5    342250.324 5    259680.24847  22897783.78547
        42.000          28.750  
  25540514.883 3      3275.502 3   -837299.969 3                
        36.000  
  22560447.813 6      2952.875 6  -2251562.769 6  -1707361.27047  22560441.22747
        44.750          30.750  
  24004969.148 6     -3097.530 6    624481.979 6    480465.25747  24004963.14847
        42.750          26.500  
  24017110.945 6      2636.934 6  -2085729.121 6  -1580910.37947  24017105.53147
        42.500          27.000  
  21477955.305 7      -547.283 7   -617666.369 7   -464600.74848  21477949.42248
        50.250          37.250  
  23893345.438 6      -263.608 6   -731776.181 6   -566869.66746  23893341.66446
        42.750          25.250  
  24287426.180 4      3431.517 4  -2240300.775 4  -1737795.49146  24287423.98846
        38.500          19.750  
  20395841.523 7      -365.648 7   -706098.438 7   -531080.82649  20395832.65249
        50.000          44.000  
 11  3 29 20 59 30.0000000  0 10G11G14G16G20G22G23G24G25G30G31      
  22691985.383 6     -1851.459 6     56277.546 6     44524.47747  22691978.91447
        46.500          31.500  
  22904679.484 5     -2413.231 5    378448.794 5    287886.81847  22904672.48847
        42.000          28.250  
  25531156.12511      3279.96911                   -670998.37555  25531158.91855
        29.750          17.250  
  22552028.016 6      2949.750 6  -2295809.012 6  -1741838.82247  22552021.31347
        45.500          30.250  
  24013819.656 6     -3100.647 6    670991.681 6    516706.49346  24013813.71546
        43.000          25.500  
  24009589.633 6      2635.308 6  -2125258.746 6  -1611712.62147  24009582.40247
        43.000          26.500  
  21479544.250 7      -556.748 7   -609315.151 7   -458093.31548  21479538.48448
        50.500          37.500  
  23894124.281 6      -272.951 6   -727681.912 6   -563679.30746  23894121.56346
        43.500          25.250  
  24277632.211 5      3431.419 5  -2291772.059 5  -1777902.84546  24277629.31646
        40.250          20.250  
  20396912.570 7      -375.193 7   -700470.547 7   -526695.44449  20396904.05149
        50.250          43.750  
 11  3 29 20 59 45.0000000  0  9G11G14G20G22G23G24G25G30G31         
  22697288.195 6     -1857.711 6     84143.209 6     66237.96047  22697281.72747
        47.000          31.750  
  22911570.602 5     -2414.244 5    414662.451 5    316105.21747  22911563.31347
        41.750          28.000  
  22543616.391 6      2946.968 6  -2340013.528 6  -1776283.85647  22543609.10247
        45.000          30.750  
  24022677.922 5     -3103.403 5    717542.727 5    552979.94446  24022673.21146
        41.750          26.000  
  24002071.086 6      2634.038 6  -2164769.320 6  -1642500.00547  24002063.68047
        42.500          27.000  
  21481159.266 7      -565.859 7   -600827.262 7   -451479.38548  21481153.50048
        50.000          37.750  
  23894928.797 6      -281.954 6   -723452.598 6   -560383.73146  23894926.25446
        43.000          23.500  
  24267836.492 5      3431.644 5  -2343246.727 5  -1818012.88146  24267834.35946
        40.250          21.500  
  20398009.906 7      -384.375 7   -694704.923 7   -522202.74549  20398001.03549
        50.750          43.500  
 11  3 29 21  0  0.0000000  0  9G11G14G20G22G23G24G25G30G31         
  22702609.148 6     -1864.126 6    112105.092 6     88026.41047  22702603.14847
        46.500          31.500  
  22918464.750 5     -2415.440 5    450894.044 5    344337.59947  22918458.04747
        42.000          29.500  
  22535212.945 6      2943.974 6  -2384173.143 6  -1810693.90047  22535205.53947
        45.000          30.000  
  24031544.469 5     -3106.348 5    764137.943 5    589287.80447  24031539.40647
        42.000          27.750  
  23994556.008 6      2632.570 6  -2204257.865 6  -1673270.22746  23994549.77346
        43.250          26.000  
  21482801.344 7      -575.151 7   -592199.991 7   -444756.85248  21482795.10948
        50.000          37.500  
  23895759.953 6      -291.146 6   -719085.402 6   -556980.69946  23895757.35246
        43.250          24.500  
  24258041.234 5      3431.641 5  -2394721.340 5  -1858122.84946  24258038.28146
        40.000          22.000  
  20399133.586 7      -393.742 7   -688798.793 7   -517600.55549  20399125.12549
        50.000          43.250  
 11  3 29 21  0 15.0000000  0  9G11G14G20G22G23G24G25G30G31         
  22707948.109 6     -1870.518 6    140162.862 6    109889.57647  22707942.28547
        46.750          30.750  
  22925363.266 5     -2416.616 5    487143.279 5    372583.73147  22925356.68047
        41.500          28.000  
  22526818.273 6      2940.981 6  -2428287.859 6  -1845068.96347  22526810.92647
        44.500          30.250  
  24040420.172 5     -3109.262 5    810776.870 5    625629.73946  24040414.69946
        42.250          26.250  
  23987045.492 6      2631.119 6  -2243724.647 6  -1704023.47147  23987039.78547
        43.000          27.000  
  21484469.594 7      -584.418 7   -583433.729 7   -437926.01348  21484463.35948
        50.250          37.250  
  23896617.742 6      -300.325 6   -714580.531 6   -553470.39446  23896614.43846
        43.750          25.000  
  24248245.492 4      3431.631 4  -2446195.801 4  -1898232.68246  24248243.12546
        38.250          22.000  
  20400284.234 7      -403.077 7   -682752.642 7   -512889.25649  20400275.65649
        50.000          43.250  
 11  3 29 21  0 30.0000000  0  9G11G14G20G22G23G24G25G30G31         
  22713305.750 6     -1876.867 6    168315.862 6    131826.94647  22713299.45747
        46.250          30.750  
  22932264.430 5     -2417.764 5    523409.736 5    400843.26847  22932257.90247
        41.500          28.000  
  22518432.156 6      2937.996 6  -2472357.801 6  -1879409.12547  22518424.86747
        44.750          29.750  
  24049303.703 5     -3112.145 5    857459.043 5    662005.33646  24049298.11346
        42.250          25.500  
  23979539.438 5      2629.693 5  -2283170.045 5  -1734760.06847  23979533.26247
        41.500          26.500  
  21486163.789 7      -593.653 7   -574528.934 7   -430987.22348  21486157.90648
        50.500          37.750  
  23897500.188 6      -309.481 6   -709938.315 6   -549853.04446  23897497.87946
        43.250          25.750  
  24238449.336 5      3431.618 5  -2497670.077 5  -1938342.35746  24238447.55546
        39.500          21.500  
  20401461.414 7      -412.382 7   -676566.910 7   -508069.20149  20401452.36749
        50.500          43.500  
 11  3 29 21  0 45.0000000  0  9G11G14G20G22G23G24G25G30G31         
  22718681.008 6     -1883.208 6    196563.988 6    153838.43947  22718674.83247
        46.500          30.750  
  22939169.031 5     -2418.913 5    559693.432 5    429116.25647  22939161.74247
        41.500          28.250  
  22510054.539 6      2934.971 6  -2516382.371 6  -1913713.95347  22510047.30947
        45.250          30.250  
  24058196.008 6     -3115.036 6    904184.588 6    698414.77446  24058190.00846
        42.500          26.000  
  23972036.414 5      2628.241 5  -2322593.662 5  -1765479.68746  23972031.46946
        41.750          26.000  
  21487885.188 7      -602.898 7   -565485.461 7   -423940.37448  21487879.01248
        50.250          37.250  
  23898410.242 6      -318.654 6   -705158.510 6   -546128.51346  23898407.64146
        43.000          25.000  
  24228654.406 4      3431.564 4  -2549143.543 4  -1978451.45146  24228652.62546
        38.250          21.000  
  20402664.969 7      -421.686 7   -670241.623 7   -503140.39549  20402655.80549
        50.000          43.500  
 11  3 29 21  1  0.0000000  0 10G11G14G16G20G22G23G24G25G30G31      
  22724075.586 6     -1889.574 6    224907.597 6    175924.33447  22724068.82447
        47.000          31.500  
  22946077.156 5     -2420.110 5    595995.076 5    457403.20847  22946070.21947
        42.000          26.750  
  25474837.21112      3296.93812                                
        35.000  
  22501685.438 6      2931.888 6  -2560360.684 6  -1947982.73447  22501678.44147
        44.750          29.750  
  24067095.633 6     -3117.965 6    950954.069 6    734858.40346  24067089.63346
        42.500          25.500  
  23964539.039 6      2626.748 6  -2361994.888 6  -1796181.88046  23964532.62946
        43.000          25.000  
  21489632.352 7      -612.182 7   -556302.726 7   -416785.00848  21489626.70348
        51.000          37.500  
  23899345.953 6      -327.875 6   -700240.389 6   -542296.18947  23899343.05947
        43.250          26.500  
  24218860.117 5      3431.448 5  -2600615.264 5  -2018559.15546  24218858.21946
        41.500          22.500  
  20403895.094 7      -431.047 7   -663775.919 7   -498102.17849  20403886.51649
        50.500          43.500  
 11  3 29 21  1 15.0000000  0 10G11G14G16G20G22G23G24G25G30G31      
  22729486.094 6     -1895.659 6    253342.479 6    198081.35047  22729479.44947
        46.500          31.000  
  22952987.367 6     -2421.041 6    632310.697 6    485701.07447  22952980.84047
        42.500          28.000  
  25465421.703 1      3300.094 1    522411.119 1                
        32.250  
  22493324.586 6      2929.052 6  -2604296.462 6  -1982218.35847  22493317.35547
        45.000          29.250  
  24076003.203 5     -3120.613 5    997763.261 5    771333.01746  24075997.61346
        42.000          24.750  
  23957045.047 5      2625.520 5  -2401377.685 5  -1826869.70946  23957038.28546
        42.000          24.500  
  21491405.844 7      -621.201 7   -546984.715 7   -409524.23748  21491399.66848
        50.000          38.000  
  23900307.523 5      -336.835 5   -695187.863 5   -538359.12746  23900304.45346
        42.000          24.500  
  24209065.328 5      3431.564 5  -2652088.727 5  -2058668.23046  24209062.66846
        41.000          22.500  
  20405151.477 7      -440.123 7   -657174.072 7   -492957.87649  20405142.89849
        50.000          43.000  
 11  3 29 21  1 30.0000000  0 10G11G14G16G20G22G23G24G25G30G31      
  22734915.703 6     -1902.337 6    281877.534 6    220316.44047  22734909.64547
        46.000          30.750  
  22959902.359 5     -2422.587 5    668649.499 5    514017.00347  22959896.18447
        40.750          28.500  
  25456001.07011      3302.84411                                
        30.250  
  22484973.820 6      2925.578 6  -2648180.132 6  -2016413.37447  22484967.05947
        45.250          30.250  
  24084919.992 5     -3123.879 5   1044621.450 5    807845.78246  24084914.10946
        42.000          24.000  
  23949556.008 6      2623.675 6  -2440732.811 6  -1857535.96146  23949549.83246
        43.500          26.000  
  21493206.273 7      -630.830 7   -537522.265 7   -402150.90548  21493200.27348
        50.000          37.500  
  23901296.273 6      -346.412 6   -689991.679 6   -534310.12546  23901293.67246
        42.750          25.250  
  24199272.039 5      3431.039 5  -2703554.312 5  -2098771.17546  24199269.20346
        42.000          22.750  
  20406435.133 7      -449.800 7   -650427.078 7   -487700.46649  20406426.73049
        48.250          43.250  
 11  3 29 21  1 45.0000000  0 10G11G14G16G20G22G23G24G25G30G31      
  22740363.391 6     -1908.238 6    310501.102 6    242620.48247  22740356.45347
        46.500          31.000  
  22966819.977 5     -2423.368 5    705000.017 5    542342.04547  22966812.74647
        42.000          26.500  
  25446567.594 2      3305.219 2    423341.797 2                
        34.750  
  22476631.164 6      2922.846 6  -2692022.817 6  -2050576.47147  22476623.75847
        45.750          30.750  
  24093843.328 5     -3126.377 5   1091517.109 5    844387.74346  24093838.14846
        40.500          23.750  
  23942070.430 6      2622.576 6  -2480071.448 6  -1888189.36446  23942063.96146
        44.000          25.750  
  21495032.148 7      -639.699 7   -527926.775 7   -394673.91648  21495026.32448
        49.750          37.250  
  23902309.836 6      -355.240 6   -684663.073 6   -530157.95846  23902307.46946
        43.000          24.000  
  24189477.180 5      3431.237 5  -2755022.865 5  -2138876.41346  24189474.93046
        41.750          22.000  
  20407744.883 7      -458.725 7   -643546.208 7   -482338.73549  20407736.01249
        49.000          43.500  
 11  3 29 21  2  0.0000000  0 10G11G14G16G20G22G23G24G25G30G31      
  22745827.766 6     -1914.635 6    339220.629 6    264999.31347  22745821.64847
        46.000          30.750  
  22973740.766 5     -2424.652 5    741369.802 5    570682.10647  22973734.00447
        42.000          27.500  
  25437132.867 3      3306.388 3    373745.972 3                
        36.500  
  22468297.156 6      2919.571 6  -2735816.386 6  -2084701.27947  22468289.86747
        45.500          31.500  
  24102776.406 5     -3129.383 5   1138457.858 5    880964.85946  24102771.16846
        42.000          25.000  
  23934588.648 6      2620.963 6  -2519385.887 6  -1918823.91846  23934582.23846
        43.750          25.250  
  21496884.984 7      -649.071 7   -518190.708 7   -387087.38648  21496878.75048
        50.000          37.250  
  23903350.563 5      -364.581 5   -679194.356 5   -525896.60546  23903347.66846
        42.250          25.750  
  24179683.656 5      3430.895 5  -2806486.284 5  -2178977.66446  24179681.11346
        42.250          21.500  
  20409080.797 7      -468.154 7   -636523.895 7   -476866.79549  20409072.16049
        49.000          43.500  
 11  3 29 21  2 15.0000000  0 10G11G14G16G20G22G23G24G25G30G31      
  22751311.164 6     -1920.875 6    368033.755 6    287451.06447  22751305.04747
        45.500          31.250  
  22980665.211 5     -2425.806 5    777756.885 5    599035.65847  22980658.74247
        41.500          26.750  
  25427684.617 1      3309.074 1    324109.867 1                
        33.250  
  22459972.602 6      2916.423 6  -2779562.725 6  -2118789.29747  22459965.43047
        45.500          30.500  
  24111717.273 5     -3132.244 5   1185441.517 5    917575.40946  24111712.09446
        40.500          24.250  
  23927111.570 6      2619.487 6  -2558678.196 6  -1949441.22446  23927105.39546
        44.000          25.750  
  21498764.328 7      -658.294 7   -508316.305 7   -379393.05348  21498758.09448
        50.000          37.250  
  23904417.641 5      -373.783 5   -673587.615 5   -521527.68046  23904414.68846
        42.250          24.000  
  24169891.750 5      3430.672 5  -2857946.365 5  -2219076.32246  24169888.50446
        42.000          22.750  
  20410443.969 7      -477.427 7   -629362.488 7   -471286.47049  20410435.44949
        50.750          43.500  
 11  3 29 21  2 30.0000000  0 10G11G14G16G20G22G23G24G25G30G31      
  22756812.117 6     -1927.107 6    396940.353 6    309975.65747  22756805.88347
        45.750          31.500  
  22987592.805 6     -2426.955 6    814161.206 6    627402.62647  22987585.45747
        42.750          27.250  
  25418233.078 4      3311.709 4    274434.226 4   -732668.98455  25418233.81655
        37.500          16.750  
  22451656.805 6      2913.265 6  -2823261.705 6  -2152840.41247  22451650.21947
        45.250          30.000  
  24120666.625 5     -3135.092 5   1232467.903 5    954219.23746  24120660.62546
        41.500          23.750  
  23919638.156 6      2618.011 6  -2597948.356 6  -1980041.27546  23919632.50846
        43.500          25.750  
  21500669.258 7      -667.512 7   -498303.630 7   -371590.98448  21500663.55148
        50.250          37.500  
  23905510.742 6      -382.988 6   -667842.791 6   -517051.19646  23905508.14146
        42.750          24.250  
  24160099.547 5      3430.423 5  -2909402.705 5  -2259172.07646  24160096.94546
        41.500          22.250  
  20411833.070 7      -486.697 7   -622062.026 7   -465597.79349  20411823.96549
        51.000          43.750  
 11  3 29 21  2 45.0000000  0 10G11G14G16G20G22G23G24G25G30G31      
  22762330.359 6     -1933.239 6    425938.937 6    332571.92847  22762324.00847
        45.750          30.500  
  22994523.039 5     -2428.039 5    850581.791 5    655782.27147  22994516.57047
        42.250          27.250  
  25408772.000 2      3314.402 2    224718.193 2   -771408.49745  25408772.68045
        35.500          13.750  
  22443349.992 6      2910.149 6  -2866913.945 6  -2186855.11447  22443342.82047
        46.000          31.250  
  24129622.680 5     -3137.868 5   1279535.919 5    990895.48246  24129617.50046
        40.750          22.750  
  23912169.492 6      2616.582 6  -2637197.089 6  -2010624.63346  23912163.49246
        44.000          25.750  
  21502600.766 7      -676.659 7   -488153.738 7   -363681.99248  21502594.70748
        50.000          37.000  
  23906630.742 6      -392.132 6   -661960.810 6   -512467.81846  23906627.14546
        42.750          25.000  
  24150308.164 5      3430.205 5  -2960855.776 5  -2299265.25646  24150305.79746
        41.500          23.000  
  20413248.461 7      -495.896 7   -614623.591 7   -459801.60149  20413239.76649
        51.500          43.500  
 11  3 29 21  3  0.0000000  0 10G11G14G16G20G22G23G24G25G30G31      
  22767865.844 6     -1939.413 6    455030.136 6    355240.36047  22767859.49247
        45.000          30.500  
  23001457.133 6     -2429.180 6    887019.491 6    684175.26647  23001450.37147
        43.000          27.750  
  25399303.438 2      3317.007 2    174963.093 2   -810180.08945  25399304.59045
        34.250          13.750  
  22435052.148 6      2906.949 6  -2910518.183 6  -2220832.39347  22435045.21147
        45.000          31.500  
  24138587.297 5     -3140.700 5   1326646.417 5   1027604.87746  24138582.76246
        40.250          22.500  
  23904705.641 6      2615.105 6  -2676423.667 6  -2041190.72747  23904699.23047
        44.000          27.000  
  21504558.484 7      -685.869 7   -477865.697 7   -355665.34648  21504552.54348
        50.250          37.250  
  23907776.344 6      -401.342 6   -655940.683 6   -507776.79246  23907772.86346
        43.250          24.000  
  24140517.734 5      3429.892 5  -3012304.150 5  -2339354.78347  24140515.71947
        40.500          26.500  
  20414690.273 7      -505.146 7   -607046.404 7   -453897.28749  20414681.75449
        50.500          43.000  
 11  3 29 21  3 15.0000000  0 10G11G14G16G20G22G23G24G25G30G31      
  22773420.063 6     -1945.563 6    484213.576 6    377980.67847  22773413.59447
        46.250          30.500  
  23008393.992 6     -2430.311 6    923474.150 6    712581.46347  23008387.81647
        43.000          27.750  
  25389828.633 4      3319.593 4    125169.198 4   -848989.38945  25389830.25445
        38.500          14.750  
  22426763.508 6      2903.738 6  -2954074.247 6  -2254772.14947  22426756.68847
        45.750          31.250  
  24147559.648 5     -3143.518 5   1373799.191 5   1064347.17446  24147555.34846
        39.750          21.750  
  23897245.000 6      2613.639 6  -2715628.247 6  -2071739.67647  23897238.82447
        43.500          27.000  
  21506542.461 7      -695.065 7   -467439.715 7   -347541.21248  21506536.34448
        50.500          37.250  
  23908948.547 6      -410.541 6   -649782.561 6   -502978.23446  23908944.24646
        43.750          24.000  
  24130728.609 5      3429.572 5  -3063747.728 5  -2379440.58346  24130726.24246
        41.500          23.750  
  20416158.766 7      -514.375 7   -599330.781 7   -447885.10349  20416149.89549
        51.250          43.500  
 11  3 29 21  3 30.0000000  0 10G11G14G16G20G22G23G24G25G30G31      
  22778990.625 6     -1951.649 6    513488.316 6    400792.13447  22778984.27347
        45.250          29.500  
  23015334.461 6     -2431.391 6    959945.016 6    741000.29847  23015328.05147
        43.000          27.750  
  25380345.914 2      3322.195 2     75336.270 2   -887827.84745  25380346.83245
        35.500          16.250  
  22418484.438 6      2900.536 6  -2997582.294 6  -2288674.48547  22418477.20747
        46.250          31.500  
  24156540.500 5     -3146.295 5   1420993.610 5   1101121.95646  24156535.67246
        39.750          22.500  
  23889788.813 6      2612.201 6  -2754811.263 6  -2102271.82746  23889781.87546
        43.250          24.500  
  21508552.773 7      -704.211 7   -456876.551 7   -339310.19548  21508546.42248
        50.000          37.500  
  23910146.414 6      -419.708 6   -643486.948 6   -498072.55546  23910142.28946
        43.500          24.750  
  24120940.313 5      3429.254 5  -3115186.543 5  -2419522.66746  24120937.59446
        40.250          24.250  
  20417653.297 7      -523.559 7   -591477.393 7   -441765.57049  20417644.48449
        51.500          44.000  
 11  3 29 21  3 45.0000000  0 10G11G14G16G20G22G23G24G25G30G31      
  22784578.516 6     -1957.766 6    542854.813 6    423675.07647  22784572.39847
        45.750          30.000  
  23022277.773 6     -2432.518 6    996432.788 6    769432.28847  23022270.89547
        43.500          27.250  
  25370855.453 4      3324.739 4     25465.188 4   -926697.22044  25370856.54744
        37.500          12.500  
  22410214.523 6      2897.282 6  -3041041.525 6  -2322538.78347  22410207.11747
        46.000          31.000  
  24165530.891 5     -3149.106 5   1468230.203 5   1137929.57246  24165525.71146
        41.000          22.000  
  23882335.813 6      2610.719 6  -2793972.046 6  -2132786.64046  23882329.93046
        43.000          25.500  
  21510588.883 7      -713.396 7   -446175.614 7   -330971.80848  21510583.05948
        50.250          37.750  
  23911370.094 6      -428.918 6   -637053.175 6   -493059.22546  23911366.96546
        43.500          26.000  
  24111152.984 5      3428.873 5  -3166619.645 5  -2459600.31146  24111149.68046
        41.250          24.500  
  20419173.789 7      -532.784 7   -583485.639 7   -435538.22349  20419165.03549
        51.500          43.500  
 11  3 29 21  4  0.0000000  0 10G11G14G16G20G22G23G24G25G30G31      
  22790184.313 6     -1963.834 6    572312.324 6    446628.94347  22790177.78547
        45.500          31.250  
  23029224.109 6     -2433.603 6   1032936.833 6    797876.96947  23029218.10947
        43.500          27.250  
  25361357.445 5      3327.281 5    -24444.031 5   -965601.82845  25361358.24245
        40.000          16.250  
  22401954.000 6      2894.044 6  -3084452.180 6  -2356365.22747  22401946.65247
        45.500          32.000  
  24174526.484 5     -3151.879 5   1515508.393 5   1174769.62146  24174521.94946
        40.250          21.000  
  23874888.648 6      2609.255 6  -2833110.864 6  -2163284.34847  23874881.88747
        42.750          26.500  
  21512651.344 7      -722.543 7   -435337.471 7   -322526.51648  21512645.22748
        50.750          37.500  
  23912620.625 6      -438.099 6   -630481.697 6   -487938.58046  23912617.78946
        43.250          25.000  
  24101366.195 5      3428.496 5  -3218047.078 5  -2499673.54646  24101363.77046
        40.250          24.750  
  20420720.930 7      -541.965 7   -575356.167 7   -429203.55749  20420712.17649
        50.250          43.250  
 11  3 29 21  4 15.0000000  0 10G11G14G16G20G22G23G24G25G30G31      
  22795807.227 6     -1969.893 6    601860.715 6    469653.63547  22795800.81647
        45.250          30.750  
  23036173.859 6     -2434.707 6   1069457.437 6    826334.56047  23036167.74247
        43.000          26.500  
  25351850.820 1      3329.792 1    -74390.908 1  -1004538.29145  25351853.96545
        30.500          16.250  
  22393702.453 6      2890.788 6  -3127814.000 6  -2390153.63147  22393694.98847
        46.000          30.750  
  24183532.523 5     -3154.648 5   1562828.112 5   1211642.03046  24183526.64146
        41.000          21.750  
  23867444.656 6      2607.790 6  -2872227.720 6  -2193764.91446  23867438.07046
        43.750          25.500  
  21514740.008 7      -731.697 7   -424362.011 7   -313974.22048  21514733.94948
        50.000          37.750  
  23913897.570 6      -447.294 6   -623772.284 6   -482710.46546  23913895.02746
        44.000          24.750  
  24091580.805 5      3428.076 5  -3269468.218 5  -2539741.86946  24091578.43846
        40.000          26.000  
  20422294.039 7      -551.140 7   -567089.065 7   -422761.65149  20422285.34449
        50.500          43.500  
 11  3 29 21  4 30.0000000  0 10G11G14G16G20G22G23G24G25G30G31      
  22801447.109 6     -1975.909 6    631499.348 6    492748.63547  22801441.16847
        45.000          30.500  
  23043127.016 6     -2435.779 6   1105994.126 6    854804.67947  23043120.19547
        43.250          27.500  
  25342341.500 4      3332.314 4   -124375.625 4  -1043508.95645  25342341.71145
        38.750          13.750  
  22385460.156 6      2887.518 6  -3171126.771 6  -2423903.80447  22385452.80947
        45.750          31.250  
  24192544.406 5     -3157.384 5   1610188.876 5   1248546.40746  24192539.57846
        41.250          22.250  
  23860005.508 6      2606.343 6  -2911322.870 6  -2224228.57846  23859998.57046
        43.000          26.000  
  21516854.930 7      -740.815 7   -413249.790 7   -305315.36248  21516848.75448
        50.250          37.250  
  23915200.664 6      -456.462 6   -616925.352 6   -477375.19846  23915197.94546
        43.500          25.500  
  24081797.359 5      3427.660 5  -3320883.123 5  -2579805.34446  24081794.34846
        41.000          25.000  
  20423893.203 7      -560.289 7   -558684.730 7   -416212.81649  20423884.56649
        50.250          43.500  
 11  3 29 21  4 45.0000000  0 10G11G14G16G20G22G23G24G25G30G31      
  22807104.852 6     -1981.944 6    661228.504 6    515914.18447  22807097.97347
        45.250          30.750  
  23050083.148 6     -2436.889 6   1142547.464 6    883287.76847  23050076.09447
        43.000          27.500  
  25332821.367 4      3334.764 4   -174397.084 4  -1082505.22445  25332822.81345
        37.750          16.750  
  22377227.820 6      2884.187 6  -3214389.581 6  -2457615.04247  22377220.29747
        46.500          30.750  
  24201565.172 5     -3160.153 5   1657591.164 5   1285483.16246  24201559.52346
        41.500          22.000  
  23852569.250 6      2604.855 6  -2950395.687 6  -2254674.85746  23852562.84046
        43.750          26.250  
  21518995.383 7      -749.964 7   -402000.336 7   -296549.56448  21518989.73448
        50.000          37.250  
  23916529.523 6      -465.673 6   -609940.257 6   -471932.26646  23916526.16046
        43.500          24.500  
  24072014.234 5      3427.174 5  -3372290.728 5  -2619863.11446  24072011.69146
        41.000          24.750  
  20425518.805 7      -569.461 7   -550142.822 7   -409556.77349  20425509.99249
        50.000          43.500  
 11  3 29 21  5  0.0000000  0 10G11G14G16G20G22G23G24G25G30G31      
  22812778.656 6     -1987.929 6    691047.431 6    539149.68747  22812772.30547
        44.500          30.750  
  23057041.688 6     -2437.967 6   1179116.965 6    911783.45647  23057035.45347
        43.750          27.750  
  25323295.555 3      3337.223 3   -224455.426 3  -1121531.15545  25323297.35245
        37.250          16.250  
  22369004.156 6      2880.868 6  -3257602.594 6  -2491287.48247  22368996.98447
        45.750          31.250  
  24210593.359 5     -3162.899 5   1705034.653 5   1322452.02346  24210587.88746
        40.500          22.250  
  23845138.273 6      2603.391 6  -2989446.548 6  -2285104.01746  23845131.27746
        43.000          24.750  
  21521162.133 7      -759.082 7   -390614.101 7   -287677.17648  21521156.25048
        50.000          38.000  
  23917884.641 6      -474.864 6   -602817.305 6   -466381.91946  23917881.92246
        42.750          22.750  
  24062232.977 5      3426.686 5  -3423691.013 5  -2659915.17546  24062230.60946
        40.500          25.250  
  20427170.297 7      -578.605 7   -541463.743 7   -402793.83849  20427161.48449
        49.250          43.500  
 11  3 29 21  5 15.0000000  0 10G11G14G16G20G22G23G24G25G30G31      
  22818469.703 6     -1993.912 6    720956.115 6    562455.11147  22818463.46947
        45.250          30.250  
  23064003.594 6     -2439.062 6   1215702.901 6    940291.93347  23063996.42247
        43.250          27.500  
  25313763.164 3      3339.606 3   -274549.512 3  -1160588.82145  25313764.02345
        36.500          14.750  
  22360790.961 6      2877.509 6  -3300765.223 6  -2524920.66847  22360783.37947
        46.250          31.500  
  24219628.531 5     -3165.651 5   1752519.415 5   1359453.00846  24219623.87946
        40.750          21.500  
  23837710.555 6      2601.896 6  -3028474.993 6  -2315515.70647  23837704.20347
        43.250          26.750  
  21523354.766 7      -768.212 7   -379090.916 7   -278698.09048  21523348.82448
        50.750          37.250  
  23919266.375 6      -484.071 6   -595556.244 6   -460723.96046  23919264.24246
        42.500          24.750  
  24052452.945 5      3426.145 5  -3475083.185 5  -2699960.94146  24052450.34446
        40.750          26.000  
  20428848.070 7      -587.753 7   -532647.451 7   -395923.99849  20428839.19949
        49.250          43.000  
 11  3 29 21  5 30.0000000  0 10G11G14G16G20G22G23G24G25G30G31      
  22824179.023 6     -1999.871 6    750954.187 6    585830.19747  22824172.32047
        46.000          30.000  
  23070968.828 6     -2440.146 6   1252305.090 6    968813.09247  23070962.24247
        43.250          28.000  
  25304223.273 3      3342.024 3   -324679.873 3  -1199676.71845  25304223.54345
        36.000          15.500  
  22352586.297 6      2874.146 6  -3343877.411 6  -2558514.55147  22352579.35947
        46.000          32.500  
  24228673.484 5     -3168.380 5   1800045.119 5   1396485.94446  24228668.48046
        40.750          22.500  
  23830288.820 6      2600.406 6  -3067481.076 6  -2345909.98146  23830282.11746
        43.750          26.000  
  21525573.602 7      -777.326 7   -367431.033 7   -269612.47748  21525567.89548
        50.000          37.000  
  23920673.977 6      -493.270 6   -588157.194 6   -454958.46646  23920672.07846
        42.500          25.250  
  24042675.656 5      3425.594 5  -3526467.090 5  -2740000.23847  24042672.41047
        41.750          26.500  
  20430551.992 7      -596.895 7   -523694.025 7   -388947.29249  20430542.59449
        48.500          43.500  
 11  3 29 21  5 45.0000000  0 10G11G14G16G20G22G23G24G25G30G31      
  22829904.047 6     -2005.778 6    781040.863 6    609274.32947  22829897.69547
        45.750          31.000  
  23077936.852 6     -2441.192 6   1288922.964 6    997346.48447  23077930.20747
        43.000          27.500  
  25294677.359 3      3344.441 3   -374846.493 3  -1238792.65545  25294677.86345
        36.750          16.750  
  22344392.211 6      2870.798 6  -3386939.383 6  -2592069.29847  22344384.98047
        46.000          31.250  
  24237724.945 5     -3171.073 5   1847611.213 5   1433550.32246  24237719.06346
        41.000          22.500  
  23822870.141 6      2598.958 6  -3106465.446 6  -2376287.31247  23822863.32047
        44.500          26.750  
  21527818.664 7      -786.396 7   -355635.098 7   -260420.84748  21527812.66448
        49.750          37.000  
  23922108.313 5      -502.435 5   -580620.673 5   -449085.85746  23922106.18046
        42.000          24.500  
  24032899.242 5      3425.051 5  -3577842.848 5  -2780033.20046  24032896.64146
        40.000          25.250  
  20432281.625 7      -605.985 7   -514604.253 7   -381864.34149  20432272.46149
        49.250          43.000  
 11  3 29 21  6  0.0000000  0 10G11G14G16G20G22G23G24G25G30G31      
  22835646.539 6     -2011.691 6    811216.232 6    632787.56647  22835640.24647
        46.000          30.250  
  23084908.359 6     -2442.278 6   1325557.130 6   1025892.55947  23084902.12547
        43.250          26.500  
  25285123.461 3      3346.791 3   -425048.356 3  -1277935.95945  25285124.73045
        36.250          15.500  
  22336207.641 6      2867.398 6  -3429950.352 6  -2625584.31147  22336199.82447
        46.250          32.000  
  24246783.984 5     -3173.794 5   1895218.125 5   1470646.51846  24246778.62946
        41.000          22.250  
  23815455.781 6      2597.471 6  -3145427.512 6  -2406647.29646  23815449.31346
        44.500          26.000  
  21530089.563 7      -795.497 7   -343702.637 7   -251122.83848  21530083.32848
        50.500          37.000  
  23923568.469 5      -511.639 5   -572946.083 5   -443105.67946  23923566.80546
        42.000          24.250  
  24023124.148 5      3424.444 5  -3629209.502 5  -2820059.04646  24023121.43046
        40.500          25.250  
  20434037.422 7      -615.103 7   -505377.705 7   -374674.82149  20434028.31649
        49.250          44.000  
 11  3 29 21  6 15.0000000  0 10G11G14G16G20G22G23G24G25G30G31      
  22841405.344 6     -2017.575 6    841479.859 6    656369.56847  22841399.10947
        44.500          30.250  
  23091882.117 6     -2443.331 6   1362207.090 6   1054450.94647  23091876.05947
        42.500          26.500  
  25275564.539 4      3349.142 4   -475285.490 4  -1317106.84245  25275565.33645
        38.250          17.750  
  22328032.797 6      2863.992 6  -3472910.231 6  -2659059.49747  22328025.03947
        45.750          31.500  
  24255850.789 5     -3176.488 5   1942865.439 5   1507774.20246  24255846.19546
        41.000          22.250  
  23808045.570 6      2596.000 6  -3184367.519 6  -2436990.08546  23808038.86746
        44.000          25.000  
  21532385.641 7      -804.576 7   -331633.993 7   -241718.71448  21532379.75848
        49.750          37.500  
  23925055.383 5      -520.822 5   -565133.752 5   -437018.16946  23925053.89546
        42.250          25.750  
  24013351.211 5      3423.827 5  -3680566.912 5  -2860077.70846  24013348.14146
        41.000          25.750  
  20435818.844 7      -624.185 7   -496014.935 7   -367379.15049  20435810.26649
        50.000          43.000  
 11  3 29 21  6 30.0000000  0 10G11G14G16G20G22G23G24G25G30G31      
  22847181.188 6     -2023.426 6    871831.254 6    680019.97047  22847174.71947
        45.750          29.750  
  23098860.242 6     -2444.376 6   1398872.735 6   1083021.54647  23098853.30547
        44.000          28.000  
  25265997.250 3      3351.464 3   -525557.448 3  -1356304.96445  25265998.81345
        36.000          18.500  
  22319867.086 6      2860.577 6  -3515818.892 6  -2692494.78547  22319859.97347
        45.750          32.000  
  24264925.422 5     -3179.149 5   1990552.670 5   1544932.94846  24264921.23846
        41.500          21.500  
  23800639.977 6      2594.527 6  -3223285.422 6  -2467315.62947  23800633.15647
        44.000          26.500  
  21534708.352 7      -813.637 7   -319429.432 7   -232208.67748  21534702.29348
        49.250          37.750  
  23926568.875 5      -529.996 5   -557183.809 5   -430823.40746  23926567.09446
        42.250          26.000  
  24003579.992 5      3423.196 5  -3731914.852 5  -2900088.98147  24003577.21547
        42.000          27.250  
  20437626.461 7      -633.247 7   -486516.225 7   -359977.55449  20437617.82449
        49.500          43.250  
 11  3 29 21  6 45.0000000  0 10G11G14G16G20G22G23G24G25G30G31      
  22852973.578 6     -2029.262 6    902270.179 6    703738.57047  22852967.28547
        45.000          29.500  
  23105839.602 6     -2445.424 6   1435554.094 6   1111604.38347  23105833.30947
        42.500          26.750  
  25256425.047 5      3353.778 5   -575864.113 5  -1395534.13445  25256424.43845
        40.000          17.250  
  22311711.922 6      2857.139 6  -3558675.972 6  -2725889.88047  22311704.57447
        46.250          32.000  
  24274008.164 5     -3181.825 5   2038280.053 5   1582123.05846  24274003.39546
        40.500          23.000  
  23793237.797 6      2593.066 6  -3262181.416 6  -2497624.10846  23793231.38746
        44.500          26.250  
  21537056.219 7      -822.692 7   -307089.057 7   -222592.81348  21537050.57048
        49.750          37.500  
  23928107.992 5      -539.181 5   -549096.090 5   -424521.28046  23928105.33246
        42.250          26.000  
  23993810.508 5      3422.526 5  -3783252.749 5  -2940092.43546  23993807.49646
        41.500          25.750  
  20439459.953 7      -642.309 7   -476881.583 7   -352470.03149  20439450.90649
        49.250          43.500  
 11  3 29 21  7  0.0000000  0 10G11G14G16G20G22G23G24G25G30G31      
  22858782.320 6     -2035.102 6    932796.714 6    727525.44347  22858775.96947
        45.750          29.750  
  23112823.305 6     -2446.492 6   1472251.469 6   1140199.71347  23112816.71947
        43.500          27.750  
  25246843.633 3      3356.033 3   -626204.608 3  -1434794.90645  25246845.37145
        36.750          17.750  
  22303565.930 6      2853.659 6  -3601480.864 6  -2759244.30247  22303558.69947
        46.500          32.250  
  24283098.969 5     -3184.512 5   2086047.740 5   1619344.53246  24283093.08646
        42.000          23.750  
  23785840.328 6      2591.578 6  -3301055.080 6  -2527915.17746  23785833.62546
        43.500          25.000  
  21539430.719 7      -831.759 7   -294612.674 7   -212870.97048  21539424.48448
        49.250          37.750  
  23929672.516 5      -548.389 5   -540870.253 5   -418111.56846  23929670.96946
        41.000          26.000  
  23984042.570 5      3421.809 5  -3834579.887 5  -2980087.50646  23984040.08646
        42.000          26.000  
  20441319.023 7      -651.376 7   -467110.937 7   -344856.53549  20441310.27049
        49.750          43.000  
 11  3 29 21  7 15.0000000  0 10G11G14G16G20G22G23G24G25G30G31      
  22864608.047 6     -2040.899 6    963410.205 6    751380.06947  22864601.75447
        44.250          30.250  
  23119809.328 6     -2447.538 6   1508964.535 6   1168807.27247  23119803.38747
        43.500          27.250  
  25237258.531 3      3358.286 3   -676578.897 3  -1474085.10745  25237258.85945
        37.000          17.250  
  22295431.063 6      2850.178 6  -3644233.534 6  -2792558.04247  22295423.24647
        46.500          32.250  
  24292195.133 5     -3187.165 5   2133855.219 5   1656597.01846  24292191.00846
        41.000          22.000  
  23778447.664 6      2590.090 6  -3339906.425 6  -2558188.87146  23778440.37546
        43.500          25.500  
  21541830.891 7      -840.796 7   -282000.737 7   -203043.49448  21541824.48048
        49.750          37.500  
  23931264.781 5      -557.573 5   -532506.664 5   -411594.49646  23931262.12146
        41.000          25.000  
  23974277.992 5      3421.078 5  -3885896.057 5  -3020074.01446  23974275.09846
        40.500          26.250  
  20443204.102 7      -660.426 7   -457204.550 7   -337137.26649  20443195.17249
        50.250          43.500  
 11  3 29 21  7 30.0000000  0 10G11G14G16G20G22G23G24G25G30G31      
  22870450.258 6     -2046.675 6    994110.322 6    775302.20147  22870443.61347
        45.500          30.000  
  23126798.836 6     -2448.577 6   1545693.189 6   1197426.97746  23126792.19146
        43.500          26.000  
  25227665.961 2      3360.530 2   -726986.840 2  -1513401.10746  25227666.99646
        35.500          19.000  
  22287304.953 6      2846.683 6  -3686933.776 6  -2825830.93247  22287297.43047
        46.750          32.500  
  24301300.680 5     -3189.816 5   2181702.466 5   1693880.48146  24301295.96946
        41.000          21.500  
  23771058.688 6      2588.598 6  -3378735.401 6  -2588445.12246  23771051.39846
        44.250          25.750  
  21544256.391 7      -849.830 7   -269253.294 7   -193110.43148  21544250.56648
        49.500          36.750  
  23932882.234 5      -566.754 5   -524005.355 5   -404970.09546  23932880.74646
        39.750          25.250  
  23964514.742 5      3420.328 5  -3937200.979 5  -3060051.74447  23964511.49647
        40.750          26.500  
  20445115.164 7      -669.468 7   -447162.536 7   -329312.31349  20445106.46949
        51.250          43.500  
 11  3 29 21  7 45.0000000  0 10G11G14G16G20G22G23G24G25G30G31      
  22876308.766 6     -2052.415 6   1024896.543 6    799291.42947  22876302.06347
        45.250          30.500  
  23133791.086 6     -2449.599 6   1582437.169 6   1226058.61646  23133784.79346
        43.250          26.250  
  25218066.891 4      3362.752 4   -777428.120 4  -1552743.35445  25218068.62945
        37.500          18.250  
  22279189.398 6      2843.186 6  -3729581.560 6  -2859062.93647  22279181.75847
        46.250          32.750  
  24310414.148 5     -3192.451 5   2229589.231 5   1731194.75546  24310408.32446
        41.750          23.000  
  23763672.984 6      2587.125 6  -3417542.277 6  -2618684.16246  23763666.92646
        43.750          25.750  
  21546707.695 7      -858.839 7   -256370.713 7   -183072.06548  21546701.57848
        50.000          37.750  
  23934526.547 5      -575.931 5   -515366.387 5   -398238.46546  23934523.65246
        41.500          24.250  
  23954753.836 6      3419.564 6  -3988494.446 6  -3100020.58746  23954751.23446
        43.000          25.500  
  20447051.883 7      -678.473 7   -436985.446 7   -321382.11149  20447043.07049
        50.500          43.000  
 11  3 29 21  8  0.0000000  0 10G11G14G16G20G22G23G24G25G30G31      
  22882183.664 6     -2058.159 6   1055768.933 6    823347.79647  22882177.07847
        46.500          29.500  
  23140786.336 6     -2450.649 6   1619196.905 6   1254702.53846  23140779.86746
        43.250          26.000  
  25208462.664 3      3364.928 3   -827902.038 3                
        37.000  
  22271083.938 6      2839.631 6  -3772176.028 6  -2892253.41047  22271076.76647
        46.500          32.000  
  24319534.453 5     -3195.084 5   2277515.489 5   1768539.77546  24319528.68846
        42.250          22.500  
  23756293.313 6      2585.631 6  -3456326.736 6  -2648905.70446  23756286.31646
        44.000          25.500  
  21549184.969 7      -867.870 7   -243352.666 7   -172928.14248  21549179.14548
        49.500          37.500  
  23936196.539 6      -585.121 6   -506589.574 6   -391399.39547  23936193.46947
        42.500          26.500  
  23944994.945 5      3418.754 5  -4039775.750 5  -3139979.90846  23944992.57846
        40.000          24.500  
  20449014.141 7      -687.504 7   -426672.882 7   -313346.34049  20449005.38749
        51.500          43.000  
 11  3 29 21  8 15.0000000  0 10G11G14G16G20G22G23G24G25G30G31      
  22888074.484 6     -2063.857 6   1086726.781 6    847470.75947  22888067.95747
        46.500          29.750  
  23147784.531 6     -2451.666 6   1655971.899 6   1283358.33347  23147777.94547
        42.500          27.000  
  25198850.281 3      3367.105 3   -878408.608 3  -1631456.57756  25198850.90256
        36.500          19.500  
  22262988.680 6      2836.094 6  -3814717.434 6  -2925402.51547  22262980.86347
        47.000          32.250  
  24328661.438 5     -3197.694 5   2325480.896 5   1805915.31246  24328656.84446
        41.500          22.500  
  23748917.281 6      2584.157 6  -3495089.090 6  -2679110.06047  23748910.22747
        44.500          26.500  
  21551687.922 7      -876.858 7   -230199.790 7   -162679.16548  21551681.92248
        50.000          37.500  
  23937893.305 5      -594.289 5   -497675.246 5   -384453.16747  23937890.29347
        41.250          27.250  
  23935238.961 5      3417.929 5  -4091044.690 5  -3179929.63346  23935236.06646
        42.000          25.500  
  20451002.063 7      -696.492 7   -416225.502 7   -305205.52449  20450993.30949
        51.250          43.500  
 11  3 29 21  8 30.0000000  0 10G11G14G16G20G22G23G24G25G30G31      
  22893981.844 6     -2069.547 6   1117769.979 6    871660.23147  22893975.55147
        46.250          30.000  
  23154785.719 6     -2452.686 6   1692762.189 6   1312026.06747  23154778.89847
        43.500          27.500  
  25189233.398 4      3369.262 4   -928947.534 4  -1670837.51245  25189232.73045
        37.750          18.500  
  22254903.414 6      2832.529 6  -3857205.368 6  -2958509.96647  22254896.00847
        47.250          32.500  
  24337796.609 5     -3200.301 5   2373485.408 5   1843321.33146  24337791.43046
        42.250          23.250  
  23741545.109 6      2582.672 6  -3533829.175 6  -2709297.07147  23741538.23047
        44.250          26.500  
  21554216.336 7      -885.846 7   -216912.104 7   -152325.13348  21554210.21948
        49.750          37.500  
  23939615.813 6      -603.466 6   -488623.263 6   -377399.67247  23939612.80147
        42.500          26.500  
  23925484.836 5      3417.080 5  -4142300.888 5  -3219869.40346  23925481.82446
        41.250          25.500  
  20453016.156 7      -705.473 7   -405643.412 7   -296959.73149  20453007.28549
        50.750          43.750  
 11  3 29 21  8 45.0000000  0 10G11G14G16G20G22G23G24G25G30G31      
  22899905.656 6     -2075.229 6   1148898.414 6    895916.10947  22899899.18847
        46.750          30.500  
  23161789.406 5     -2453.728 5   1729568.114 5   1340705.96547  23161782.87947
        42.000          27.250  
  25179610.633 4      3371.360 4   -979517.938 4  -1710242.76846  25179610.72746
        38.250          19.750  
  22246828.391 6      2828.927 6  -3899639.267 6  -2991575.32047  22246820.75047
        46.000          32.250  
  24346939.344 5     -3202.917 5   2421529.160 5   1880757.92746  24346933.93046
        41.750          23.000  
  23734176.680 6      2581.168 6  -3572546.690 6  -2739466.46146  23734170.03546
        43.750          26.250  
  21556770.969 7      -894.850 7   -203489.356 7   -141865.86048  21556765.08648
        50.000          37.000  
  23941364.414 5      -612.662 5   -479433.328 5   -370238.67846  23941361.52046
        41.500          25.000  
  23915733.547 5      3416.166 5  -4193543.381 5  -3259798.49846  23915730.88746
        42.250          23.000  
  20455055.617 7      -714.460 7   -394926.511 7   -288608.89549  20455046.57049
        51.000          43.250  
 11  3 29 21  9  0.0000000  0 10G11G14G16G20G22G23G24G25G30G31      
  22905844.984 6     -2080.870 6   1180111.459 6    920237.91747  22905838.80947
        46.500          30.250  
  23168796.586 6     -2454.732 6   1766389.092 6   1369397.61846  23168789.47346
        42.750          26.250  
  25169980.320 4      3373.468 4  -1030119.960 4  -1749672.75946  25169981.05946
        39.000          19.250  
  22238763.391 6      2825.326 6  -3942019.158 6  -3024598.57947  22238756.27747
        46.500          31.750  
  24356088.891 5     -3205.501 5   2469611.672 5   1918224.72046  24356083.94546
        42.250          23.250  
  23726814.023 6      2579.693 6  -3611242.087 6  -2769618.62746  23726806.79346
        44.750          26.000  
  21559350.531 7      -903.814 7   -189932.150 7   -131301.81648  21559344.82448
        49.500          37.250  
  23943139.430 5      -621.830 5   -470105.884 5   -362970.56246  23943136.24246
        39.750          24.500  
  23905985.023 5      3415.270 5  -4244772.430 5  -3299717.10746  23905982.12946
        41.000          24.750  
  20457120.188 7      -723.418 7   -384075.241 7   -280153.35549  20457111.31649
        51.250          43.500  
 11  3 29 21  9 15.0000000  0 10G11G14G16G20G22G23G24G25G30G31      
  22911801.109 6     -2086.488 6   1211408.772 6    944625.39347  22911794.58247
        46.500          30.000  
  23175805.727 6     -2455.742 6   1803225.216 6   1398101.05147  23175799.43447
        42.750          26.500  
  25160346.070 4      3375.547 4  -1080753.172 4  -1789127.01846  25160346.39846
        39.000          20.000  
  22230709.586 6      2821.711 6  -3984344.820 6  -3057579.58547  22230701.88747
        46.750          32.250  
  24365246.391 6     -3208.073 6   2517732.767 6   1955721.57846  24365241.44546
        42.500          25.750  
  23719454.516 6      2578.206 6  -3649915.177 6  -2799753.42347  23719447.57847
        45.000          27.250  
  21561956.180 7      -912.777 7   -176240.502 7   -120633.01648  21561950.12148
        49.500          38.000  
  23944940.328 5      -630.997 5   -460640.935 5   -355595.29546  23944937.14146
        40.750          24.500  
  23896239.617 5      3414.343 5  -4295987.576 5  -3339624.88946  23896235.84446
        42.250          24.000  
  20459210.805 7      -732.362 7   -373089.818 7   -271593.28249  20459201.75849
        51.000          43.500  
 11  3 29 21  9 30.0000000  0 10G11G14G16G20G22G23G24G25G30G31      
  22917772.742 6     -2092.099 6   1242790.258 6    969078.45247  22917765.92247
        46.750          29.500  
  23182818.297 6     -2456.759 6   1840076.596 6   1426816.38547  23182811.94547
        42.500          27.000  
  25150704.031 4      3377.599 4  -1131417.163 4  -1828605.27045  25150705.18445
        37.500          17.750  
  22222665.594 6      2818.057 6  -4026615.676 6  -3090517.88147  22222657.66047
        47.000          31.750  
  24374410.203 5     -3210.659 5   2565892.653 5   1993248.66146  24374405.49246
        41.750          24.000  
  23712099.383 6      2576.711 6  -3688565.847 6  -2829870.75947  23712091.80147
        45.250          27.000  
  21564587.258 7      -921.743 7   -162414.360 7   -109859.40948  21564581.49248
        49.250          37.250  
  23946766.281 5      -640.179 5   -451038.246 5   -348112.72546  23946764.26646
        39.500          24.250  
  23886495.945 5      3413.369 5  -4347188.114 5  -3379521.27346  23886492.34846
        41.500          24.000  
  20461326.719 7      -741.306 7   -361970.234 7   -262928.67149  20461318.14149
        51.000          43.250  
 11  3 29 21  9 45.0000000  0 10G11G14G16G20G22G23G24G25G30G31      
  22923760.352 6     -2097.672 6   1274255.332 6    993596.64647  22923753.82447
        46.000          30.250  
  23189834.203 6     -2457.753 6   1876942.888 6   1455543.33147  23189827.26647
        43.250          26.500  
  25141058.055 4      3379.643 4  -1182111.808 4  -1868107.46046  25141057.73846
        37.500          19.250  
  22214632.133 6      2814.413 6  -4068831.869 6  -3123413.59347  22214624.66847
        46.250          32.250  
  24383582.953 6     -3213.213 6   2614090.854 6   2030805.61046  24383577.48046
        42.500          24.000  
  23704748.531 6      2575.227 6  -3727194.246 6  -2859970.72547  23704741.59447
        44.750          26.750  
  21567243.883 7      -930.676 7   -148454.224 7    -98981.39848  21567237.94148
        50.000          37.250  
  23948621.375 5      -649.337 5   -441298.196 5   -340523.05546  23948617.30946
        40.000          25.500  
  23876755.188 6      3412.392 6  -4398373.997 6  -3419406.25346  23876751.94146
        43.000          23.750  
  20463468.172 7      -750.226 7   -350716.847 7   -254159.78849  20463459.41849
        51.000          43.000  
 11  3 29 21 10  0.0000000  0 10G11G14G16G20G22G23G24G25G30G31      
  22929763.867 6     -2103.232 6   1305803.815 6   1018179.84247  22929757.75047
        47.000          30.000  
  23196852.258 6     -2458.764 6   1913824.347 6   1484282.09147  23196845.90647
        42.500          26.750  
  25131405.906 4      3381.652 4  -1232836.582 4  -1907633.02446  25131405.12146
        38.000          19.500  
  22206608.922 6      2810.729 6  -4110992.797 6  -3156266.23347  22206601.51647
        46.750          31.750  
  24392761.586 5     -3215.769 5   2662327.386 5   2068392.41246  24392757.46146
        42.000          24.750  
  23697401.875 6      2573.728 6  -3765800.160 6  -2890053.16646  23697394.70346
        45.000          26.250  
  21569925.844 7      -939.615 7   -134359.999 7    -87998.89648  21569919.90248
        49.500          37.000  
  23950501.016 5      -658.507 5   -431420.585 5   -332826.21946  23950497.30146
        41.750          24.500  
  23867017.875 6      3411.376 6  -4449544.642 6  -3459279.37546  23867014.74646
        43.000          24.750  
  20465634.992 7      -759.148 7   -339329.621 7   -245286.62749  20465625.94549
        51.500          43.000  
 11  3 29 21 10 15.0000000  0 10G11G14G16G20G22G23G24G25G30G31      
  22935783.078 6     -2108.782 6   1337435.547 6   1042827.89647  22935776.96147
        46.500          30.500  
  23203873.117 6     -2459.777 6   1950721.005 6   1513032.70846  23203867.23446
        43.500          25.750  
  25121745.586 2      3383.620 2  -1283590.888 2  -1947181.64745  25121746.91445
        35.250          18.250  
  22198596.484 6      2807.020 6  -4153098.094 6  -3189075.51847  22198588.96147
        46.250          31.750  
  24401948.188 5     -3218.328 5   2710602.310 5   2106009.14246  24401943.94546
        41.750          25.500  
  23690059.664 6      2572.215 6  -3804383.380 6  -2920117.92947  23690052.96147
        45.500          28.500  
  21572633.578 7      -948.557 7   -120131.643 7    -76911.88148  21572627.34448
        48.500          37.500  
  23952407.461 5      -667.695 5   -421405.163 5   -325022.00346  23952402.63346
        42.000          25.000  
  23857283.734 6      3410.317 6  -4500699.397 6  -3499140.08546  23857279.60946
        43.000          23.500  
  20467827.773 7      -768.067 7   -327808.624 7   -236309.22549  20467818.66849
        51.500          43.000  
 11  3 29 21 10 30.0000000  0 10G11G14G16G20G22G23G24G25G30G31      
  22941818.633 6     -2114.281 6   1369149.764 6   1067540.23947  22941811.81347
        46.000          30.750  
  23210898.031 6     -2460.752 6   1987632.280 6   1541794.71046  23210891.09446
        43.500          26.250  
  25112082.984 4      3385.605 4  -1334374.958 4  -1986753.52446  25112082.72746
        38.250          19.000  
  22190594.578 6      2803.329 6  -4195148.022 6  -3221841.65947  22190587.17247
        46.500          32.000  
  24411141.523 5     -3220.842 5   2758914.948 5   2143655.24446  24411137.28146
        41.500          24.500  
  23682721.523 6      2570.735 6  -3842944.404 6  -2950165.39846  23682714.17646
        44.750          26.000  
  21575366.273 7      -957.447 7   -105769.931 7    -65720.94848  21575360.39148
        49.250          37.250  
  23954338.570 5      -676.839 5   -411252.571 5   -317110.86846  23954335.09046
        40.500          24.750  
  23847552.219 6      3409.263 6  -4551838.335 6  -3538988.49346  23847548.32846
        42.750          23.000  
  20470045.281 7      -776.936 7   -316154.586 7   -227228.14749  20470036.46949
        51.000          43.750  
 11  3 29 21 10 45.0000000  0 10G11G14G16G20G22G23G24G25G30G31      
  22947869.039 6     -2119.774 6   1400946.367 6   1092316.76747  22947862.57047
        45.750          29.500  
  23217924.656 6     -2461.740 6   2024558.388 6   1570568.27447  23217917.71947
        44.000          26.750  
  25102413.953 4      3387.545 4  -1385188.137 4  -2026348.01246  25102413.28546
        38.500          19.250  
  22182603.727 6      2799.599 6  -4237142.005 6  -3254564.21347  22182595.73447
        46.500          32.750  
  24420342.992 5     -3223.372 5   2807265.529 5   2181330.92846  24420337.98846
        41.000          25.250  
  23675387.711 6      2569.248 6  -3881483.130 6  -2980195.49547  23675380.83247
        44.500          27.250  
  21578124.773 7      -966.349 7    -91274.692 7    -54425.96748  21578118.77348
        49.000          37.500  
  23956297.344 6      -686.001 6   -400962.552 6   -309092.68646  23956293.62946
        42.750          26.000  
  23837823.250 6      3408.169 6  -4602960.867 6  -3578824.09546  23837820.12146
        43.500          22.500  
  20472288.000 7      -785.815 7   -304367.365 7   -218043.29949  20472279.36349
        51.250          43.500  
 11  3 29 21 11  0.0000000  0 10G11G14G16G20G22G23G24G25G30G31      
  22953935.313 6     -2125.247 6   1432825.077 6   1117157.27647  22953928.84447
        46.500          29.000  
  23224954.234 6     -2462.724 6   2061499.250 6   1599353.32047  23224947.47347
        43.750          27.000  
  25092736.648 3      3389.470 3  -1436030.194 3  -2065964.98746  25092738.09446
        35.750          19.500  
  22174623.289 6      2795.855 6  -4279079.835 6  -3287243.01247  22174615.53147
        47.000          32.500  
  24429550.375 5     -3225.890 5   2855653.882 5   2219036.05146  24429546.07446
        41.000          23.000  
  23668058.344 6      2567.750 6  -3919999.387 6  -3010208.08747  23668051.05547
        44.750          27.000  
  21580908.430 7      -975.240 7    -76646.092 7    -43027.06848  21580902.48848
        49.000          37.250  
  23958281.445 5      -695.159 5   -390535.163 5   -300967.44547  23958277.84847
        42.000          27.000  
  23828097.930 6      3407.047 6  -4654066.565 6  -3618646.57946  23828095.09446
        43.000          22.750  
  20474556.344 7      -794.680 7   -292447.160 7   -208754.81449  20474547.76649
        51.500          43.250  
 11  3 29 21 11 15.0000000  0 10G11G14G16G20G22G23G24G25G30G31      
  22960017.508 6     -2130.705 6   1464785.652 6   1142061.58847  22960011.33247
        46.250          30.000  
  23231986.664 6     -2463.717 6   2098454.999 6   1628149.97146  23231980.37146
        43.250          25.750  
  25083058.297 4      3391.353 4  -1486900.481 4  -2105604.12346  25083056.80946
        38.000          19.500  
  22166653.492 6      2792.066 6  -4320960.825 6  -3319877.51047  22166645.85247
        46.500          32.250  
  24438765.859 5     -3228.402 5   2904079.913 5   2256770.50246  24438762.02746
        41.000          25.750  
  23660733.375 6      2566.235 6  -3958492.918 6  -3040202.97346  23660725.96946
        45.500          26.000  
  21583717.633 7      -984.128 7    -61884.166 7    -31524.29448  21583711.57448
        48.750          37.250  
  23960291.586 5      -704.329 5   -379970.226 5   -292735.02947  23960288.92647
        41.500          27.500  
  23818376.727 6      3405.881 6  -4705154.775 6  -3658455.45846  23818372.89546
        44.000          25.000  
  20476850.109 7      -803.541 7   -280394.041 7   -199362.77049  20476841.41449
        51.500          42.750  
 11  3 29 21 11 30.0000000  0 10G11G14G16G20G22G23G24G25G30G31      
  22966114.633 6     -2136.113 6   1496827.341 6   1167029.08847  22966108.16447
        46.000          30.000  
  23239021.961 6     -2464.681 6   2135425.214 6   1656957.91547  23239014.78947
        42.750          26.500  
  25073371.195 4      3393.257 4  -1537799.341 4  -2145265.31046  25073371.87546
        38.250          20.500  
  22158694.766 6      2788.297 6  -4362785.284 6  -3352467.96947  22158687.06647
        46.500          32.500  
  24447988.141 5     -3230.874 5   2952543.018 5   2294533.85046  24447984.42646
        41.250          24.750  
  23653412.828 6      2564.749 6  -3996964.155 6  -3070180.48047  23653405.71547
        45.500          27.500  
  21586551.922 7      -992.979 7    -46989.488 7    -19918.05948  21586546.21548
        49.250          37.000  
  23962328.023 6      -713.464 6   -369268.264 6   -284395.84246  23962325.48046
        42.500          24.500  
  23808657.750 6      3404.731 6  -4756225.736 6  -3698250.89546  23808654.21146
        43.750          23.500  
  20479169.055 7      -812.359 7   -268208.651 7   -189867.65749  20479160.24249
        51.250          42.750  
 11  3 29 21 11 45.0000000  0 10G11G14G16G20G22G23G24G25G30G31      
  22972227.523 6     -2141.535 6   1528950.363 6   1192059.97747  22972221.52347
        46.500          30.250  
  23246059.547 6     -2465.663 6   2172410.166 6   1685777.33446  23246053.25446
        42.500          26.250  
  25063679.086 2      3395.098 2  -1588725.806 2  -2184948.24145  25063679.82445
        35.500          18.250  
  22150746.570 6      2784.486 6  -4404552.576 6  -3385013.87647  22150738.93047
        46.000          33.000  
  24457217.398 5     -3233.369 5   3001043.559 5   2332326.40546  24457213.27346
        40.750          25.250  
  23646096.500 6      2563.237 6  -4035412.716 6  -3100140.33146  23646088.27346
        46.000          25.750  
  21589411.766 7     -1001.841 7    -31961.870 7     -8208.25048  21589405.47348
        49.250          37.000  
  23964390.398 5      -722.625 5   -358428.893 5   -275949.58546  23964387.91446
        42.000          26.000  
  23798942.703 6      3403.519 6  -4807278.524 6  -3738032.15446  23798939.16446
        43.250          22.750  
  20481512.891 7      -821.196 7   -255890.709 7   -180269.25849  20481504.37149
        50.750          43.250  
 11  3 29 21 12  0.0000000  0 10G11G14G16G20G22G23G24G25G30G31      
  22978355.648 6     -2146.915 6   1561154.085 6   1217153.74147  22978349.82447
        47.000          30.000  
  23253100.352 5     -2466.631 5   2209409.624 5   1714608.05547  23253093.59047
        42.250          27.000  
  25053985.469 5      3396.929 5  -1639679.745 5  -2224652.32845  25053984.21545
        39.500          18.500  
  22142809.703 6      2780.671 6  -4446262.643 6  -3417515.19347  22142801.77047
        47.000          32.500  
  24466453.625 5     -3235.840 5   3049581.152 5   2370147.79446  24466449.91046
        40.250          22.500  
  23638783.477 6      2561.739 6  -4073838.794 6  -3130082.64247  23638776.12947
        45.000          27.000  
  21592296.453 7     -1010.687 7    -16801.572 7      3604.95848  21592290.51248
        48.500          36.250  
  23966479.797 5      -731.767 5   -347452.391 5   -267396.45346  23966476.84446
        41.500          25.750  
  23789230.898 6      3402.298 6  -4858312.997 6  -3777799.14646  23789227.41846
        44.000          24.250  
  20483882.211 7      -830.000 7   -243440.714 7   -170567.94849  20483873.16449
        51.000          42.750  
 11  3 29 21 12 15.0000000  0 10G11G14G16G20G22G23G24G25G30G31      
  22984499.367 6     -2152.267 6   1593438.083 6   1242310.06047  22984492.84047
        46.500          30.250  
  23260144.242 6     -2467.595 6   2246423.553 6   1743450.02646  23260137.94946
        42.500          26.000  
  25044281.984 3      3398.760 3  -1690661.143 3  -2264377.96945  25044282.60545
        37.000          17.750  
  22134883.141 6      2776.838 6  -4487915.220 6  -3449971.71047  22134875.14847
        46.500          32.000  
  24475697.000 5     -3238.300 5   3098155.646 5   2407997.93246  24475693.05146
        39.500          23.750  
  23631475.977 6      2560.243 6  -4112242.437 6  -3160007.50447  23631468.45347
        46.000          27.750  
  21595206.719 7     -1019.517 7     -1508.815 7     15521.38548  21595200.60248
        48.500          37.000  
  23968594.852 6      -740.906 6   -336338.802 6   -258736.52847  23968591.72347
        43.500          26.500  
  23779523.508 6      3401.047 6  -4909328.702 6  -3817551.52046  23779519.44146
        43.750          24.500  
  20486276.422 7      -838.789 7   -230858.873 7   -160763.91649  20486267.31649
        51.000          42.750  
 11  3 29 21 12 30.0000000  0 10G11G14G16G20G22G23G24G25G30G31      
  22990657.672 6     -2157.605 6   1625802.154 6   1267528.77447  22990651.08647
        45.000          30.000  
  23267190.711 6     -2468.558 6   2283451.922 6   1772303.27946  23267183.24646
        43.500          25.500  
  25034575.492 2      3400.526 2  -1741669.033 2  -2304124.18445  25034576.17245
        35.500          18.500  
  22126967.570 6      2772.971 6  -4529509.786 6  -3482383.02247  22126959.98847
        46.500          32.500  
  24484947.766 5     -3240.759 5   3146767.030 5   2445876.84546  24484943.99246
        40.000          22.250  
  23624172.211 6      2558.738 6  -4150623.510 6  -3189914.76247  23624164.21947
        45.500          27.500  
  21598141.727 7     -1028.345 7     13916.363 7     27540.98048  21598135.84448
        48.500          37.000  
  23970735.961 6      -750.048 6   -325088.077 6   -249969.73146  23970732.53946
        43.500          26.250  
  23769819.133 6      3399.760 6  -4960325.103 6  -3857288.86346  23769814.77346
        44.500          24.000  
  20488695.969 7      -847.578 7   -218145.198 7   -150857.14549  20488686.62949
        50.000          42.500  
 11  3 29 21 12 45.0000000  0 10G11G14G16G20G22G23G24G25G30G31      
  22996831.648 6     -2162.918 6   1658245.919 6   1292809.59447  22996825.29747
        45.500          30.000  
  23274239.289 6     -2469.513 6   2320494.622 6   1801167.68446  23274232.76246
        42.500          26.000  
  25024864.227 2      3402.286 2  -1792703.327 2  -2343891.10145  25024863.96945
        34.500          17.750  
  22119063.328 6      2769.098 6  -4571046.259 6  -3514749.06947  22119055.92247
        46.750          32.000  
  24494205.109 5     -3243.204 5   3195415.096 5   2483784.31946  24494200.75046
        39.750          23.500  
  23616872.672 6      2557.229 6  -4188981.950 6  -3219804.40447  23616864.85547
        45.000          27.500  
  21601102.148 7     -1037.159 7     29473.751 7     39663.60248  21601096.32448
        48.000          37.250  
  23972902.406 6      -759.188 6   -313700.252 6   -241096.08746  23972898.69146
        43.250          26.250  
  23760118.633 6      3398.461 6  -5011302.012 6  -3897011.00246  23760114.62546
        44.500          25.500  
  20491140.195 7      -856.342 7   -205300.075 7   -140847.95749  20491131.09049
        50.750          43.000  
 11  3 29 21 13  0.0000000  0 10G11G14G16G20G22G23G24G25G30G31      
  23003020.602 6     -2168.221 6   1690769.233 6   1318152.40047  23003014.48447
        45.500          30.250  
  23281291.398 6     -2470.482 6   2357551.852 6   1830043.43346  23281284.63746
        43.000          25.500  
  25015147.164 3      3404.019 3  -1843763.617 3  -2383678.12445  25015146.73045
        35.750          14.750  
  22111170.570 6      2765.198 6  -4612524.226 6  -3547069.52647  22111162.22747
        46.500          31.750  
  24503469.609 5     -3245.648 5   3244099.816 5   2521720.36046  24503466.12946
        39.750          23.000  
  23609576.922 6      2555.724 6  -4227317.803 6  -3249676.43347  23609569.86747
        45.500          27.250  
  21604088.125 7     -1045.971 7     45163.312 7     51889.21948  21604082.18448
        48.250          37.250  
  23975095.734 6      -768.333 6   -302175.253 6   -232115.56246  23975092.07846
        43.000          24.500  
  23750421.422 6      3397.116 6  -5062258.755 6  -3936717.44246  23750417.59046
        44.500          24.750  
  20493609.602 7      -865.127 7   -192323.165 7   -130736.07449  20493600.61349
        51.000          42.750  
 11  3 29 21 13 15.0000000  0 10G11G14G16G20G22G23G24G25G30G31      
  23009224.484 6     -2173.503 6   1723371.785 6   1343556.94147  23009218.30947
        45.750          30.000  
  23288345.539 6     -2471.446 6   2394623.547 6   1858930.43546  23288338.54346
        43.500          26.000  
  25005423.180 1      3405.724 1  -1894849.478 1  -2423485.14345  25005425.50445
        32.500          16.250  
  22103288.773 6      2761.275 6  -4653943.353 6  -3579344.12847  22103280.78147
        46.500          33.000  
  24512740.953 5     -3248.083 5   3292821.064 5   2559684.85746  24512737.88346
        39.750          22.500  
  23602286.289 6      2554.191 6  -4265630.670 6  -3279530.55647  23602278.82447
        45.750          28.250  
  21607098.578 7     -1054.775 7     60984.943 7     64217.75048  21607092.69548
        48.250          37.500  
  23977315.070 6      -777.479 6   -290513.071 6   -223028.13847  23977311.70747
        43.250          26.500  
  23740728.367 6      3395.747 6  -5113194.967 6  -3976407.87546  23740724.06646
        45.000          25.000  
  20496103.930 7      -873.894 7   -179214.752 7   -120521.71549  20496095.17649
        50.750          42.750  
 11  3 29 21 13 30.0000000  0 10G11G14G16G20G22G23G24G25G30G31      
  23015443.594 6     -2178.743 6   1756052.934 6   1369022.74047  23015437.47747
        45.750          30.000  
  23295403.258 6     -2472.395 6   2431709.479 6   1887828.53146  23295396.37946
        43.750          25.750  
  24995698.969 1      3407.429 1  -1945960.914 1  -2463312.19345  24995699.59045
        33.750          17.750  
  22095418.250 6      2757.354 6  -4695303.657 6  -3611572.90247  22095410.14147
        46.250          33.000  
  24522020.125 5     -3250.489 5   3341578.398 5   2597677.51846  24522016.17646
        40.000          22.500  
  23595000.375 6      2552.684 6  -4303920.930 6  -3309367.06647  23594992.50047
        46.000          27.500  
  21610134.539 7     -1063.547 7     76938.151 7     76648.80048  21610128.30548
        48.750          37.000  
  23979560.211 6      -786.598 6   -278714.105 6   -213834.12946  23979557.14146
        43.250          26.000  
  23731039.594 6      3394.375 6  -5164110.586 6  -4016082.27346  23731035.29346
        44.000          25.750  
  20498622.961 7      -882.605 7   -165975.675 7   -110205.55249  20498614.44149
        50.500          42.750  
 11  3 29 21 13 45.0000000  0 10G11G14G16G20G22G23G24G25G30G31      
  23021677.859 6     -2183.946 6   1788812.122 6   1394549.34847  23021672.09447
        45.000          30.000  
  23302462.734 6     -2473.306 6   2468809.069 6   1916737.28046  23302455.97346
        43.500          26.000  
  24985969.539 3      3409.124 3  -1997097.773 3  -2503158.85545  24985969.10545
        36.250          17.250  
  22087558.680 6      2753.427 6  -4736605.056 6  -3643755.76947  22087550.45347
        46.500          32.500  
  24531304.766 4     -3252.875 4   3390371.528 4   2635698.01346  24531299.82046
        39.000          22.500  
  23587718.188 6      2551.196 6  -4342188.875 6  -3339186.18347  23587710.78147
        45.250          28.750  
  21613195.469 7     -1072.287 7     93022.462 7     89182.01948  21613189.46948
        49.000          37.000  
  23981831.422 6      -795.701 6   -266778.596 6   -204533.75546  23981828.23446
        43.500          26.000  
  23721354.305 6      3392.986 6  -5215005.374 6  -4055740.43446  23721350.00446
        44.750          26.000  
  20501167.422 7      -891.304 7   -152606.110 7    -99787.70049  20501158.37549
        50.500          42.750  
 11  3 29 21 14  0.0000000  0 10G11G14G16G20G22G23G24G25G30G31      
  23027926.727 6     -2189.182 6   1821649.846 6   1420137.14047  23027920.25847
        45.750          30.250  
  23309525.406 6     -2474.282 6   2505923.300 6   1945657.41346  23309518.35246
        43.000          25.250  
  24976232.773 3      3410.738 3  -2048258.843 3  -2543024.50445  24976232.45745
        35.750          16.750  
  22079710.406 6      2749.431 6  -4777846.519 6  -3675891.94347  22079702.70747
        46.750          32.000  
  24540596.469 4     -3255.306 4   3439201.117 4   2673746.96546  24540592.52046
        38.000          22.750  
  23580440.313 6      2549.655 6  -4380433.695 6  -3368987.26447  23580432.49647
        46.000          29.000  
  21616281.164 7     -1081.078 7    109238.628 7    101817.97748  21616275.16448
        49.000          37.000  
  23984128.961 6      -804.850 6   -254705.844 6   -195126.38546  23984125.59846
        43.750          25.250  
  23711673.164 6      3391.516 6  -5265878.108 6  -4095381.42346  23711669.39146
        44.500          24.750  
  20503736.289 7      -900.048 7   -139105.396 7    -89267.65249  20503727.30149
        51.750          42.500  
 11  3 29 21 14 15.0000000  0 10G11G14G16G20G22G23G24G25G30G31      
  23034190.234 6     -2194.338 6   1854564.913 6   1445785.20647  23034184.05947
        45.500          29.750  
  23316590.680 6     -2475.199 6   2543051.284 6   1974588.30946  23316583.80146
        43.500          24.000  
  24966490.797 2      3412.382 2  -2099444.577 2  -2582909.41845  24966492.47745
        35.250          17.750  
  22071874.469 6      2745.472 6  -4819028.599 6  -3707981.83647  22071866.30147
        45.750          32.500  
  24549895.375 4     -3257.672 4   3488066.195 4   2711823.49646  24549891.54346
        38.000          21.500  
  23573166.398 6      2548.158 6  -4418656.070 6  -3398770.87347  23573159.10947
        45.500          28.750  
  21619391.938 7     -1089.800 7    125585.629 7    114555.88048  21619386.23048
        48.500          37.500  
  23986452.281 6      -813.946 6   -242496.652 6   -185612.74247  23986448.85947
        43.750          27.000  
  23701996.766 6      3390.072 6  -5316729.190 6  -4135005.53246  23701992.52346
        45.000          26.000  
  20506330.492 7      -908.714 7   -125474.683 7    -78646.31249  20506321.21149
        50.000          42.750  
 11  3 29 21 14 30.0000000  0 10G11G14G16G20G22G23G24G25G30G31      
  23040468.313 6     -2199.491 6   1887557.273 6   1471493.49447  23040462.13747
        45.750          29.750  
  23323657.922 6     -2476.135 6   2580193.311 6   2003530.11446  23323651.80546
        43.750          25.500  
  24956747.328 2      3413.979 2  -2150654.260 2  -2622812.94545  24956747.42245
        35.000          18.500  
  22064048.922 6      2741.473 6  -4860150.690 6  -3740024.98247  22064040.87147
        47.500          33.000  
  24559201.734 4     -3260.033 4   3536966.692 4   2749927.67146  24559196.90646
        37.750          21.500  
  23565897.500 6      2546.651 6  -4456855.832 6  -3428536.87247  23565890.27047
        45.750          28.500  
  21622527.977 7     -1098.532 7    142063.609 7    127395.84948  21622521.85948
        49.000          37.250  
  23988801.391 6      -823.055 6   -230150.827 6   -175992.60346  23988798.14546
        44.750          26.250  
  23692324.500 6      3388.584 6  -5367557.944 6  -4174612.27546  23692320.43446
        45.500          26.250  
  20508948.563 7      -917.384 7   -111713.927 7    -67923.63949  20508939.86749
        49.250          42.750  
 11  3 29 21 14 45.0000000  0 10G11G14G16G20G22G23G24G25G30G31      
  23046761.344 6     -2204.622 6   1920626.599 6   1497261.76347  23046754.81647
        44.750          28.500  
  23330728.953 6     -2477.057 6   2617349.160 6   2032482.68146  23330722.60246
        43.500          25.250  
  24946996.422 2      3415.568 2  -2201887.780 2  -2662735.02745  24946997.63345
        34.750          17.750  
  22056235.078 6      2737.452 6  -4901212.475 6  -3772021.14847  22056226.79347
        46.500          32.750  
  24568513.273 4     -3262.390 4   3585902.548 4   2788059.40846  24568509.38346
        37.500          21.500  
  23558632.414 6      2545.137 6  -4495032.884 6  -3458285.14847  23558625.18447
        45.000          28.250  
  21625688.250 7     -1107.246 7    158672.299 7    140337.67748  21625682.54348
        49.000          36.750  
  23991176.680 6      -832.159 6   -217668.442 6   -166266.05346  23991173.78546
        43.000          26.250  
  23682656.445 6      3387.063 6  -5418363.890 6  -4214201.21646  23682652.20346
        45.000          26.250  
  20511591.938 7      -926.044 7    -97823.271 7    -57099.74149  20511582.89149
        50.250          42.750  
 11  3 29 21 15  0.0000000  0 10G11G14G16G20G22G23G24G25G30G31      
  23053068.836 6     -2209.768 6   1953773.123 6   1523090.17547  23053063.01247
        45.000          29.000  
  23337802.203 6     -2478.021 6   2654519.469 6   2061446.54346  23337795.32446
        43.250          25.000  
  24937245.680 4      3417.087 4  -2253144.091 4  -2702674.91845  24937243.43045
        38.500          18.250  
  22048432.828 6      2733.376 6  -4942213.113 6  -3803969.66047  22048424.83647
        47.250          33.000  
  24577833.375 5     -3264.781 5   3634874.260 5   2826219.08946  24577828.37146
        39.750          21.500  
  23551372.031 6      2543.583 6  -4533186.629 6  -3488015.26147  23551364.91847
        46.000          30.500  
  21628873.594 7     -1115.993 7    175412.190 7    153381.73448  21628867.77048
        48.500          36.750  
  23993578.117 6      -841.301 6   -205048.934 6   -156432.67446  23993575.28146
        44.500          26.000  
  23672992.039 6      3385.479 6  -5469146.080 6  -4253771.66646  23672988.44146
        44.000          25.500  
  20514260.430 7      -934.743 7    -83802.133 7    -46174.18049  20514251.55949
        50.000          43.000  
 11  3 29 21 15 15.0000000  0 10G11G14G16G20G22G23G24G25G30G31      
  23059390.992 6     -2214.820 6   1986995.428 6   1548977.65347  23059384.58247
        44.250          28.750  
  23344878.383 6     -2478.905 6   2691703.039 6   2090420.72347  23344871.50447
        43.500          26.750  
  24927486.242 4      3418.662 4  -2304424.027 4  -2742633.17245  24927485.57445
        38.500          17.250  
  22040641.953 6      2729.355 6  -4983153.439 6  -3835871.16647  22040634.19547
        46.500          32.500  
  24587158.227 4     -3267.087 4   3683880.562 4   2864405.72446  24587154.33646
        38.000          21.750  
  23544115.563 6      2542.106 6  -4571318.218 6  -3517728.14347  23544108.44947
        46.000          29.000  
  21632084.063 7     -1124.651 7    192281.951 7    166526.99148  21632078.41448
        49.250          36.750  
  23996004.930 6      -850.360 6   -192293.540 6   -146493.41147  23996001.97747
        44.250          26.500  
  23663333.516 6      3383.949 6  -5519905.310 6  -4293324.22947  23663329.15647
        44.500          26.750  
  20516953.109 7      -943.340 7    -69652.035 7    -35148.11549  20516943.88749
        49.000          43.000  
 11  3 29 21 15 30.0000000  0 10G11G14G16G20G22G23G24G25G30G31      
  23065728.180 6     -2219.933 6   2020294.418 6   1574924.87147  23065721.65247
        45.250          29.000  
  23351956.500 6     -2479.860 6   2728900.941 6   2119406.07146  23351950.14846
        43.750          24.500  
  24917725.078 5      3420.135 5  -2355726.049 5  -2782608.67446  24917723.00446
        39.750          19.000  
  22032863.367 6      2725.241 6  -5024032.055 6  -3867724.60247  22032855.02347
        47.000          32.250  
  24596491.203 4     -3269.456 4   3732922.398 4   2902620.01646  24596486.60946
        38.000          22.000  
  23536863.648 6      2540.553 6  -4609426.519 6  -3547422.86847  23536856.71147
        45.500          29.000  
  21635319.008 7     -1133.370 7    209282.496 7    179774.15048  21635312.77348
        49.000          37.000  
  23998458.352 6      -859.492 6   -179401.159 6   -136447.38746  23998455.04746
        43.500          26.000  
  23653678.719 6      3382.309 6  -5570639.950 6  -4332857.61947  23653674.47747
        45.000          26.750  
  20519670.063 7      -952.003 7    -55371.989 7    -24020.79949  20519661.25049
        50.250          42.500  
 11  3 29 21 15 45.0000000  0 10G11G14G16G20G22G23G24G25G30G31      
  23072078.188 6     -2224.975 6   2053669.047 6   1600931.03447  23072072.53947
        45.500          29.250  
  23359037.391 6     -2480.773 6   2766112.530 6   2148402.09246  23359031.44946
        43.500          25.750  
  24907958.250 5      3421.626 5  -2407050.441 5  -2822601.57545  24907956.58645
        40.000          18.500  
  22025095.625 6      2721.154 6  -5064849.369 6  -3899530.26047  22025087.80947
        46.750          32.500  
  24605829.391 4     -3271.777 4   3781999.059 4   2940861.45346  24605826.67246
        38.500          21.500  
  23529616.633 6      2539.038 6  -4647512.084 6  -3577099.87847  23529609.34447
        46.000          29.250  
  21638578.883 7     -1142.033 7    226412.987 7    193122.57148  21638572.82448
        49.500          37.500  
  24000938.203 6      -868.579 6   -166372.480 6   -126295.17446  24000934.89846
        43.500          26.250  
  23644028.648 6      3380.687 6  -5621350.261 6  -4372372.06347  23644024.75847
        45.500          27.250  
  20522412.352 7      -960.601 7    -40962.981 7    -12793.00349  20522403.24649
        50.500          42.750  
 11  3 29 21 16  0.0000000  0 10G11G14G16G20G22G23G24G25G30G31      
  23078443.492 6     -2229.962 6   2087118.475 6   1626995.48347  23078437.55147
        44.500          29.250  
  23366121.633 6     -2481.660 6   2803337.433 6   2177408.49246  23366115.28146
        43.500          23.500  
  24898185.008 4      3423.107 4  -2458397.051 4  -2862611.81445  24898185.21945
        38.500          17.750  
  22017340.016 6      2717.074 6  -5105605.476 6  -3931288.23347  22017332.31647
        47.250          33.000  
  24615174.789 4     -3274.056 4   3831109.892 4   2979129.57446  24615170.84046
        37.500          21.750  
  23522373.266 6      2537.551 6  -4685575.356 6  -3606759.51147  23522366.27047
        46.000          29.000  
  21641863.094 7     -1150.657 7    243672.849 7    206571.80248  21641857.44548
        49.500          37.500  
  24003443.125 6      -877.632 6   -153207.998 6   -116037.13347  24003440.05547
        44.500          26.750  
  23634383.070 6      3379.062 6  -5672036.190 6  -4411867.50647  23634379.41447
        44.750          26.750  
  20525178.633 7      -969.164 7    -26425.517 7     -1465.09649  20525169.52749
        50.000          42.750  
 11  3 29 21 16 15.0000000  0 10G11G14G16G20G22G23G24G25G30G31      
  23084823.125 6     -2234.984 6   2120643.235 6   1653118.62847  23084817.18447
        44.250          29.500  
  23373208.484 6     -2482.601 6   2840576.451 6   2206425.88246  23373201.48846
        43.750          25.000  
  24888411.453 3      3424.517 3  -2509764.800 3  -2902638.48546  24888410.02346
        36.250          19.250  
  22009596.180 6      2712.909 6  -5146299.112 6  -3962997.53347  22009587.83647
        47.500          33.500  
  24624527.578 4     -3276.397 4   3880255.853 4   3017425.01346  24624523.04346
        38.250          21.000  
  23515134.359 6      2536.004 6  -4723615.411 6  -3636401.06547  23515127.07047
        45.750          28.250  
  21645172.492 7     -1159.330 7    261062.802 7    220122.40448  21645166.78548
        49.500          36.500  
  24005974.109 6      -886.745 6   -139906.818 6   -105672.56047  24005971.39147
        43.250          26.500  
  23624743.281 6      3377.341 6  -5722696.303 6  -4451342.84647  23624739.33247
        45.000          27.500  
  20527970.016 7      -977.773 7    -11758.925 7      9963.41749  20527960.67649
        51.250          42.750  
 11  3 29 21 16 30.0000000  0 10G11G14G16G20G22G23G24G25G30G31      
  23091216.656 6     -2239.960 6   2154242.632 6   1679299.94447  23091211.12547
        44.750          28.500  
  23380296.883 6     -2483.503 6   2877828.994 6   2235453.80246  23380290.59046
        43.500          25.250  
  24878630.758 4      3425.931 4  -2561153.769 4  -2942681.78246  24878631.02746
        37.500          19.500  
  22001864.234 6      2708.770 6  -5186930.656 6  -3994658.43248  22001856.71148
        46.500          33.750  
  24633885.617 4     -3278.679 4   3929436.045 4   3055747.14246  24633882.02046
        37.500          21.500  
  23507899.742 6      2534.491 6  -4761632.769 6  -3666024.92547  23507892.92247
        45.750          28.750  
  21648506.305 7     -1167.961 7    278582.210 7    233773.87648  21648500.42248
        49.500          36.750  
  24008531.156 6      -895.817 6   -126469.570 6    -95201.98447  24008528.08647
        43.500          27.250  
  23615107.727 6      3375.650 6  -5773331.047 6  -4490798.41847  23615104.12947
        44.500          27.750  
  20530785.391 7      -986.338 7      3036.152 7     21492.06149  20530776.16849
        50.500          43.000  
 11  3 29 21 16 45.0000000  0 10G11G14G16G20G22G23G24G25G30G31      
  23097625.148 6     -2244.896 6   2187916.074 6   1705538.94247  23097619.20747
        44.250          29.000  
  23387388.344 6     -2484.385 6   2915094.773 6   2264492.04246  23387381.46546
        43.000          24.500  
  24868849.102 5      3427.349 5  -2612563.998 5  -2982741.56445  24868848.37545
        40.750          18.500  
  21994143.883 6      2704.623 6  -5227499.996 6  -4026270.86847  21994136.41847
        46.500          33.500  
  24643251.883 4     -3280.937 4   3978650.094 4   3094095.63346  24643247.64146
        38.750          21.250  
  23500669.703 6      2532.985 6  -4799627.539 6  -3695631.20047  23500662.29747
        45.000          29.250  
  21651864.844 7     -1176.566 7    296230.694 7    247525.92548  21651858.72748
        50.000          37.000  
  24011114.156 6      -904.872 6   -112896.490 6    -84625.54646  24011110.44146
        43.000          26.000  
  23605476.844 6      3373.932 6  -5823940.024 6  -4530233.89347  23605473.07047
        44.500          28.000  
  20533624.547 7      -994.870 7     17959.195 7     33120.40349  20533615.79349
        50.750          42.500  
 11  3 29 21 17  0.0000000  0 10G11G14G16G20G22G23G24G25G30G31      
  23104047.133 6     -2249.843 6   2221663.713 6   1731835.76947  23104040.54747
        43.500          29.000  
  23394482.383 6     -2485.303 6   2952374.320 6   2293541.02446  23394475.79746
        43.000          25.250  
  24859062.367 5      3428.686 5  -2663994.293 5  -3022817.02145  24859060.41045
        40.500          17.750  
  21986436.227 6      2700.414 6  -5268006.204 6  -4057834.11947  21986428.29347
        47.000          33.500  
  24652623.797 5     -3283.229 5   4027898.529 5   3132470.95046  24652619.73046
        39.250          20.500  
  23493444.039 6      2531.435 6  -4837599.064 6  -3725219.34947  23493436.75047
        45.250          29.000  
  21655247.867 7     -1185.195 7    314008.617 7    261378.84248  21655242.16048
        48.250          37.000  
  24013722.086 6      -913.961 6    -99187.082 6    -73942.88246  24013719.25046
        42.750          24.500  
  23595851.055 6      3372.149 6  -5874522.259 6  -4569648.54347  23595847.39847
        45.000          27.750  
  20536489.141 7     -1003.437 7     33010.745 7     44848.89049  20536480.32849
        50.500          42.250  
 11  3 29 21 17 15.0000000  0 10G11G14G16G20G22G23G24G25G30G31      
  23110483.078 6     -2254.749 6   2255484.950 6   1758189.93947  23110477.13747
        43.500          29.250  
  23401578.438 6     -2486.203 6   2989667.367 6   2322600.50246  23401572.32046
        43.000          24.000  
  24849270.773 4      3430.037 4  -2715444.847 4  -3062908.17345  24849270.22345
        38.500          18.500  
  21978740.023 6      2696.218 6  -5308449.467 6  -4089348.31547  21978732.09047
        47.500          33.500  
  24662000.711 4     -3285.492 4   4077180.909 4   3170872.71046  24661997.52346
        39.000          20.000  
  23486222.906 6      2529.912 6  -4875547.749 6  -3754789.71347  23486215.20747
        45.500          28.750  
  21658655.383 7     -1193.784 7    331915.371 7    275332.14048  21658649.50048
        49.000          37.250  
  24016357.266 5      -923.017 5    -85341.820 5    -63154.39046  24016354.72346
        42.000          25.750  
  23586231.172 6      3370.359 6  -5925077.651 6  -4609042.27147  23586227.10547
        44.750          27.750  
  20539377.422 7     -1011.949 7     48189.985 7     56676.88049  20539368.25849
        49.000          42.250  
 11  3 29 21 17 30.0000000  0 10G11G14G16G20G22G23G24G25G30G31      
  23116933.492 6     -2259.638 6   2289379.513 6   1784601.24247  23116926.96547
        44.500          29.000  
  23408678.117 6     -2487.095 6   3026973.799 6   2351670.43346  23408671.41446
        43.000          26.000  
  24839476.328 5      3431.362 5  -2766915.278 5  -3103014.91545  24839474.78145
        40.250          18.250  
  21971055.875 6      2691.994 6  -5348829.373 6  -4120813.14948  21971047.70748
        46.750          34.000  
  24671386.617 5     -3287.739 5   4126496.989 5   3209300.74946  24671382.19946
        40.000          22.000  
  23479005.672 6      2528.383 6  -4913473.491 6  -3784342.19047  23478998.03147
        45.000          28.500  
  21662087.445 7     -1202.363 7    349950.811 7    289385.72448  21662081.68048
        49.500          37.000  
  24019019.031 6      -932.074 6    -71360.709 6    -52260.00347  24019015.37547
        43.750          27.750  
  23576616.305 6      3368.546 6  -5975605.834 6  -4648414.79747  23576611.88747
        45.250          28.250  
  20542290.305 7     -1020.456 7     63496.828 7     68604.29549  20542281.08249
        48.750          42.750  
 11  3 29 21 17 45.0000000  0 10G11G14G16G20G22G23G24G25G30G31      
  23123396.281 6     -2264.464 6   2323346.467 6   1811068.95947  23123391.04347
        43.750          29.250  
  23415780.320 6     -2487.957 6   3064293.158 6   2380750.42346  23415773.38346
        42.750          25.750  
  24829678.531 5      3432.692 5  -2818405.660 5  -3143137.15345  24829676.51645
        41.250          18.250  
  21963384.000 6      2687.777 6  -5389146.031 6  -4152228.69348  21963375.94948
        47.000          33.750  
  24680776.555 4     -3289.950 4   4175846.239 4   3247754.58846  24680772.84046
        39.000          20.750  
  23471792.883 6      2526.878 6  -4951376.661 6  -3813877.07347  23471785.12547
        45.750          29.000  
  21665543.664 7     -1210.902 7    368114.342 7    303539.10548  21665537.95748
        49.250          36.750  
  24021704.836 6      -941.099 6    -57244.225 6    -41260.15646  24021701.41446
        43.250          25.500  
  23567005.664 6      3366.725 6  -6026106.711 6  -4687766.04447  23567002.00847
        45.500          28.500  
  20545227.609 7     -1028.922 7     78930.661 7     80630.66149  20545218.56349
        49.500          43.000  
 11  3 29 21 18  0.0000000  0 10G11G14G16G20G22G23G24G25G30G31      
  23129874.516 6     -2269.330 6   2357386.414 6   1837593.54747  23129868.10547
        44.500          29.250  
  23422884.039 6     -2488.868 6   3101626.178 6   2409841.05046  23422877.45346
        42.500          24.500  
  24819875.281 5      3433.934 5  -2869914.670 5  -3183273.88645  24819874.55545
        39.500          18.250  
  21955724.023 7      2683.491 7  -5429398.392 7  -4183594.13547  21955715.73847
        48.000          33.500  
  24690173.898 4     -3292.207 4   4225229.346 4   3286234.83046  24690170.82846
        38.500          19.500  
  23464584.664 6      2525.321 6  -4989256.475 6  -3843393.76547  23464577.19947
        45.250          28.750  
  21669024.570 7     -1219.481 7    386406.564 7    317792.77448  21669018.45348
        49.750          37.250  
  24024416.391 5      -950.175 5    -42991.593 5    -30154.22347  24024413.96547
        41.500          26.500  
  23557400.719 6      3364.831 6  -6076579.176 6  -4727095.16247  23557396.88747
        45.000          27.750  
  20548188.359 7     -1037.435 7     94492.181 7     92756.52149  20548179.48849
        50.500          42.250  
 11  3 29 21 18 15.0000000  0 10G11G14G16G20G22G23G24G25G30G31      
  23136366.031 6     -2274.162 6   2391498.847 6   1864174.63247  23136359.50447
        43.750          29.500  
  23429991.211 6     -2489.763 6   3138972.622 6   2438942.13946  23429984.50846
        43.250          24.000  
  24810070.422 5      3435.175 5  -2921442.295 5  -3223425.08745  24810069.28545
        41.500          17.750  
  21948076.734 6      2679.206 6  -5469586.481 6  -4214909.49948  21948068.74248
        47.500          34.250  
  24699578.203 4     -3294.434 4   4274645.852 4   3324741.10346  24699574.07846
        38.500          20.000  
  23457380.086 6      2523.782 6  -5027113.201 6  -3872892.47147  23457373.14847
        45.000          29.500  
  21672529.773 7     -1228.034 7    404827.069 7    332146.39648  21672524.18448
        49.750          37.000  
  24027154.805 5      -959.223 5    -28603.253 5    -18942.52047  24027151.85247
        41.000          27.500  
  23547801.766 6      3362.932 6  -6127023.160 6  -4766402.06547  23547797.64147
        44.750          28.000  
  20551174.109 7     -1045.905 7    110180.754 7    104981.38649  20551164.59449
        48.250          42.000  
 11  3 29 21 18 30.0000000  0 10G11G14G16G20G22G23G24G25G30G31      
  23142870.453 6     -2278.949 6   2425683.078 6   1890811.64247  23142864.62947
        44.750          29.500  
  23437100.414 5     -2490.647 5   3176332.332 5   2468053.57846  23437094.23846
        42.000          23.250  
  24800260.531 5      3436.402 5  -2972988.329 5  -3263590.67945  24800260.21545
        39.750          18.250  
  21940441.617 7      2674.905 7  -5509710.058 7  -4246174.59048  21940433.56648
        48.000          34.000  
  24708987.359 4     -3296.634 4   4324095.367 4   3363273.11446  24708984.46546
        38.500          19.750  
  23450180.906 6      2522.254 6  -5064947.008 6  -3902373.29947  23450173.32447
        46.000          28.500  
  21676059.320 7     -1236.557 7    423375.422 7    346599.65548  21676053.67248
        49.500          36.750  
  24029918.484 6      -968.259 6    -14079.368 6     -7625.24047  24029915.12147
        42.500          27.250  
  23538208.188 6      3361.007 6  -6177438.259 6  -4805686.47947  23538204.23847
        44.500          27.250  
  20554183.781 7     -1054.355 7    125996.077 7    117305.02049  20554174.67649
        49.500          42.250  
 11  3 29 21 18 45.0000000  0 10G11G14G16G20G22G23G24G25G30G31      
  23149389.742 6     -2283.733 6   2459939.073 6   1917504.59147  23149383.62547
        43.750          29.000  
  23444212.195 5     -2491.538 5   3213705.397 5   2497175.41946  23444205.14146
        42.250          26.000  
  24790449.469 5      3437.593 5  -3024552.219 5  -3303770.20245  24790447.74645
        40.500          16.250  
  21932818.125 6      2670.582 6  -5549768.781 6  -4277389.15448  21932810.19148
        46.750          34.000  
  24718404.359 4     -3298.850 4   4373578.115 4   3401831.00346  24718400.70346
        39.000          21.250  
  23442986.063 6      2520.710 6  -5102757.660 6  -3931836.10447  23442978.07047
        45.500          28.750  
  21679613.867 7     -1245.083 7    442051.672 7    361152.55748  21679607.80948
        49.500          36.750  
  24032707.719 6      -977.296 6       580.076 6      3797.67547  24032704.64847
        43.750          27.250  
  23528619.805 6      3359.051 6  -6227824.024 6  -4844948.02846  23528615.56346
        44.500          26.250  
  20557217.344 7     -1062.806 7    141938.172 7    129727.43449  20557207.94549
        50.250          42.500  
 11  3 29 21 19  0.0000000  0 10G11G14G16G20G22G23G24G25G30G31      
  23155921.703 6     -2288.494 6   2494266.484 6   1944253.17547  23155916.34847
        43.250          29.250  
  23451326.281 6     -2492.415 6   3251091.627 6   2526307.52346  23451319.87146
        42.500          25.000  
  24780632.945 5      3438.770 5  -3076133.763 5  -3343963.39945  24780632.04345
        40.000          18.500  
  21925207.586 6      2666.245 6  -5589762.451 6  -4308553.02248  21925199.71148
        46.750          34.500  
  24727826.406 4     -3301.041 4   4423093.736 4   3440414.52246  24727821.93046
        38.500          21.750  
  23435794.508 6      2519.171 6  -5140545.220 6  -3961280.90547  23435787.45347
        45.000          28.250  
  21683192.141 7     -1253.593 7    460855.560 7    375804.92848  21683185.90648
        48.750          36.250  
  24035523.383 6      -986.330 6     15375.023 6     15326.20147  24035520.13747
        43.500          27.000  
  23519037.523 6      3357.055 6  -6278179.849 6  -4884186.23247  23519032.81347
        44.000          28.500  
  20560274.938 7     -1071.234 7    158006.675 7    142248.34949  20560265.89149
        50.500          42.750  
 11  3 29 21 19 15.0000000  0 10G11G14G16G20G22G23G24G25G30G31      
  23162467.383 6     -2293.209 6   2528664.618 6   1971056.87547  23162461.26647
        44.250          28.250  
  23458443.313 5     -2493.275 5   3288490.757 5   2555449.64146  23458437.43046
        41.750          23.750  
  24770814.344 5      3439.929 5  -3127732.704 5  -3384170.22245  24770812.79745
        41.250          17.750  
  21917609.398 6      2661.900 6  -5629690.943 6  -4339666.11148  21917601.87548
        46.750          34.500  
  24737256.164 4     -3303.211 4   4472641.897 4   3479023.36846  24737251.45346
        38.500          21.500  
  23428608.328 6      2517.642 6  -5178309.845 6  -3990707.85147  23428600.98047
        45.000          28.250  
  21686794.703 7     -1262.071 7    479786.621 7    390556.38848  21686788.93848
        49.500          37.250  
  24038364.375 6      -995.336 6     30305.068 6     26959.99947  24038361.65647
        43.250          26.500  
  23509460.758 6      3355.055 6  -6328505.676 6  -4923401.08147  23509456.57447
        44.750          28.000  
  20563356.734 7     -1079.628 7    174201.101 7    154867.39049  20563347.51249
        50.250          42.250  
 11  3 29 21 19 30.0000000  0 10G11G14G16G20G22G23G24G25G30G31      
  23169026.633 6     -2297.930 6   2563133.573 6   1997915.75747  23169020.63347
        43.750          29.000  
  23465563.164 6     -2494.163 6   3325903.208 6   2584602.18846  23465556.05146
        42.500          24.250  
  24760992.555 5      3441.042 5  -3179348.336 5  -3424390.02645  24760990.30545
        41.750          17.250  
  21910023.641 6      2657.502 6  -5669553.475 6  -4370727.79348  21910016.29348
        46.750          34.500  
  24746690.656 4     -3305.400 4   4522222.894 4   3517657.79946  24746687.41046
        38.750          20.750  
  23421426.422 6      2516.090 6  -5216051.196 6  -4020116.65247  23421418.89847
        45.000          28.750  
  21690421.273 7     -1270.564 7    498845.085 7    405407.13248  21690415.15648
        49.250          37.500  
  24041230.609 6     -1004.372 6     45370.648 6     38699.38147  24041228.30147
        43.000          26.500  
  23499888.836 6      3353.004 6  -6378800.734 6  -4962591.93547  23499885.29747
        44.250          28.500  
  20566462.469 7     -1088.042 7    190521.737 7    167584.76449  20566453.12949
        50.250          42.500  
 11  3 29 21 19 45.0000000  0 10G11G14G16G20G22G23G24G25G30G31      
  23175599.594 6     -2302.588 6   2597672.398 6   2024829.09147  23175593.12547
        44.000          29.000  
  23472684.500 5     -2495.014 5   3363328.424 5   2613764.64446  23472678.38346
        42.250          25.500  
  24751165.922 5      3442.161 5  -3230980.750 5  -3464622.89745  24751164.72745
        40.750          18.500  
  21902450.430 6      2653.134 6  -5709350.485 6  -4401738.41948  21902442.96548
        46.000          34.500  
  24756131.789 4     -3307.537 4   4571835.953 4   3556317.24046  24756127.78146
        37.500          19.500  
  23414249.203 6      2514.567 6  -5253769.696 6  -4049507.64747  23414241.38747
        44.500          28.500  
  21694072.289 7     -1279.009 7    518030.218 7    420356.57348  21694065.99648
        49.000          37.000  
  24044123.219 6     -1013.361 6     60571.070 6     50543.84046  24044120.50046
        43.000          24.500  
  23490324.883 6      3350.961 6  -6429065.152 6  -5001758.92747  23490320.40647
        44.250          27.250  
  20569591.984 7     -1096.402 7    206967.771 7    180399.86549  20569583.17249
        50.500          42.500  
 11  3 29 21 20  0.0000000  0 10G11G14G16G20G22G23G24G25G30G31      
  23182185.195 6     -2307.254 6   2632281.211 6   2051796.95247  23182179.13747
        44.000          29.500  
  23479808.070 5     -2495.893 5   3400766.823 5   2642937.41346  23479802.71546
        41.500          23.750  
  24741338.359 5      3443.239 5  -3282629.328 5  -3504868.38546  24741335.93446
        41.000          19.500  
  21894890.063 6      2648.716 6  -5749081.229 6  -4432697.41548  21894882.12948
        46.000          34.500  
  24765578.922 5     -3309.686 5   4621481.246 5   3595001.77946  24765574.91446
        40.000          19.250  
  23407075.445 6      2513.014 6  -5291464.899 6  -4078880.47847  23407068.44947
        45.750          27.500  
  21697747.344 7     -1287.465 7    537342.195 7    435404.85948  21697740.93448
        48.500          36.750  
  24047041.422 6     -1022.376 6     75906.711 6     62493.65846  24047038.35246
        42.500          26.250  
  23480765.008 6      3348.862 6  -6479298.082 6  -5040901.37947  23480761.29347
        43.500          26.500  
  20572745.398 7     -1104.777 7    223539.421 7    193312.84249  20572736.35249
        51.000          42.000  
 11  3 29 21 20 15.0000000  0 10G11G14G16G20G22G23G24G25G30G31      
  23188784.508 6     -2311.893 6   2666959.605 6   2078819.04447  23188778.15647
        43.250          29.500  
  23486935.734 5     -2496.753 5   3438218.115 5   2672120.19946  23486929.09046
        42.000          24.000  
  24731507.125 5      3444.293 5  -3334293.720 5  -3545126.22546  24731504.17246
        40.750          19.000  
  21887342.406 6      2644.290 6  -5788745.574 6  -4463604.66848  21887334.64848
        46.250          34.500  
  24775032.813 5     -3311.828 5   4671158.662 5   3633711.40546  24775027.80946
        39.500          20.500  
  23399907.289 6      2511.465 6  -5329136.877 6  -4108235.22447  23399899.41447
        44.500          27.750  
  21701446.008 7     -1295.902 7    556780.728 7    450551.75548  21701440.30148
        48.250          36.500  
  24049986.125 5     -1031.376 5     91377.350 5     74548.67947  24049983.23047
        41.000          27.250  
  23471212.969 6      3346.748 6  -6529499.309 6  -5080019.14047  23471208.08247
        45.000          27.000  
  20575922.953 7     -1113.124 7    240236.288 7    206323.38649  20575913.61349
        50.750          42.250  
 11  3 29 21 20 30.0000000  0 10G11G14G16G20G22G23G24G25G30G31      
  23195396.758 6     -2316.490 6   2701706.951 6   2105894.85547  23195390.93447
        45.250          30.250  
  23494065.141 5     -2497.601 5   3475682.131 5   2701312.90746  23494058.61346
        42.000          25.500  
  24721673.242 5      3445.331 5  -3385973.691 5  -3585396.14545  24721670.46545
        41.750          17.750  
  21879807.469 6      2639.851 6  -5828343.339 6  -4494460.03548  21879799.47748
        46.750          34.500  
  24784492.406 5     -3313.944 5   4720867.819 5   3672445.70846  24784487.98846
        39.500          20.250  
  23392742.242 6      2509.934 6  -5366785.882 6  -4137572.05247  23392734.95347
        44.750          27.000  
  21705168.945 7     -1304.305 7    576345.308 7    465796.86848  21705162.82848
        48.750          36.250  
  24052955.258 6     -1040.352 6    106982.626 6     86708.60747  24052953.35947
        43.000          26.750  
  23461665.672 6      3344.618 6  -6579668.582 6  -5119111.98047  23461661.60547
        44.500          28.250  
  20579124.000 7     -1121.445 7    257057.955 7    219431.18649  20579114.89549
        49.750          42.500  
 11  3 29 21 20 45.0000000  0 10G11G14G16G20G22G23G24G25G30G31      
  23202022.578 6     -2321.069 6   2736522.980 6   2133024.18947  23202016.10947
        44.500          29.500  
  23501197.063 6     -2498.454 6   3513158.938 6   2730515.58346  23501189.83246
        42.500          24.250  
  24711835.297 5      3446.355 5  -3437669.010 5  -3625678.08345  24711832.52045
        41.250          18.500  
  21872284.641 6      2635.393 6  -5867874.237 6  -4525263.30148  21872277.00048
        45.000          34.250  
  24793957.508 4     -3316.052 4   4770608.603 4   3711204.67546  24793953.91046
        38.500          20.500  
  23385582.313 6      2508.397 6  -5404411.832 6  -4166890.92347  23385574.96547
        43.750          28.500  
  21708915.898 7     -1312.702 7    596035.836 7    481140.11648  21708910.13348
        47.750          36.500  
  24055951.250 6     -1049.328 6    122722.552 6     98973.45147  24055948.18047
        43.000          27.500  
  23452124.625 6      3342.455 6  -6629805.406 6  -5158179.55547  23452120.79347
        44.250          27.250  
  20582348.531 7     -1129.754 7    274004.258 7    232636.09549  20582339.54349
        49.750          42.000  
 11  3 29 21 21  0.0000000  0 10G11G14G16G20G22G23G24G25G30G31      
  23208660.508 6     -2325.627 6   2771407.385 6   2160206.80647  23208653.92247
        44.500          28.750  
  23508331.320 5     -2499.301 5   3550648.450 5   2759728.14546  23508324.79346
        42.250          24.750  
  24701994.320 5      3447.352 5  -3489379.288 5  -3665971.64646  24701992.07046
        40.000          19.250  
  21864774.781 6      2630.914 6  -5907337.943 6  -4556014.21248  21864767.37548
        46.000          35.000  
  24803428.758 4     -3318.158 4   4820380.970 4   3749988.26246  24803424.92646
        38.250          19.750  
  23378426.500 6      2506.851 6  -5442014.590 6  -4196191.72147  23378419.38747
        44.000          28.250  
  21712686.922 7     -1321.093 7    615852.237 7    496581.45348  21712680.98048
        48.250          36.750  
  24058971.531 5     -1058.303 5    138597.094 5    111343.22747  24058968.05147
        42.000          26.500  
  23442590.320 6      3340.265 6  -6679909.386 6  -5197221.52247  23442585.84447
        44.750          27.750  
  20585597.125 7     -1138.052 7    291075.043 7    245938.01449  20585587.78549
        49.750          42.750  
 11  3 29 21 21 15.0000000  0 10G11G14G16G20G22G23G24G25G30G31      
  23215311.500 6     -2330.179 6   2806360.074 6   2187442.62047  23215305.61747
        44.000          28.250  
  23515467.641 5     -2500.160 5   3588150.843 5   2788950.72346  23515461.17246
        42.250          23.250  
  24692151.055 5      3448.300 5  -3541103.791 5  -3706276.27445  24692149.74245
        39.750          18.250  
  21857278.180 6      2626.403 6  -5946733.995 6  -4586712.40548  21857270.59848
        45.750          34.500  
  24812906.758 4     -3320.252 4   4870184.751 4   3788796.25945  24812901.87145
        38.750          18.500  
  23371275.719 6      2505.290 6  -5479593.935 6  -4225474.25747  23371267.84447
        44.250          29.000  
  21716481.813 7     -1329.487 7    635794.542 7    512120.90048  21716476.16448
        48.500          37.000  
  24062018.570 6     -1067.285 6    154606.363 6    123817.95747  24062015.38347
        43.000          26.500  
  23433062.352 6      3338.029 6  -6729979.824 6  -5236237.36347  23433057.34847
        44.500          28.000  
  20588869.016 7     -1146.343 7    308270.181 7    259336.82449  20588859.85249
        50.500          42.750  
 11  3 29 21 21 30.0000000  0 10G11G14G16G20G22G23G24G25G30G31      
  23221976.023 6     -2334.682 6   2841380.311 6   2214731.07747  23221970.02347
        43.500          28.750  
  23522606.117 6     -2500.983 6   3625665.585 6   2818182.96946  23522598.47746
        42.500          23.500  
  24682305.023 5      3449.255 5  -3592842.619 5  -3746592.11045  24682303.71145
        40.250          17.250  
  21849793.977 6      2621.906 6  -5986062.583 6  -4617358.03148  21849785.92648
        45.750          35.000  
  24822389.820 5     -3322.316 5   4920019.497 5   3827628.45246  24822385.57846
        40.500          21.250  
  23364128.789 6      2503.767 6  -5517150.434 6  -4254739.00847  23364120.85547
        45.750          28.250  
  21720300.516 7     -1337.829 7    655861.973 7    527757.84148  21720294.45748
        48.000          36.250  
  24065090.570 5     -1076.224 5    170749.720 5    136397.17947  24065086.85547
        42.000          27.750  
  23423540.500 6      3335.796 6  -6780016.768 6  -5275227.10347  23423536.02347
        45.000          26.500  
  20592164.758 7     -1154.593 7    325589.079 7    272832.06349  20592155.82849
        49.500          42.750  
 11  3 29 21 21 45.0000000  0 10G11G14G16G20G22G23G24G25G30G31      
  23228652.914 6     -2339.197 6   2876468.264 6   2242072.30447  23228646.91447
        43.500          28.500  
  23529748.063 6     -2501.848 6   3663193.310 6   2847425.33146  23529740.42246
        42.500          24.250  
  24672458.672 4      3450.155 4  -3644594.939 4  -3786918.38745  24672455.13345
        38.750          18.250  
  21842323.031 6      2617.350 6  -6025322.827 6  -4647950.39648  21842315.21548
        46.000          34.750  
  24831878.688 4     -3324.408 4   4969885.612 4   3866485.10846  24831874.62146
        39.000          20.750  
  23356986.570 6      2502.194 6  -5554683.339 6  -4283985.36847  23356979.04747
        45.500          29.000  
  21724143.203 7     -1346.196 7    676054.913 7    543492.58748  21724137.08648
        49.250          36.500  
  24068188.039 6     -1085.204 6    187027.773 6    149081.35247  24068184.79347
        43.500          26.500  
  23414025.500 6      3333.501 6  -6830019.284 6  -5314189.99947  23414020.73047
        44.500          26.750  
  20595483.945 7     -1162.870 7    343032.125 7    286424.05149  20595475.01649
        50.500          42.500  
 11  3 29 21 22  0.0000000  0 10G11G14G16G20G22G23G24G25G30G31      
  23235342.773 6     -2343.689 6   2911623.594 6   2269466.01947  23235336.94947
        44.500          28.500  
  23536891.438 5     -2502.713 5   3700734.009 5   2876677.78446  23536884.73446
        42.250          24.750  
  24662606.906 4      3451.028 4  -3696360.360 4  -3827254.98045  24662604.71545
        38.500          17.250  
  21834865.094 6      2612.773 6  -6064514.427 6  -4678489.27248  21834856.92648
        45.750          34.500  
  24841374.500 5     -3326.484 5   5019782.867 5   3905365.95746  24841370.31646
        39.500          21.000  
  23349848.758 6      2500.626 6  -5592192.736 6  -4313213.41647  23349841.23447
        45.500          29.000  
  21728009.750 7     -1354.545 7    696373.089 7    559324.91948  21728003.69148
        48.500          36.500  
  24071310.469 6     -1094.173 6    203440.364 6    161870.36646  24071307.04746
        43.000          25.000  
  23404516.711 6      3331.171 6  -6879986.849 6  -5353125.66847  23404512.46947
        44.500          28.000  
  20598826.852 7     -1171.128 7    360599.049 7    300112.56749  20598817.62949
        50.500          42.500  
 11  3 29 21 22 15.0000000  0 10G11G14G16G20G22G23G24G25G30G31      
  23242045.453 6     -2348.125 6   2946845.476 6   2296911.60347  23242039.27747
        44.500          29.250  
  23544036.875 5     -2503.536 5   3738287.054 5   2905939.88046  23544030.40646
        42.000          23.000  
  24652752.711 4      3451.914 4  -3748139.065 4  -3867601.83645  24652751.80945
        38.000          18.500  
  21827420.688 6      2608.205 6  -6103637.503 6  -4708974.75648  21827412.52048
        46.750          34.750  
  24850876.211 5     -3328.526 5   5069710.751 5   3944270.73746  24850871.26646
        41.250          20.500  
  23342715.883 6      2499.092 6  -5629679.117 6  -4342423.52447  23342707.48047
        46.250          28.250  
  21731899.758 7     -1362.856 7    716815.923 7    575254.38248  21731893.40648
        49.000          36.500  
  24074459.711 6     -1103.101 6    219986.877 6    174763.75747  24074455.82047
        44.250          26.500  
  23395014.906 6      3328.847 6  -6929919.557 6  -5392034.18347  23395010.25447
        44.750          28.500  
  20602193.250 7     -1179.343 7    378289.197 7    313897.10049  20602184.26249
        51.250          42.000  
 11  3 29 21 22 30.0000000  0 10G11G14G16G20G22G23G24G25G30G31      
  23248759.961 6     -2352.538 6   2982133.549 6   2324408.78047  23248753.66847
        43.250          27.500  
  23551186.063 6     -2504.354 6   3775852.368 6   2935211.50146  23551179.24246
        42.500          25.500  
  24642896.820 4      3452.766 4  -3799930.547 4  -3907958.69846  24642895.56646
        38.500          19.000  
  21819988.578 6      2603.624 6  -6142691.865 6  -4739406.70548  21819980.29348
        47.000          35.250  
  24860381.945 5     -3330.559 5   5119669.143 5   3983199.25546  24860378.87546
        39.500          22.000  
  23335586.500 6      2497.542 6  -5667142.251 6  -4371615.52747  23335579.09447
        45.500          28.250  
  21735813.703 7     -1371.155 7    737383.244 7    591280.85148  21735807.70348
        48.250          36.750  
  24077633.789 6     -1112.028 6    236667.299 6    187761.45547  24077630.66047
        42.750          27.250  
  23385519.094 6      3326.509 6  -6979817.191 6  -5430915.36747  23385514.73447
        44.500          27.500  
  20605582.953 7     -1187.539 7    396102.289 7    327777.43649  20605573.67249
        50.750          42.250  
 11  3 29 21 22 45.0000000  0 10G11G14G16G20G22G23G24G25G30G31      
  23255487.586 6     -2356.966 6   3017488.044 6   2351957.69447  23255481.99647
        43.750          28.750  
  23558335.906 5     -2505.212 5   3813430.553 5   2964493.15846  23558330.19946
        42.000          24.500  
  24633040.102 4      3453.550 4  -3851733.795 4  -3948324.69245  24633037.85245
        39.000          18.500  
  21812569.914 6      2598.987 6  -6181676.668 6  -4769784.44148  21812561.74648
        46.250          35.250  
  24869894.344 5     -3332.610 5   5169658.288 5   4022151.72846  24869891.27346
        39.750          20.000  
  23328462.094 6      2495.968 6  -5704581.769 6  -4400789.12947  23328454.27747
        44.500          28.750  
  21739751.344 7     -1379.475 7    758075.362 7    607404.56148  21739745.40248
        48.000          36.500  
  24080833.766 5     -1120.982 5    253482.030 5    200863.81546  24080830.93046
        42.000          26.250  
  23376031.656 6      3324.093 6  -7029678.582 6  -5469768.29747  23376026.88747
        45.000          27.750  
  20608996.367 7     -1195.756 7    414038.634 7    341753.80749  20608986.91049
        50.500          42.250  
 11  3 29 21 23  0.0000000  0 10G11G14G16G20G22G23G24G25G30G31      
  23262228.109 6     -2361.324 6   3052907.908 6   2379557.55147  23262222.63747
        44.750          27.500  
  23565489.406 6     -2506.019 6   3851020.834 6   2993784.26546  23565482.93846
        42.500          24.500  
  24623180.375 4      3454.362 4  -3903549.225 4  -3988700.26346  24623177.83246
        39.000          19.000  
  21805164.594 6      2594.366 6  -6220592.156 6  -4800108.17548  21805156.42648
        47.250          34.750  
  24879413.281 5     -3334.608 5   5219677.401 5   4061127.56746  24879409.33246
        40.500          21.750  
  23321341.391 6      2494.426 6  -5741998.163 6  -4429944.69747  23321334.04347
        45.750          29.000  
  21743712.188 7     -1387.731 7    778891.332 7    623624.78548  21743706.53948
        49.250          37.000  
  24084059.391 6     -1129.885 6    270430.302 6    214070.26047  24084055.85247
        42.500          26.750  
  23366549.578 6      3321.691 6  -7079503.941 6  -5508593.15547  23366544.57447
        45.000          28.750  
  20612432.750 7     -1203.918 7    432097.404 7    355825.57449  20612423.29349
        50.250          42.500  
 11  3 29 21 23 15.0000000  0 10G11G14G16G20G22G23G24G25G30G31      
  23268980.484 5     -2365.677 5   3088393.058 5   2407208.28247  23268975.36347
        42.000          28.250  
  23572645.313 6     -2506.844 6   3888623.495 6   3023085.00846  23572639.07846
        42.500          25.000  
  24613316.305 3      3455.133 3  -3955376.218 3  -4029084.79946  24613314.52346
        37.000          19.000  
  21797772.242 6      2589.709 6  -6259437.791 6  -4830377.47648  21797764.07448
        46.500          34.750  
  24888936.883 5     -3336.612 5   5269726.585 5   4100126.84246  24888933.34446
        39.500          21.250  
  23314226.445 6      2492.868 6  -5779391.181 6  -4459082.04447  23314218.04347
        46.250          28.500  
  21747696.609 7     -1395.988 7    799831.160 7    639941.50748  21747690.96148
        48.750          36.250  
  24087310.203 6     -1138.800 6    287512.304 6    227380.89447  24087306.19547
        43.500          27.750  
  23357075.375 6      3319.246 6  -7129292.637 6  -5547389.44447  23357070.31347
        44.750          28.000  
  20615892.203 7     -1212.078 7    450278.576 7    369992.71849  20615883.03949
        51.000          42.500  
 11  3 29 21 23 30.0000000  0 10G11G14G16G20G22G23G24G25G30G31      
  23275746.117 6     -2370.018 6   3123943.334 6   2434909.74347  23275739.94147
        44.000          28.000  
  23579804.188 6     -2507.677 6   3926238.650 6   3052395.46546  23579797.36746
        42.500          25.250  
  24603452.016 4      3455.863 4  -4007214.160 4  -4069477.82845  24603450.58645
        37.750          18.500  
  21790393.813 7      2585.039 7  -6298213.378 7  -4860592.18848  21790385.58648
        48.000          35.000  
  24898467.594 5     -3338.632 5   5319806.067 5   4139149.71146  24898463.41046
        40.000          21.250  
  23307115.336 6      2491.305 6  -5816760.759 6  -4488201.14547  23307106.81647
        46.500          29.000  
  21751705.148 7     -1404.242 7    820894.785 7    656354.70948  21751699.50048
        49.500          36.500  
  24090586.008 6     -1147.715 6    304728.023 6    240795.73447  24090582.76247
        44.000          27.000  
  23347607.133 6      3316.775 6  -7179044.262 6  -5586156.85547  23347602.48047
        44.500          26.750  
  20619375.453 7     -1220.225 7    468581.945 7    384255.09249  20619366.23049
        51.500          42.250  
 11  3 29 21 23 45.0000000  0 10G11G14G16G20G22G23G24G25G30G31      
  23282522.969 6     -2374.311 6   3159558.001 6   2462661.39347  23282517.67247
        44.000          28.750  
  23586964.320 6     -2508.484 6   3963865.910 6   3081715.38646  23586956.73846
        42.500          24.500  
  24593587.289 4      3456.595 4  -4059063.085 4  -4109879.51046  24593584.04346
        38.000          19.000  
  21783028.523 7      2580.359 7  -6336918.767 7  -4890752.19848  21783020.53148
        48.000          35.000  
  24908003.063 5     -3340.597 5   5369915.018 5   4178195.55446  24907998.93846
        40.000          20.250  
  23300007.820 6      2489.764 6  -5854107.213 6  -4517302.22447  23299999.88747
        45.500          28.500  
  21755736.969 7     -1412.454 7    842081.602 7    672863.90148  21755731.14548
        49.500          36.750  
  24093886.625 5     -1156.603 5    322077.074 5    254314.45247  24093884.90247
        41.750          27.000  
  23338147.227 6      3314.293 6  -7228758.656 6  -5624895.25147  23338142.51647
        44.750          28.000  
  20622881.852 7     -1228.347 7    487007.146 7    398612.39049  20622872.92249
        50.250          42.000  
 11  3 29 21 24  0.0000000  0 10G11G14G16G20G22G23G24G25G30G31      
  23289313.406 6     -2378.619 6   3195237.281 6   2490463.38147  23289307.23047
        42.500          27.500  
  23594126.250 5     -2509.333 5   4001505.904 5   3111045.20646  23594119.78146
        42.250          24.250  
  24583717.688 3      3457.262 3  -4110922.011 3  -4150288.94146  24583715.61346
        36.750          19.000  
  21775676.688 6      2575.629 6  -6375553.202 6  -4920856.92748  21775668.05148
        47.500          35.000  
  24917544.320 5     -3342.589 5   5420053.859 5   4217264.66046  24917539.84446
        39.750          21.500  
  23292905.211 6      2488.182 6  -5891429.944 6  -4546384.80247  23292897.51247
        44.750          28.250  
  21759792.672 7     -1420.693 7    863391.999 7    689469.39148  21759786.84848
        49.500          36.750  
  24097214.438 5     -1165.517 5    339559.826 5    267937.36647  24097211.25047
        42.000          27.250  
  23328693.922 6      3311.743 6  -7278434.809 6  -5663603.84647  23328689.15247
        45.000          27.500  
  20626411.148 7     -1236.485 7    505554.416 7    413064.80249  20626401.92649
        49.500          41.500  
 11  3 29 21 24 15.0000000  0 10G11G14G16G20G22G23G24G25G30G31      
  23296114.359 6     -2382.876 6   3230980.424 6   2518315.15247  23296108.53547
        42.750          27.750  
  23601290.922 5     -2510.136 5   4039157.938 5   3140384.41146  23601284.86346
        42.000          25.000  
  24573845.875 3      3457.953 3  -4162791.304 3  -4190706.43245  24573844.73845
        36.750          18.250  
  21768338.047 7      2570.917 7  -6414116.954 7  -4950906.57548  21768329.76248
        48.250          34.250  
  24927091.094 5     -3344.541 5   5470221.978 5   4256356.63946  24927086.09046
        40.750          22.000  
  23285807.430 6      2486.617 6  -5928729.198 6  -4575449.09347  23285799.73047
        45.500          28.500  
  21763871.086 7     -1428.884 7    884825.256 7    706170.60548  21763865.08648
        49.000          35.750  
  24100566.586 6     -1174.391 6    357175.696 6    281664.01947  24100562.69547
        44.500          27.000  
  23319248.109 6      3309.193 6  -7328072.707 6  -5702282.64147  23319243.10547
        45.250          27.500  
  20629963.758 7     -1244.558 7    524222.791 7    427611.59149  20629954.53549
        51.000          42.000  
 11  3 29 21 24 30.0000000  0 10G11G14G16G20G22G23G24G25G30G31      
  23302927.875 6     -2387.120 6   3266787.226 6   2546216.50947  23302922.69547
        44.000          27.250  
  23608458.211 5     -2510.965 5   4076822.413 5   3169733.32446  23608451.91846
        40.500          25.000  
  24563974.156 4      3458.595 4  -4214670.229 4  -4231131.45845  24563971.90645
        37.500          18.500  
  21761013.063 6      2566.162 6  -6452609.382 6  -4980900.65248  21761005.07048
        47.250          34.750  
  24936642.578 4     -3346.495 4   5520419.409 4   4295471.43946  24936638.80546
        38.500          21.000  
  23278714.258 6      2485.045 6  -5966004.878 6  -4604495.01247  23278706.50047
        44.000          29.000  
  21767973.039 7     -1437.076 7    906381.391 7    722967.57848  21767967.15648
        48.750          36.500  
  24103943.688 6     -1183.281 6    374924.909 6    295494.58446  24103940.38346
        43.000          25.500  
  23309809.617 6      3306.597 6  -7377671.664 6  -5740931.08446  23309804.55546
        45.500          26.250  
  20633539.383 7     -1252.652 7    543012.576 7    442252.98249  20633530.21949
        50.750          42.500  
 11  3 29 21 24 45.0000000  0 10G11G14G16G20G22G23G24G25G30G31      
  23309754.461 6     -2391.338 6   3302657.298 6   2574167.16047  23309748.63747
        43.000          28.500  
  23615628.703 5     -2511.784 5   4114499.169 5   3199091.78646  23615622.00046
        42.000          26.000  
  24554098.813 2      3459.212 2  -4266558.404 2  -4271563.68145  24554098.26245
        35.250          18.250  
  21753701.492 6      2561.403 6  -6491030.430 6  -5010839.10248  21753693.38348
        47.500          35.500  
  24946200.719 4     -3348.448 4   5570646.133 4   4334609.01846  24946196.82846
        38.750          20.500  
  23271625.688 6      2483.482 6  -6003257.105 6  -4633522.65247  23271617.63747
        44.500          28.750  
  21772098.406 7     -1445.247 7    928060.096 7    739860.05548  21772092.52348
        48.750          36.000  
  24107346.125 6     -1192.152 6    392807.188 6    309428.82547  24107342.99647
        43.500          26.750  
  23300378.258 6      3303.989 6  -7427231.496 6  -5779549.03747  23300373.66447
        45.000          27.000  
  20637137.891 7     -1260.729 7    561923.513 7    456988.77649  20637128.60949
        51.000          42.000  
 11  3 29 21 25  0.0000000  0 10G11G14G16G20G22G23G24G25G30G31      
  23316591.945 6     -2395.546 6   3338590.489 6   2602167.00547  23316586.23847
        42.750          28.000  
  23622800.289 5     -2512.607 5   4152188.270 5   3228459.87846  23622793.99646
        41.000          23.500  
  24544223.133 3      3459.794 3  -4318455.315 3  -4312002.67146  24544222.28946
        36.750          19.000  
  21746404.031 6      2556.598 6  -6529379.408 6  -5040721.39848  21746395.86348
        47.000          35.000  
  24955763.523 4     -3350.379 4   5620901.819 4   4373769.21346  24955760.68846
        38.000          22.500  
  23264541.109 6      2481.900 6  -6040485.608 6  -4662531.81647  23264533.11747
        45.250          28.750  
  21776246.820 7     -1453.416 7    949861.337 7    756848.01648  21776241.05548
        48.250          35.500  
  24110775.250 6     -1201.028 6    410822.612 6    323466.82647  24110772.00447
        44.000          26.750  
  23290955.508 6      3301.333 6  -7476751.498 6  -5818135.96547  23290950.15247
        45.250          27.500  
  20640759.305 7     -1268.792 7    580955.389 7    471818.80349  20640750.19949
        50.500          42.000  
 11  3 29 21 25 15.0000000  0 10G11G14G16G20G22G23G24G25G30G31      
  23323441.930 6     -2399.698 6   3374585.963 6   2630215.37947  23323435.05147
        44.000          27.000  
  23629974.547 5     -2513.397 5   4189889.222 5   3257837.21046  23629968.02046
        39.250          25.250  
  24534346.469 3      3460.367 3  -4370360.817 3  -4352448.42946  24534344.74646
        37.250          20.000  
  21739120.148 6      2551.814 6  -6567656.620 6  -5070547.76748  21739112.21548
        45.250          34.750  
  24965333.508 4     -3352.288 4   5671186.141 4   4412951.68646  24965330.43846
        37.500          22.000  
  23257460.891 6      2480.344 6  -6077690.764 6  -4691522.78047  23257452.84047
        43.000          29.000  
  21780418.695 6     -1461.540 6    971784.441 6    773930.93848  21780412.81348
        47.000          36.000  
  24114228.000 6     -1209.870 6    428970.668 6    337608.15247  24114225.34047
        44.250          26.750  
  23281539.609 6      3298.681 6  -7526231.716 6  -5856691.89147  23281534.78147
        46.000          27.500  
  20644403.547 7     -1276.808 7    600107.513 7    486742.53449  20644394.55949
        51.000          42.000  
 11  3 29 21 25 30.0000000  0 10G11G14G16G20G22G23G24G25G30G31      
  23330303.711 6     -2403.853 6   3410643.763 6   2658312.33247  23330297.77047
        44.250          28.000  
  23637151.094 5     -2514.214 5   4227602.429 5   3287224.09146  23637144.85946
        41.500          25.250  
  24524467.688 3      3460.900 3  -4422274.314 3  -4392900.36546  24524466.55146
        37.000          19.000  
  21731850.039 6      2546.980 6  -6605861.316 6  -5100317.63148  21731842.10548
        46.750          35.500  
  24974906.148 3     -3354.216 3   5721499.378 3   4452156.75146  24974904.36746
        36.750          21.500  
  23250385.625 6      2478.762 6  -6114872.188 6  -4720495.24347  23250378.27747
        44.500          29.750  
  21784613.727 7     -1469.681 7    993829.654 7    791109.01048  21784607.72748
        48.000          36.000  
  24117707.438 6     -1218.728 6    447251.592 6    351853.05047  24117704.19147
        43.500          27.750  
  23272130.445 6      3295.979 6  -7575671.394 6  -5895216.23347  23272126.14547
        46.000          27.750  
  20648071.453 7     -1284.837 7    619380.068 7    501760.10649  20648061.99649
        50.750          41.750  
 11  3 29 21 25 45.0000000  0 10G11G14G16G20G22G23G24G25G30G31      
  23337177.008 6     -2407.967 6   3446763.262 6   2686457.35047  23337171.35947
        43.750          29.000  
  23644329.594 5     -2515.010 5   4265327.586 5   3316620.27546  23644323.59446
        39.750          24.250  
  24514588.609 4      3461.433 4  -4474195.802 4  -4433358.50245  24514585.59845
        38.250          18.500  
  21724593.789 6      2542.148 6  -6643993.532 6  -5130031.02848  21724585.68048
        47.000          35.250  
  24984486.641 3     -3356.103 3   5771840.928 3   4491383.84146  24984483.92246
        36.000          21.750  
  23243314.922 6      2477.198 6  -6152030.151 6  -4749449.44247  23243306.75447
        45.000          29.500  
  21788831.891 6     -1477.780 6   1015996.352 6    808381.73648  21788826.30148
        47.500          36.500  
  24121210.742 5     -1227.560 5    465664.988 5    366201.14547  24121207.90647
        40.250          27.250  
  23262730.703 6      3293.269 6  -7625070.426 6  -5933708.90247  23262726.05147
        45.500          27.000  
  20651761.766 7     -1292.833 7    638772.560 7    516871.12549  20651752.36749
        50.000          41.500  
 11  3 29 21 26  0.0000000  0 10G11G14G16G20G22G23G24G25G30G31      
  23344062.000 6     -2412.076 6   3482944.409 6   2714650.40747  23344056.23447
        43.750          28.750  
  23651511.234 5     -2515.817 5   4303064.847 5   3346025.92446  23651504.12146
        40.500          22.750  
  24504705.688 3      3461.918 3  -4526124.569 3  -4473822.39246  24504703.96546
        36.500          19.000  
  21717351.203 6      2537.272 6  -6682052.607 6  -5159687.42448  21717343.03548
        45.000          35.500  
  24994072.203 3     -3358.004 3   5822210.992 3   4530633.11146  24994068.89846
        36.500          20.250  
  23236248.281 6      2475.620 6  -6189164.450 6  -4778385.20647  23236240.28947
        43.250          29.250  
  21793073.367 6     -1485.883 6   1038284.599 6    825749.18548  21793067.54348
        47.250          36.500  
  24124740.406 5     -1236.399 5    484210.977 5    380652.56846  24124737.04346
        42.000          26.000  
  23253338.352 6      3290.514 6  -7674428.132 6  -5972169.38247  23253333.34847
        46.250          28.000  
  20655474.688 7     -1300.834 7    658285.067 7    532075.67649  20655465.58249
        50.500          41.500  
 11  3 29 21 26 15.0000000  0 10G11G14G16G20G22G23G24G25G30G31      
  23350958.703 6     -2416.150 6   3519186.652 6   2742891.07347  23350952.82047
        44.500          28.000  
  23658694.648 5     -2516.602 5   4340813.877 5   3375440.68546  23658688.53146
        41.500          23.750  
  24494823.164 3      3462.406 3  -4578060.657 3  -4514291.86546  24494820.21146
        37.000          19.000  
  21710122.641 6      2532.398 6  -6720038.571 6  -5189286.85248  21710114.29748
        45.250          35.000  
  25003662.906 3     -3359.873 3   5872609.091 3   4569904.27946  25003659.66046
        36.000          20.000  
  23229186.102 6      2474.046 6  -6226275.138 6  -4807302.55347  23229178.22747
        44.250          29.250  
  21797337.391 6     -1493.950 6   1060693.856 6    843210.92548  21797331.91848
        47.000          36.000  
  24128294.477 6     -1245.211 6    502889.144 6    395206.97547  24128291.58247
        44.250          28.000  
  23243954.086 6      3287.749 6  -7723744.374 6  -6010597.52347  23243948.96547
        46.500          29.000  
  20659210.734 7     -1308.790 7    677916.915 7    547373.21449  20659201.27749
        51.000          42.250  
 11  3 29 21 26 30.0000000  0 10G11G14G16G20G22G23G24G25G30G31      
  23357866.570 6     -2420.181 6   3555489.362 6   2771178.86447  23357861.09847
        44.000          27.250  
  23665880.531 5     -2517.375 5   4378574.507 5   3404864.51846  23665874.59046
        41.000          24.000  
  24484938.086 3      3462.879 3  -4630003.843 3  -4554767.01246  24484935.89546
        36.500          20.500  
  21702908.211 6      2527.528 6  -6757951.497 6  -5218829.36248  21702899.98448
        45.750          35.500  
  25013257.297 1     -3361.709 1   5923034.723 1   4609196.86246  25013255.04746
        33.500          19.250  
  23222128.078 6      2472.497 6  -6263362.596 6  -4836201.80947  23222120.37947
        46.250          29.500  
  21801624.922 6     -1501.985 6   1083223.636 6    860766.57748  21801619.09848
        46.750          35.750  
  24131874.555 6     -1253.999 6    521699.134 6    409864.11647  24131871.07447
        44.500          28.000  
  23234577.352 6      3284.964 6  -7773018.840 6  -6048993.13647  23234571.87947
        46.250          27.750  
  20662968.992 7     -1316.711 7    697667.583 7    562763.33949  20662960.06349
        51.500          42.000  
 11  3 29 21 26 45.0000000  0 10G11G14G16G20G22G23G24G25G30G31      
  23364786.586 6     -2424.240 6   3591852.960 6   2799514.08147  23364780.52747
        44.250          28.000  
  23673068.852 5     -2518.202 5   4416347.537 5   3434298.02646  23673062.32446
        41.250          25.000  
  24475052.320 3      3463.269 3  -4681952.879 3  -4595246.57046  24475050.24646
        37.250          19.500  
  21695707.992 6      2522.574 6  -6795790.113 6  -5248313.97448  21695699.64848
        45.500          35.500  
  25022860.758 4     -3363.595 4   5973488.650 4   4648511.57346  25022856.45746
        37.750          19.750  
  23215076.313 6      2470.893 6  -6300425.997 6  -4865082.32047  23215067.67647
        45.750          29.250  
  21805935.305 6     -1510.067 6   1105874.639 6    878416.69748  21805929.24648
        47.250          35.500  
  24135478.273 6     -1262.835 6    540641.663 6    424624.53847  24135475.02747
        43.750          27.000  
  23225208.117 6      3282.103 6  -7822250.386 6  -6087355.29647  23225203.58247
        46.000          28.500  
  20666749.945 7     -1324.688 7    717537.900 7    578246.69749  20666740.84049
        51.000          42.000  
 11  3 29 21 27  0.0000000  0 10G11G14G16G20G22G23G24G25G30G31      
  23371717.695 6     -2428.238 6   3628276.535 6   2827896.05347  23371711.93047
        44.500          27.500  
  23680258.266 5     -2518.977 5   4454132.198 5   3463740.58646  23680252.61746
        40.500          22.000  
  24465166.547 3      3463.672 3  -4733907.958 3  -4635730.93146  24465163.00846
        36.250          20.000  
  21688521.000 6      2517.656 6  -6833554.951 6  -5277741.09648  21688513.12548
        46.250          35.750  
  25032465.664 1     -3365.423 1   6023969.999 1   4687847.56746  25032462.59446
        33.750          20.750  
  23208027.328 6      2469.325 6  -6337465.872 6  -4893944.50147  23208019.16047
        46.750          30.000  
  21810268.570 6     -1518.085 6   1128645.911 6    896160.52048  21810262.68848
        47.250          35.750  
  24139108.883 6     -1271.624 6    559716.021 6    439487.66846  24139104.69946
        44.250          25.500  
  23215848.039 6      3279.260 6  -7871439.279 6  -6125684.22147  23215843.15247
        45.750          27.750  
  20670553.672 7     -1332.583 7    737526.651 7    593822.34549  20670544.56649
        50.750          41.500  
 11  3 29 21 27 15.0000000  0 10G11G14G16G20G22G23G24G25G30G31      
  23378660.156 6     -2432.218 6   3664759.805 6   2856324.51047  23378654.62547
        44.500          28.500  
  23687451.172 5     -2519.770 5   4491928.753 5   3493192.39446  23687444.17646
        40.750          22.500  
  24455277.656 4      3464.044 4  -4785868.623 4  -4676219.57646  24455275.05546
        38.000          19.750  
  21681349.125 6      2512.700 6  -6871245.458 6  -5307110.29548  21681340.78148
        46.000          36.000  
  25042077.602 3     -3367.272 3   6074479.085 3   4727205.25746  25042074.82446
        35.750          20.250  
  23200983.430 6      2467.740 6  -6374481.977 6  -4922788.15447  23200974.79347
        44.250          29.000  
  21814624.867 7     -1526.100 7   1151537.409 7    913998.03348  21814618.57448
        47.750          35.750  
  24142762.898 6     -1280.412 6    578922.205 6    454453.52246  24142759.77046
        43.500          25.500  
  23206495.906 6      3276.381 6  -7920584.994 6  -6163979.50047  23206490.96147
        46.500          28.500  
  20674380.234 7     -1340.494 7    757634.061 7    609490.45549  20674371.36349
        51.000          42.000  
 11  3 29 21 27 30.0000000  0 10G11G14G16G20G22G23G24G25G30G31      
  23385613.906 6     -2436.196 6   3701302.740 6   2884799.49247  23385608.60947
        44.500          27.000  
  23694646.289 5     -2520.567 5   4529737.264 5   3522653.53546  23694639.87946
        41.250          24.000  
  24445388.242 2      3464.371 2  -4837834.181 2  -4716712.11046  24445386.52046
        35.250          21.500  
  21674191.094 6      2507.716 6  -6908861.191 6  -5336421.22748  21674182.80948
        45.250          35.250  
  25051692.852 1     -3369.101 1   6125015.606 1   4766584.34346  25051691.65646
        32.250          19.250  
  23193944.273 6      2466.140 6  -6411474.076 6  -4951613.10647  23193935.98847
        43.250          30.000  
  21819003.516 6     -1534.118 6   1174549.174 6    931929.26448  21818997.86748
        47.000          36.000  
  24146442.117 6     -1289.207 6    598260.309 6    469522.17746  24146439.63346
        42.500          25.500  
  23197151.805 6      3273.458 6  -7969686.863 6  -6202240.59047  23197147.03547
        46.500          28.750  
  20678229.195 7     -1348.402 7    777860.085 7    625250.98549  20678220.14849
        50.500          41.500  
 11  3 29 21 27 45.0000000  0 10G11G14G16G20G22G23G24G25G30G31      
  23392579.656 6     -2440.129 6   3737904.681 6   2913320.41947  23392573.18847
        44.000          26.500  
  23701842.766 5     -2521.354 5   4567557.576 5   3552123.85646  23701836.64846
        40.000          22.500  
  24435499.328 3      3464.688 3  -4889804.497 3  -4757208.23346  24435497.02046
        36.250          21.250  
  21667047.094 6      2502.717 6  -6946401.940 6  -5365673.74148  21667038.45748
        46.000          35.250  
  25061316.906 2     -3370.934 2   6175579.619 2   4805984.66446  25061313.42646
        34.500          19.000  
  23186909.406 6      2464.556 6  -6448442.419 6  -4980419.54547  23186900.53547
        43.500          29.500  
  21823405.625 7     -1542.105 7   1197680.746 7    949953.84148  21823399.56648
        48.500          36.250  
  24150147.539 6     -1297.981 6    617730.024 6    484693.36446  24150144.93846
        43.000          26.250  
  23187816.742 6      3270.516 6  -8018744.601 6  -6240467.31647  23187811.97347
        46.250          29.500  
  20682100.641 7     -1356.277 7    798204.236 7    641103.56549  20682091.53549
        50.750          41.500  
 11  3 29 21 28  0.0000000  0 10G11G14G16G20G22G23G24G25G30G31      
  23399556.219 6     -2444.024 6   3774565.041 6   2941886.89247  23399549.63347
        43.750          26.500  
  23709042.477 4     -2522.118 4   4605389.352 4   3581603.11746  23709035.77346
        39.000          22.500  
  24425607.500 3      3464.994 3  -4941779.411 3  -4797708.01846  24425606.77346
        36.750          21.750  
  21659917.703 6      2497.721 6  -6983867.755 6  -5394867.86248  21659908.89148
        46.000          35.500  
  25070943.883 3     -3372.705 3   6226170.194 3   4845405.87345  25070940.69545
        36.250          18.250  
  23179878.617 6      2462.983 6  -6485387.160 6  -5009207.60447  23179870.15647
        44.250          30.500  
  21827830.195 6     -1550.055 6   1220931.568 6    968071.35548  21827824.48848
        47.000          35.750  
  24153878.695 6     -1306.727 6    637330.931 6    499966.78347  24153875.09847
        43.000          28.500  
  23178489.648 6      3267.558 6  -8067757.967 6  -6278659.46247  23178484.76247
        46.500          30.250  
  20685994.352 7     -1364.112 7    818665.915 7    657047.72549  20685985.36349
        51.000          42.000  
 11  3 29 21 28 15.0000000  0 10G11G14G16G20G22G23G24G25G30G31      
  23406543.406 6     -2447.913 6   3811283.733 6   2970498.80747  23406537.40647
        43.500          28.000  
  23716243.313 5     -2522.886 5   4643232.646 5   3611091.36446  23716236.72746
        40.000          24.000  
  24415717.609 4      3465.277 4  -4993758.565 4  -4838211.03146  24415715.00846
        37.500          21.500  
  21652802.180 6      2492.693 6  -7021258.144 6  -5424003.19748  21652793.89548
        47.000          35.250  
  25080575.430 2     -3374.489 2   6276787.528 2   4884847.87046  25080573.00446
        34.500          19.500  
  23172852.898 6      2461.402 6  -6522308.196 6  -5037977.14947  23172844.96547
        46.000          30.500  
  21832277.094 6     -1558.000 6   1244301.562 6    986281.71248  21832271.27048
        47.500          36.000  
  24157633.602 5     -1315.471 5    657062.995 5    515342.40647  24157630.12147
        41.250          28.000  
  23169171.172 6      3264.568 6  -8116726.484 6  -6316816.64547  23169166.28547
        46.000          29.500  
  20689910.391 7     -1371.939 7    839245.001 7    673083.37549  20689901.52049
        49.750          41.750  
 11  3 29 21 28 30.0000000  0 10G11G14G16G20G22G23G24G25G30G31      
  23413542.000 6     -2451.775 6   3848060.358 6   2999155.86047  23413536.11747
        44.000          27.250  
  23723447.000 5     -2523.664 5   4681087.609 5   3640588.68646  23723440.64846
        40.000          22.750  
  24405824.281 3      3465.528 3  -5045741.483 3  -4878717.06746  24405822.73446
        36.500          21.500  
  21645701.805 6      2487.653 6  -7058572.937 6  -5453079.63248  21645693.28548
        47.000          35.500  
  25090212.766 2     -3376.250 2   6327431.279 2   4924310.42646  25090209.75446
        35.000          20.000  
  23165831.609 6      2459.822 6  -6559205.519 6  -5066728.25147  23165823.14847
        44.500          30.000  
  21836746.867 6     -1565.929 6   1267790.504 6   1004584.76848  21836741.16048
        47.500          35.500  
  24161413.641 5     -1324.209 5    676926.135 5    530820.17947  24161409.04747
        41.250          27.000  
  23159861.609 6      3261.553 6  -8165649.772 6  -6354938.60147  23159856.19547
        45.750          28.000  
  20693848.766 7     -1379.753 7    859941.292 7    689210.34249  20693839.83649
        49.500          41.500  
 11  3 29 21 28 45.0000000  0 10G11G14G16G20G22G23G24G25G30G31      
  23420551.148 6     -2455.623 6   3884894.696 6   3027857.90747  23420545.55947
        43.750          28.000  
  23730652.906 4     -2524.453 4   4718954.409 4   3670095.23346  23730646.02746
        39.000          24.500  
  24395931.484 4      3465.738 4  -5097727.551 4  -4919225.49946  24395929.82046
        38.000          21.000  
  21638615.500 6      2482.578 6  -7095811.609 6  -5482096.75448  21638607.09848
        47.000          35.750  
  25099856.438 3     -3378.024 3   6378101.634 3   4963793.72446  25099852.95746
        36.500          19.500  
  23158814.352 6      2458.218 6  -6596078.793 6  -5095460.60147  23158806.53547
        45.000          29.500  
  21841239.695 7     -1573.852 7   1291398.284 7   1022980.41748  21841233.57848
        48.000          36.000  
  24165216.961 6     -1332.953 6    696920.431 6    546400.14247  24165214.35947
        43.000          26.500  
  23150559.570 6      3258.495 6  -8214527.190 6  -6393024.81347  23150555.09447
        45.500          28.750  
  20697809.586 7     -1387.567 7    880754.801 7    705428.65849  20697800.42249
        51.000          41.750  
 11  3 29 21 29  0.0000000  0 10G11G14G16G20G22G23G24G25G30G31      
  23427571.422 6     -2459.476 6   3921786.836 6   3056604.96947  23427566.00847
        44.250          27.000  
  23737860.195 4     -2525.255 4   4756833.237 4   3699611.17646  23737854.13746
        38.750          22.750  
  24386039.211 4      3465.909 4  -5149716.190 4  -4959735.93046  24386036.60946
        38.250          21.250  
  21631543.539 6      2477.476 6  -7132973.752 6  -5511054.24948  21631535.13748
        47.500          35.500  
  25109501.828 2     -3379.809 2   6428798.769 2   5003297.97246  25109499.75446
        34.500          19.500  
  23151802.719 6      2456.596 6  -6632927.739 6  -5124173.99247  23151794.08247
        45.250          30.500  
  21845754.445 6     -1581.779 6   1315124.963 6   1041468.71648  21845748.44548
        46.750          36.250  
  24169046.945 5     -1341.706 5    717046.024 5    562082.38846  24169044.28546
        41.750          26.000  
  23141267.516 6      3255.381 6  -8263357.909 6  -6431074.62347  23141262.74647
        45.000          28.500  
  20701792.297 7     -1395.389 7    901685.631 7    721738.38849  20701783.36749
        50.750          41.750  
 11  3 29 21 29 15.0000000  0 10G11G14G16G20G22G23G24G25G30G31      
  23434602.531 6     -2463.253 6   3958735.627 6   3085396.19747  23434596.64847
        42.750          28.250  
  23745070.867 5     -2526.010 5   4794723.388 5   3729135.92146  23745064.98446
        39.750          22.500  
  24376144.836 4      3466.090 4  -5201707.542 4  -5000248.52446  24376142.64546
        38.250          22.000  
  21624486.383 7      2472.378 7  -7170059.424 7  -5539952.14948  21624478.33248
        47.750          35.750  
  25119155.391 4     -3381.541 4   6479521.879 4   5042822.38546  25119153.02346
        38.500          21.500  
  23144794.281 6      2455.028 6  -6669753.155 6  -5152869.07747  23144786.46547
        44.750          30.500  
  21850291.953 7     -1589.646 7   1338969.657 7   1060048.98148  21850286.18848
        48.000          36.250  
  24172901.242 5     -1350.405 5    737302.093 5    577866.33546  24172898.28946
        39.250          25.500  
  23131984.414 6      3252.289 6  -8312142.246 6  -6469088.29947  23131979.70347
        44.750          28.250  
  20705797.406 7     -1403.141 7    922732.748 7    738138.73949  20705788.41849
        49.750          41.750  
 11  3 29 21 29 30.0000000  0 10G11G14G16G20G22G23G24G25G30G31      
  23441644.797 6     -2467.010 6   3995740.782 6   3114231.32847  23441639.44147
        43.750          28.250  
  23752283.461 5     -2526.766 5   4832624.880 5   3758669.49146  23752277.22746
        40.250          22.750  
  24366251.641 4      3466.246 4  -5253701.236 4  -5040762.90946  24366248.51246
        39.000          21.750  
  21617443.820 7      2467.261 7  -7207068.337 7  -5568790.23648  21617435.77048
        47.750          35.750  
  25128811.453 3     -3383.259 3   6530270.760 3   5082366.90846  25128809.32046
        36.250          20.000  
  23137791.641 6      2453.445 6  -6706554.836 6  -5181545.63447  23137783.59047
        45.750          30.750  
  21854851.813 7     -1597.500 7   1362932.160 7   1078721.04048  21854846.04748
        48.500          35.500  
  24176781.109 5     -1359.103 5    757688.630 5    593751.91546  24176777.51246
        41.250          26.000  
  23122709.969 6      3249.166 6  -8360879.734 6  -6507065.46947  23122705.02347
        45.500          29.000  
  20709824.828 7     -1410.877 7    943895.897 7    754629.49749  20709815.54749
        50.000          41.500  
 11  3 29 21 29 45.0000000  0 10G11G14G16G20G22G23G24G25G30G31      
  23448697.680 6     -2470.752 6   4032802.061 6   3143110.18447  23448691.21147
        44.750          26.500  
  23759497.703 5     -2527.530 5   4870537.832 5   3788212.01346  23759492.17246
        40.000          24.500  
  24356355.633 4      3466.375 4  -5305696.865 4  -5081278.82346  24356353.67646
        38.500          22.000  
  21610416.125 7      2462.117 7  -7244000.095 7  -5597568.20348  21610407.84048
        48.250          36.000  
  25138475.039 3     -3384.971 3   6581045.324 3   5121931.48946  25138471.14846
        36.750          19.250  
  23130793.156 6      2451.851 6  -6743332.603 6  -5210203.57947  23130784.63747
        45.500          30.500  
  21859434.617 7     -1605.345 7   1387012.337 7   1097484.79648  21859428.32448
        48.000          35.750  
  24180686.266 6     -1367.791 6    778205.498 6    609739.07146  24180682.08246
        43.000          26.000  
  23113444.578 6      3246.016 6  -8409569.970 6  -6545005.81347  23113439.45747
        45.500          28.750  
  20713874.086 7     -1418.597 7    965174.853 7    771210.50049  20713864.98049
        50.500          42.000  
 11  3 29 21 30  0.0000000  0 10G11G14G16G20G22G23G24G25G30G31      
  23455760.766 6     -2474.464 6   4069919.028 6   3172032.46447  23455754.41447
        43.250          27.000  
  23766715.148 5     -2528.274 5   4908461.937 5   3817763.21646  23766708.38746
        40.500          22.000  
  24346461.578 4      3466.490 4  -5357694.215 4  -5121796.09546  24346459.32846
        38.500          21.250  
  21603403.063 7      2456.972 7  -7280854.680 7  -5626286.02748  21603394.30948
        48.250          36.500  
  25148141.992 3     -3386.667 3   6631845.333 3   5161515.83646  25148138.33646
        35.750          19.750  
  23123798.852 6      2450.276 6  -6780086.741 6  -5238843.10847  23123790.03947
        45.250          30.500  
  21864038.875 7     -1613.166 7   1411209.823 7   1116339.96448  21864032.81648
        48.250          35.500  
  24184614.727 6     -1376.460 6    798852.402 6    625827.54246  24184611.59846
        42.500          25.750  
  23104187.930 6      3242.837 6  -8458212.525 6  -6582909.01147  23104182.86747
        45.250          29.750  
  20717944.906 7     -1426.308 7    986569.474 7    787881.62949  20717936.03549
        50.750          42.000  
 11  3 29 21 30 15.0000000  0 10G11G14G16G20G22G23G24G25G30G31      
  23462833.891 6     -2478.184 6   4107091.786 6   3200998.20047  23462828.12547
        43.000          27.000  
  23773934.406 5     -2529.055 5   4946397.767 5   3847323.55546  23773927.58646
        39.500          22.750  
  24336566.758 5      3466.542 5  -5409692.340 5  -5162313.94146  24336563.92246
        39.750          22.000  
  21596404.469 7      2451.769 7  -7317631.209 7  -5654943.04048  21596395.89148
        48.000          35.500  
  25157812.945 4     -3388.388 4   6682671.149 4   5201120.34845  25157810.34445
        37.500          18.500  
  23116809.398 6      2448.653 6  -6816816.541 6  -5267463.67347  23116800.87947
        46.000          31.000  
  21868665.953 7     -1621.002 7   1435524.858 7   1135286.72548  21868660.18848
        49.000          35.000  
  24188568.047 5     -1385.158 5    819629.768 5    642017.68346  24188565.21146
        42.250          25.250  
  23094940.836 6      3239.594 6  -8506806.433 6  -6620774.29647  23094935.59847
        45.750          29.250  
  20722038.617 7     -1434.028 7   1008079.893 7    804642.98849  20722029.51249
        51.250          42.000  
 11  3 29 21 30 30.0000000  0 10G11G14G16G20G22G23G24G25G30G31      
  23469918.164 5     -2481.878 5   4144319.960 5   3230007.11647  23469912.98447
        41.500          27.000  
  23781154.789 4     -2529.833 4   4984345.255 4   3876892.98646  23781148.43846
        37.500          22.250  
  24326671.461 5      3466.569 5  -5461690.870 5  -5202832.13446  24326668.15646
        39.500          22.500  
  21589420.891 7      2446.546 7  -7354329.392 7  -5683538.99848  21589412.37148
        48.750          35.750  
  25167490.117 3     -3390.099 3   6733522.632 3   5240744.87146  25167487.16446
        37.250          19.000  
  23109824.117 6      2447.039 6  -6853522.123 6  -5296065.37747  23109816.06647
        45.500          30.750  
  21873315.609 7     -1628.823 7   1459957.207 7   1154324.90048  21873309.49248
        49.000          36.000  
  24192546.227 5     -1393.848 5    840537.496 5    658309.38046  24192544.85546
        42.000          25.500  
  23085702.852 6      3236.324 6  -8555351.296 6  -6658601.38047  23085698.19947
        45.000          29.750  
  20726153.750 7     -1441.729 7   1029705.822 7    821494.35949  20726144.93849
        51.000          41.750  
 11  3 29 21 30 45.0000000  0 10G11G14G16G20G22G23G24G25G30G31      
  23477012.922 5     -2485.507 5   4181602.560 5   3259058.43547  23477007.27347
        41.750          27.000  
  23788379.016 4     -2530.569 4   5022303.789 4   3906471.01446  23788372.31346
        38.750          22.000  
  24316776.703 5      3466.609 5  -5513690.001 5  -5243350.77546  24316773.75046
        40.250          21.750  
  21582452.313 7      2441.347 7  -7390949.599 7  -5712074.20448  21582443.96948
        48.750          35.500  
  25177172.086 4     -3391.745 4   6784398.802 4   5280388.50946  25177168.13746
        38.000          22.000  
  23102844.180 6      2445.451 6  -6890203.893 6  -5324648.51447  23102835.89547
        46.250          29.750  
  21877986.805 7     -1636.584 7   1484505.969 7   1173453.78348  21877981.21548
        49.250          35.750  
  24196550.602 6     -1402.485 6    861574.765 6    674702.01846  24196547.29746
        43.000          24.750  
  23076474.258 6      3233.073 6  -8603847.398 6  -6696390.45147  23076469.72347
        45.500          30.000  
  20730291.063 7     -1449.377 7   1051446.476 7    838435.12949  20730281.84049
        50.750          41.750  
 11  3 29 21 31  0.0000000  0 10G11G14G16G20G22G23G24G25G30G31      
  23484117.797 5     -2489.141 5   4218939.668 5   3288152.23347  23484112.26647
        42.250          27.250  
  23795604.180 4     -2531.309 4   5060273.427 4   3936057.72446  23795597.47746
        39.000          22.000  
  24306881.102 5      3466.603 5  -5565689.052 5  -5283869.37946  24306878.20746
        41.250          22.000  
  21575498.664 7      2436.123 7  -7427491.437 7  -5740548.33148  21575490.14548
        48.750          35.500  
  25186858.234 4     -3393.411 4   6835299.961 4   5320051.75846  25186854.16846
        38.750          21.500  
  23095868.594 6      2443.853 6  -6926861.689 6  -5353212.98547  23095859.78147
        46.250          31.000  
  21882680.219 7     -1644.343 7   1509171.112 7   1192673.35948  21882674.51248
        49.000          35.500  
  24200578.484 5     -1411.124 5    882741.618 5    691195.65446  24200575.29746
        42.250          26.250  
  23067255.602 6      3229.783 6  -8652294.147 6  -6734141.07647  23067250.36347
        45.500          30.000  
  20734450.086 7     -1457.017 7   1073301.726 7    855465.18649  20734440.74649
        50.500          41.750  
 11  3 29 21 31 15.0000000  0 10G11G14G16G20G22G23G24G25G30G31      
  23491233.898 5     -2492.751 5   4256330.939 5   3317288.24047  23491227.78147
        42.000          26.750  
  23802831.438 4     -2532.085 4   5098254.708 4   3965653.44946  23802825.20346
        39.000          21.250  
  24296985.883 5      3466.563 5  -5617687.498 5  -5324387.52346  24296982.98846
        40.500          22.750  
  21568559.781 7      2430.854 7  -7463954.249 7  -5768960.88248  21568551.73048
        48.500          36.000  
  25196549.195 5     -3395.082 5   6886226.185 5   5359734.43546  25196545.53946
        39.500          20.250  
  23088896.859 6      2442.242 6  -6963495.318 6  -5381758.61047  23088888.69147
        45.000          30.250  
  21887396.109 7     -1652.101 7   1533952.628 7   1211983.60948  21887390.28548
        49.500          34.750  
  24204631.438 5     -1419.772 5    904038.200 5    707790.37546  24204627.66446
        40.500          26.250  
  23058045.883 6      3226.443 6  -8700690.799 6  -6771852.66647  23058040.46947
        46.000          30.250  
  20738630.680 7     -1464.660 7   1095271.626 7    872584.58849  20738621.22349
        49.250          41.750  
 11  3 29 21 31 30.0000000  0 10G11G14G16G20G22G23G24G25G30G31      
  23498359.172 5     -2496.329 5   4293775.876 5   3346466.06546  23498352.82046
        41.500          26.000  
  23810061.273 4     -2532.848 4   5136247.425 4   3995258.13646  23810054.62946
        38.750          21.500  
  24287091.766 5      3466.514 5  -5669685.209 5  -5364905.07246  24287088.22746
        40.000          22.500  
  21561636.461 7      2425.579 7  -7500337.939 7  -5797311.78248  21561627.70748
        48.500          36.000  
  25206243.375 5     -3396.719 5   6937176.970 5   5399436.36846  25206241.00846
        39.500          21.500  
  23081930.523 6      2440.634 6  -7000104.828 6  -5410285.43247  23081922.06347
        45.750          30.250  
  21892133.953 7     -1659.836 7   1558850.160 7   1231384.26748  21892128.01248
        48.750          34.750  
  24208708.094 4     -1428.400 4    925464.193 4    724485.90546  24208704.96546
        39.000          25.750  
  23048845.633 6      3223.089 6  -8749037.129 6  -6809525.04547  23048840.21947
        46.000          29.750  
  20742833.055 7     -1472.276 7   1117355.762 7    889793.00449  20742823.77349
        49.000          41.750  
 11  3 29 21 31 45.0000000  0 10G11G14G16G20G22G23G24G25G30G31      
  23505494.336 5     -2499.871 5   4331273.934 5   3375685.27846  23505488.51246
        40.750          26.000  
  23817293.703 4     -2533.576 4   5174251.059 4   4024871.29746  23817286.94146
        37.500          22.500  
  24277196.844 5      3466.445 5  -5721681.880 5  -5405421.84346  24277193.71546
        39.500          22.250  
  21554727.906 7      2420.300 7  -7536642.441 7  -5825600.98648  21554719.62148
        49.000          36.500  
  25215944.883 4     -3398.326 4   6988151.856 4   5439157.00946  25215941.75446
        39.000          21.750  
  23074968.102 6      2439.039 6  -7036690.413 6  -5438793.62947  23074959.93447
        45.000          30.500  
  21896893.938 7     -1667.534 7   1583863.166 7   1250874.89748  21896887.87948
        49.000          35.000  
  24212809.766 5     -1437.001 5    947019.213 5    741281.98646  24212807.22346
        40.250          25.500  
  23039655.289 6      3219.717 6  -8797332.881 6  -6847158.01647  23039649.64147
        46.500          29.750  
  20747057.039 7     -1479.858 7   1139553.629 7    907090.03849  20747047.99249
        49.250          42.000  
 11  3 29 21 32  0.0000000  0 10G11G14G16G20G22G23G24G25G30G31      
  23512640.461 6     -2503.446 6   4368825.618 6   3404946.27346  23512634.52046
        43.000          26.000  
  23824527.016 4     -2534.352 4   5212266.340 4   4054493.57646  23824521.19146
        37.500          20.750  
  24267302.000 5      3466.300 5  -5773676.377 5  -5445936.88846  24267299.16446
        40.000          22.000  
  21547834.508 7      2414.956 7  -7572866.778 7  -5853827.71648  21547826.16448
        49.250          37.000  
  25225648.891 4     -3399.987 4   7039151.666 4   5478897.01846  25225647.34446
        38.500          21.500  
  23068011.125 6      2437.393 6  -7073251.308 6  -5467282.59747  23068002.89847
        44.250          30.250  
  21901675.906 7     -1675.266 7   1608992.152 7   1270455.90848  21901670.31648
        49.500          34.750  
  24216936.320 6     -1445.640 6    968703.808 6    758179.05446  24216933.13346
        42.750          26.000  
  23030474.586 6      3216.261 6  -8845576.800 6  -6884750.60647  23030469.05547
        45.500          29.750  
  20751302.898 7     -1487.468 7   1161865.648 7    924476.02249  20751293.85249
        50.000          41.750  
 11  3 29 21 32 15.0000000  0 10G11G14G16G20G22G23G24G25G30G31      
  23519796.195 5     -2506.936 5   4406429.658 5   3434248.07747  23519790.60547
        41.250          27.000  
  23831763.023 3     -2535.082 3   5250292.574 3   4084124.35646  23831757.31646
        37.000          21.500  
  24257408.133 5      3466.190 5  -5825669.226 5  -5486450.68446  24257404.30146
        39.750          21.000  
  21540956.625 7      2409.644 7  -7609011.435 7  -5881992.36048  21540948.22348
        49.000          36.500  
  25235359.000 5     -3401.566 5   7090175.163 5   5518655.58346  25235356.16446
        40.000          22.250  
  23061058.672 6      2435.798 6  -7109788.281 6  -5495752.91647  23061050.09447
        45.000          30.500  
  21906479.563 7     -1682.930 7   1634236.108 7   1290126.50148  21906473.85548
        49.000          35.500  
  24221086.891 5     -1454.222 5    990517.141 5    775176.43346  24221083.93846
        40.750          25.000  
  23021303.750 6      3212.839 6  -8893769.390 6  -6922303.17747  23021298.33647
        45.750          30.000  
  20755570.594 7     -1495.011 7   1184290.808 7    941950.17449  20755561.43049
        49.250          41.750  
 11  3 29 21 32 30.0000000  0 10G11G14G16G20G22G23G24G25G30G31      
  23526962.023 5     -2510.432 5   4444086.133 5   3463590.72346  23526956.60946
        40.500          26.000  
  23839002.406 4     -2535.832 4   5288330.060 4   4113763.91546  23838995.82046
        37.750          22.250  
  24247514.289 5      3466.027 5  -5877659.631 5  -5526962.57946  24247511.04346
        40.000          21.250  
  21534093.563 7      2404.284 7  -7645075.700 7  -5910094.36148  21534085.33648
        48.750          36.500  
  25245072.078 4     -3403.173 4   7141222.759 4   5558432.91146  25245070.64846
        38.000          20.250  
  23054109.688 6      2434.181 6  -7146301.002 6  -5524204.33947  23054101.46147
        44.500          30.500  
  21911305.289 7     -1690.593 7   1659595.002 7   1309886.65148  21911299.58248
        49.500          35.000  
  24225262.383 4     -1462.811 4   1012459.308 4    792274.19446  24225259.37146
        39.000          25.500  
  23012142.695 6      3209.373 6  -8941909.991 6  -6959815.25347  23012137.16447
        45.750          30.000  
  20759859.367 7     -1502.554 7   1206829.114 7    959512.48449  20759850.37949
        48.750          41.500  
 11  3 29 21 32 45.0000000  0 10G11G14G16G20G22G23G24G25G30G31      
  23534137.836 5     -2513.898 5   4481794.597 5   3492973.87946  23534132.12946
        41.250          26.000  
  23846242.250 3     -2536.569 3   5326378.601 3   4143412.06746  23846235.84046
        37.250          20.000  
  24237621.523 4      3465.844 4  -5929647.289 4  -5567472.30646  24237618.51246
        38.000          21.500  
  21527246.070 7      2398.910 7  -7681059.354 7  -5938133.54748  21527237.90248
        48.000          36.250  
  25254790.656 4     -3404.768 4   7192294.275 4   5598228.81246  25254789.34446
        37.500          20.250  
  23047166.633 6      2432.562 6  -7182789.429 6  -5552636.82947  23047158.28947
        43.500          30.500  
  21916152.672 7     -1698.239 7   1685068.581 7   1329736.18248  21916146.96548
        49.000          35.500  
  24229462.727 4     -1471.389 4   1034530.136 4    809472.18346  24229460.24246
        39.000          26.000  
  23002991.641 6      3205.874 6  -8989998.093 6  -6997286.42847  23002986.40247
        45.500          29.500  
  20764169.789 7     -1510.083 7   1229480.363 7    977162.80149  20764160.27349
        48.000          42.000  
 11  3 29 21 33  0.0000000  0 10G11G14G16G20G22G23G24G25G30G31      
  23541323.500 6     -2517.320 6   4519554.399 6   3522397.05546  23541317.55946
        42.500          25.500  
  23853484.383 4     -2537.292 4   5364437.984 4   4173068.71146  23853477.97346
        38.000          21.500  
  24227728.680 4      3465.647 4  -5981631.992 4  -5607979.75746  24227725.90246
        37.500          20.500  
  21520413.984 6      2393.534 6  -7716962.367 6  -5966109.89448  21520405.17248
        47.000          36.250  
  25264513.922 5     -3406.326 5   7243389.171 5   5638042.95946  25264512.43446
        40.000          21.750  
  23040226.930 6      2430.960 6  -7219253.823 6  -5581050.58547  23040219.52347
        42.750          30.500  
  21921022.063 7     -1705.853 7   1710656.375 7   1349674.70848  21921016.00448
        49.250          35.000  
  24233687.219 5     -1479.936 5   1056729.179 5    826770.11746  24233684.14846
        39.250          25.000  
  22993850.320 6      3202.368 6  -9038033.617 6  -7034716.62847  22993845.37547
        45.000          29.500  
  20768501.570 7     -1517.583 7   1252244.105 7    994900.77748  20768492.23048
        49.250          41.250  
 11  3 29 21 33 15.0000000  0 10G11G14G16G20G22G23G24G25G30G31      
  23548518.203 5     -2520.757 5   4557365.753 5   3551860.37646  23548513.19946
        40.500          26.250  
  23860729.852 4     -2538.045 4   5402508.655 4   4202734.12246  23860723.03146
        38.500          21.000  
  24217836.047 3      3465.394 3  -6033612.896 3  -5648484.24946  24217834.32446
        37.250          22.000  
  21513597.609 6      2388.116 6  -7752784.104 6  -5994022.91148  21513589.03148
        46.750          36.750  
  25274241.906 5     -3407.892 5   7294507.554 5   5677875.48646  25274238.83646
        40.000          19.500  
  23033293.078 6      2429.332 6  -7255693.805 6  -5609445.33247  23033284.91047
        43.000          30.000  
  21925913.031 7     -1713.473 7   1736358.476 7   1369702.29148  21925906.97348
        49.500          35.250  
  24237936.195 5     -1488.505 5   1079056.760 5    844168.20946  24237932.65646
        42.000          26.000  
  22984719.688 6      3198.815 6  -9086015.845 6  -7072105.28247  22984714.80147
        45.500          29.500  
  20772854.836 7     -1525.084 7   1275120.368 7   1012726.43048  20772845.37948
        49.500          41.000  
 11  3 29 21 33 30.0000000  0 10G11G14G16G20G22G23G24G25G30G31      
  23555722.672 5     -2524.130 5   4595227.709 5   3581363.16746  23555717.25846
        42.250          25.750  
  23867976.781 4     -2538.775 4   5440590.282 4   4232408.08046  23867969.90246
        38.000          21.500  
  24207946.000 4      3465.153 4  -6085590.186 4  -5688985.90446  24207942.63746
        37.500          19.750  
  21506795.891 7      2382.705 7  -7788524.685 7  -6021872.70248  21506787.37148
        48.000          37.000  
  25283974.570 5     -3409.430 5   7345649.003 5   5717725.90145  25283970.50445
        40.000          18.250  
  23026362.961 6      2427.730 6  -7292109.747 6  -5637821.34747  23026354.79347
        44.000          30.750  
  21930825.633 7     -1721.046 7   1762174.171 7   1389818.39748  21930819.34048
        49.000          35.250  
  24242208.594 5     -1497.031 5   1101512.223 5    861665.96146  24242205.58246
        41.500          25.250  
  22975599.266 6      3195.249 6  -9133944.585 6  -7109452.28047  22975594.55547
        45.750          30.500  
  20777229.117 7     -1532.546 7   1298108.556 7   1030639.30248  20777220.30548
        49.000          41.000  
 11  3 29 21 33 45.0000000  0 10G11G14G16G20G22G23G24G25G30G31      
  23562938.594 5     -2527.532 5   4633140.684 5   3610905.67446  23562932.24246
        41.000          25.750  
  23875224.680 4     -2539.537 4   5478683.335 4   4262090.91546  23875218.79746
        37.500          21.500  
  24198056.523 4      3464.831 4  -6137562.656 4  -5729483.80846  24198052.34046
        37.500          19.500  
  21500010.305 7      2377.225 7  -7824183.059 7  -6049658.42048  21500001.90248
        49.250          37.000  
  25293710.664 5     -3410.998 5   7396813.978 5   5757594.66146  25293707.35946
        40.000          21.750  
  23019438.734 6      2426.069 6  -7328500.788 6  -5666177.94747  23019429.92247
        44.500          30.250  
  21935759.703 7     -1728.643 7   1788103.814 7   1410023.29348  21935753.70348
        49.250          35.000  
  24246506.016 5     -1505.598 5   1124096.200 5    879263.85446  24246503.41446
        41.000          22.750  
  22966488.828 6      3191.616 6  -9181818.818 6  -7146756.79547  22966483.76647
        44.500          29.000  
  20781625.156 7     -1540.034 7   1321209.072 7   1048639.69948  20781616.10948
        49.750          41.250  
 11  3 29 21 34  0.0000000  0 10G11G14G16G20G22G23G24G25G30G31      
  23570162.641 5     -2530.859 5   4671103.569 5   3640487.08946  23570156.58246
        40.750          25.000  
  23882476.031 4     -2540.250 4   5516787.091 4   4291782.09646  23882469.56346
        38.250          21.000  
  24188167.867 5      3464.539 5  -6189530.740 5  -5769978.31946  24188162.98046
        39.250          20.000  
  21493240.531 7      2371.772 7  -7859759.641 7  -6077380.40648  21493232.30548
        48.750          36.500  
  25303451.977 5     -3412.503 5   7448001.517 5   5797481.03246  25303448.96546
        41.500          21.750  
  23012517.406 6      2424.471 6  -7364867.856 6  -5694515.87347  23012509.35547
        43.500          29.500  
  21940715.148 7     -1736.179 7   1814146.503 7   1430316.28148  21940709.67648
        49.000          34.500  
  24250828.313 5     -1514.098 5   1146807.666 5    896961.07846  24250825.12546
        41.500          22.250  
  22957389.156 6      3187.999 6  -9229638.801 6  -7184019.04747  22957383.74247
        43.750          29.750  
  20786042.375 7     -1547.455 7   1344420.900 7   1066726.82849  20786033.03549
        48.750          41.500  
 11  3 29 21 34 15.0000000  0 10G11G14G16G20G22G23G24G25G30G31      
  23577395.563 5     -2534.204 5   4709116.627 5   3670107.59246  23577390.44146
        42.000          25.250  
  23889728.516 4     -2541.006 4   5554902.188 4   4321482.10346  23889722.98446
        37.500          20.250  
  24178278.680 3      3464.169 3  -6241493.275 3  -5810468.46546  24178274.37946
        37.250          19.000  
  21486486.250 7      2366.266 7  -7895253.635 7  -6105038.03548  21486477.73048
        48.500          36.500  
  25313196.852 5     -3414.048 5   7499212.244 5   5837385.47946  25313194.42646
        39.250          19.750  
  23005602.430 6      2422.819 6  -7401210.145 6  -5722834.49347  23005593.55947
        43.250          30.500  
  21945692.867 7     -1743.741 7   1840302.619 7   1450697.65348  21945687.04348
        48.750          35.000  
  24255175.211 5     -1522.634 5   1169647.179 5    914758.08846  24255172.02346
        40.750          23.500  
  22948299.422 6      3184.310 6  -9277403.450 6  -7221238.16147  22948294.53547
        44.250          29.500  
  20790480.484 7     -1554.898 7   1367744.377 7   1084900.96748  20790471.55548
        49.000          41.000  
 11  3 29 21 34 30.0000000  0 10G11G14G16G20G22G23G24G25G30G31      
  23584638.898 5     -2537.477 5   4747178.782 5   3699766.36046  23584632.72346
        41.500          25.750  
  23896984.461 4     -2541.714 4   5593027.898 4   4351190.43046  23896977.81646
        38.500          21.000  
  24168391.070 4      3463.832 4  -6293450.759 4  -5850954.71645  24168387.29745
        37.500          18.500  
  21479747.555 6      2360.783 6  -7930665.380 6  -6132631.58248  21479739.32848
        47.500          37.000  
  25322945.430 4     -3415.547 4   7550445.443 4   5877307.31745  25322943.53145
        39.000          18.500  
  22998690.508 6      2421.219 6  -7437528.430 6  -5751134.41747  22998682.28147
        42.750          30.000  
  21950691.672 7     -1751.239 7   1866571.211 7   1471166.66648  21950685.67248
        48.500          34.000  
  24259544.633 5     -1531.112 5   1192613.860 5    932654.18846  24259541.68046
        40.750          22.750  
  22939221.461 6      3180.639 6  -9325113.029 6  -7258414.39247  22939214.99247
        44.500          29.500  
  20794939.977 7     -1562.282 7   1391178.600 7   1103161.39448  20794931.16448
        49.500          41.250  
 11  3 29 21 34 45.0000000  0 10G11G14G16G20G22G23G24G25G30G31      
  23591891.414 5     -2540.752 5   4785290.057 5   3729463.39246  23591886.05946
        42.000          25.250  
  23904241.227 4     -2542.436 4   5631164.444 4   4380907.18546  23904235.34446
        37.750          21.250  
  24158504.344 3      3463.451 3  -6345402.517 3  -5891436.49645  24158500.68845
        37.000          18.250  
  21473024.313 6      2355.270 6  -7965994.423 6  -6160160.67848  21473016.26248
        47.000          36.750  
  25332699.719 5     -3417.030 5   7601700.896 5   5917246.63745  25332697.00045
        41.500          17.250  
  22991784.461 6      2419.591 6  -7473822.298 6  -5779415.29647  22991776.05947
        43.500          29.750  
  21955711.555 7     -1758.738 7   1892952.275 7   1491723.31748  21955706.19948
        49.000          35.500  
  24263940.000 5     -1539.597 5   1215707.813 5    950649.44546  24263937.16446
        41.750          23.000  
  22930152.930 6      3176.925 6  -9372766.902 6  -7295547.20347  22930147.39847
        44.750          30.000  
  20799420.477 7     -1569.661 7   1414723.509 7   1121508.06949  20799411.31349
        49.750          41.500  
 11  3 29 21 35  0.0000000  0 10G11G14G16G20G22G23G24G25G30G31      
  23599153.227 5     -2543.988 5   4823449.877 5   3759198.26346  23599147.75446
        40.750          26.000  
  23911499.883 4     -2543.138 4   5669311.514 4   4410632.12746  23911494.23446
        38.750          21.500  
  24148619.320 3      3463.046 3  -6397348.207 3  -5931913.55346  24148615.54746
        36.500          19.000  
  21466317.555 7      2349.752 7  -8001240.698 7  -6187625.28648  21466309.03548
        48.000          36.750  
  25342457.539 4     -3418.492 4   7652978.272 4   5957203.07845  25342454.58645
        38.750          18.250  
  22984882.195 6      2417.976 6  -7510091.938 6  -5807677.31547  22984873.61747
        43.750          29.000  
  21960753.359 7     -1766.202 7   1919445.305 7   1512367.21848  21960747.47748
        48.500          35.250  
  24268359.719 5     -1548.057 5   1238928.673 5    968743.61746  24268355.53546
        42.250          23.250  
  22921095.414 6      3173.195 6  -9420364.832 6  -7332636.43547  22921090.11747
        45.250          30.250  
  20803921.758 7     -1577.001 7   1438378.525 7   1139940.54148  20803912.65248
        48.750          41.250  
 11  3 29 21 35 15.0000000  0 10G11G14G16G20G22G23G24G25G30G31      
  23606423.477 5     -2547.251 5   4861658.649 5   3788971.27647  23606417.82847
        42.000          26.500  
  23918762.641 3     -2543.897 3   5707469.970 3   4440365.93846  23918756.58246
        37.250          21.750  
  24138736.227 4      3462.568 4  -6449286.735 4  -5972385.00445  24138732.21945
        38.000          18.250  
  21459626.016 6      2344.162 6  -8036403.132 6  -6215024.56548  21459617.49648
        47.000          36.500  
  25352219.484 3     -3420.008 3   7704278.397 3   5997177.07945  25352216.88345
        37.250          17.750  
  22977985.422 6      2416.315 6  -7546336.661 6  -5835919.90047  22977976.72747
        43.250          30.000  
  21965816.430 7     -1773.698 7   1946050.775 7   1533098.72948  21965810.60548
        48.500          34.750  
  24272801.375 5     -1556.554 5   1262276.977 5    986937.09746  24272798.77346
        41.500          22.500  
  22912048.125 6      3169.388 6  -9467905.647 6  -7369681.15147  22912042.88747
        45.500          30.000  
  20808444.109 7     -1584.392 7   1462144.406 7   1158459.40748  20808435.53148
        49.000          41.000  
 11  3 29 21 35 30.0000000  0 10G11G14G16G20G22G23G24G25G30G31      
  23613703.781 6     -2550.426 6   4899915.035 6   3818781.39546  23613698.48446
        42.750          25.250  
  23926025.766 5     -2544.587 5   5745638.783 5   4470107.82246  23926018.82846
        41.000          21.250  
  24128854.398 4      3462.131 4  -6501218.702 4  -6012851.38546  24128849.62946
        38.500          19.500  
  21452951.180 6      2338.607 6  -8071482.244 6  -6242358.91148  21452942.30948
        47.250          36.500  
  25361985.406 5     -3421.442 5   7755600.030 5   6037167.89645  25361982.98045
        40.000          16.250  
  22971093.055 6      2414.707 6  -7582557.262 6  -5864143.69247  22971085.12147
        43.750          31.000  
  21970900.602 7     -1781.120 7   1972767.573 7   1553916.99348  21970894.54348
        48.500          35.500  
  24277268.219 5     -1564.976 5   1285751.613 5   1005229.01546  24277265.26646
        40.250          22.000  
  22903012.516 6      3165.621 6  -9515389.960 6  -7406681.84847  22903007.21947
        45.000          30.750  
  20812987.492 7     -1591.691 7   1486019.765 7   1177063.57549  20812978.56349
        49.500          42.000  
 11  3 29 21 35 45.0000000  0 10G11G14G16G20G22G23G24G25G30G31      
  23620992.680 5     -2553.611 5   4938219.196 5   3848628.73446  23620987.14846
        41.750          25.000  
  23933290.563 4     -2545.318 4   5783818.547 4   4499858.25246  23933284.38746
        38.250          20.500  
  24118973.734 4      3461.635 4  -6553143.222 4  -6053311.90846  24118968.78946
        39.000          19.500  
  21446291.438 7      2333.000 7  -8106477.237 7  -6269627.71948  21446282.68448
        48.500          36.750  
  25371756.375 5     -3422.896 5   7806943.475 5   6077175.90745  25371752.60245
        39.250          16.250  
  22964204.992 6      2413.060 6  -7618753.169 6  -5892348.24847  22964196.06347
        44.250          30.750  
  21976005.648 7     -1788.553 7   1999595.861 7   1574822.13048  21975999.76648
        48.250          35.250  
  24281760.008 5     -1573.428 5   1309353.037 5   1023619.70346  24281757.05546
        39.750          22.500  
  22893987.477 6      3161.785 6  -9562816.728 6  -7443637.70047  22893982.47347
        44.500          30.250  
  20817551.813 7     -1599.012 7   1510004.946 7   1195753.31849  20817542.76649
        49.500          41.500  
 11  3 29 21 36  0.0000000  0 10G11G14G16G20G22G23G24G25G30G31      
  23628291.414 5     -2556.786 5   4976570.991 5   3878513.18846  23628285.82446
        41.500          26.000  
  23940558.734 5     -2546.055 5   5822009.378 5   4529617.28146  23940551.32846
        39.500          20.000  
  24109093.547 3      3461.086 3  -6605059.511 3  -6093766.02346  24109089.36346
        37.250          19.250  
  21439648.156 6      2327.361 6  -8141387.655 6  -6296830.62048  21439639.57848
        46.750          36.500  
  25381531.344 5     -3424.342 5   7858308.603 5   6117200.55946  25381527.27746
        40.250          19.500  
  22957321.789 6      2411.411 6  -7654924.342 6  -5920533.53747  22957313.15247
        43.500          30.750  
  21981132.031 7     -1795.977 7   2026535.517 7   1595814.05048  21981126.20748
        48.000          35.500  
  24286275.352 5     -1581.874 5   1333081.140 5   1042109.12046  24286271.98846
        39.750          22.500  
  22884973.859 6      3157.908 6  -9610185.351 6  -7480548.25247  22884967.85947
        45.000          30.750  
  20822137.320 7     -1606.320 7   1534099.741 7   1214528.47248  20822128.21548
        49.250          41.250  
 11  3 29 21 36 15.0000000  0 10G11G14G16G20G22G23G24G25G30G31      
  23635598.070 5     -2559.906 5   5014969.576 5   3908434.10046  23635592.89146
        41.750          26.000  
  23947827.977 5     -2546.757 5   5860210.734 5   4559384.51546  23947821.80146
        39.750          22.250  
  24099215.305 4      3460.560 4  -6656967.907 4  -6134214.00746  24099211.70746
        38.500          19.000  
  21433021.250 6      2321.743 6  -8176213.807 6  -6323967.85948  21433012.73048
        47.500          36.500  
  25391309.797 5     -3425.755 5   7909694.932 5   6157241.79646  25391306.19946
        40.500          19.750  
  22950443.133 6      2409.789 6  -7691071.184 6  -5948699.85847  22950434.43847
        44.250          31.000  
  21986279.586 7     -1803.352 7   2053585.791 7   1616892.16748  21986273.76248
        48.000          35.500  
  24290815.391 4     -1590.277 4   1356935.292 4   1060696.79246  24290811.26646
        39.000          22.750  
  22875970.523 6      3154.036 6  -9657495.899 6  -7517413.53347  22875964.99247
        45.000          31.250  
  20826742.758 7     -1613.584 7   1558303.505 7   1233388.55148  20826733.71148
        49.000          41.250  
 11  3 29 21 36 30.0000000  0 10G11G14G16G20G22G23G24G25G30G31      
  23642914.375 5     -2562.999 5   5053414.563 5   3938391.18647  23642908.49247
        42.250          26.750  
  23955099.469 5     -2547.462 5   5898422.660 5   4589160.01246  23955092.94146
        39.750          21.500  
  24089339.234 4      3460.005 4  -6708867.987 4  -6174655.49746  24089335.46146
        38.500          20.000  
  21426410.156 6      2316.101 6  -8210955.318 6  -6351039.14048  21426401.34448
        47.500          37.000  
  25401091.703 5     -3427.154 5   7961102.246 5   6197299.31146  25401089.10246
        41.500          19.750  
  22943569.094 6      2408.166 6  -7727193.671 6  -5976847.20247  22943560.63347
        44.000          30.500  
  21991447.789 6     -1810.717 6   2080746.546 6   1638056.36648  21991442.14148
        47.000          35.500  
  24295377.594 4     -1598.672 4   1380915.364 4   1079382.54446  24295374.75846
        37.500          22.250  
  22866978.797 6      3150.132 6  -9704747.876 6  -7554233.19647  22866973.09047
        44.250          31.250  
  20831369.297 7     -1620.834 7   1582616.019 7   1252333.35349  20831359.78149
        49.500          41.500  
 11  3 29 21 36 45.0000000  0 10G11G14G16G20G22G23G24G25G30G31      
  23650239.656 5     -2566.108 5   5091906.178 5   3968384.60247  23650233.36347
        41.250          27.000  
  23962372.672 5     -2548.198 5   5936645.625 5   4618944.08146  23962366.08646
        39.500          21.500  
  24079465.367 5      3459.376 5  -6760758.629 5  -6215089.64246  24079460.36346
        39.500          21.000  
  21419815.000 7      2310.407 7  -8245611.415 7  -6378043.87648  21419806.53948
        48.500          37.500  
  25410878.500 6     -3428.572 6   8012530.824 6   6237373.61745  25410874.96145
        42.750          17.250  
  22936700.680 6      2406.500 6  -7763291.171 6  -6004975.07547  22936691.34047
        44.500          31.000  
  21996637.344 7     -1818.091 7   2108017.905 7   1659306.75948  21996631.87148
        47.750          35.500  
  24299965.234 4     -1607.084 4   1405021.631 4   1098166.64846  24299962.80946
        37.500          22.500  
  22857998.227 6      3146.170 6  -9751940.432 6  -7591006.56147  22857992.57847
        44.750          30.250  
  20836016.594 7     -1628.090 7   1607037.376 7   1271362.98848  20836007.60548
        49.000          41.000  
 11  3 29 21 37  0.0000000  0 10G11G14G16G20G22G23G24G25G30G31      
  23657572.734 6     -2569.158 6   5130443.546 6   3998413.65947  23657566.79347
        43.750          26.500  
  23969649.305 5     -2548.889 5   5974878.959 5   4648736.24146  23969642.71946
        40.500          21.500  
  24069592.266 5      3458.769 5  -6812640.161 5  -6255516.68046  24069588.02346
        40.000          21.500  
  21413236.188 6      2304.728 6  -8280182.339 6  -6404982.23248  21413228.19548
        46.500          37.250  
  25420668.773 5     -3429.953 5   8063980.112 5   6277463.87046  25420666.17246
        40.500          19.750  
  22929835.469 6      2404.866 6  -7799364.156 6  -6033083.83347  22929827.06647
        45.000          31.500  
  22001848.141 6     -1825.412 6   2135399.082 6   1680642.71548  22001842.14148
        47.500          35.500  
  24304575.758 3     -1615.459 3   1429253.517 3   1117048.65546  24304572.98046
        36.750          21.500  
  22849028.555 6      3142.207 6  -9799073.541 6  -7627733.57647  22849023.60947
        45.000          31.000  
  20840684.117 7     -1635.306 7   1631566.969 7   1290476.94548  20840675.12948
        48.250          41.250  
 11  3 29 21 37 15.0000000  0 10G11G14G16G20G22G23G24G25G30G31      
  23664914.531 6     -2572.224 6   5169026.904 6   4028478.54247  23664909.46947
        42.750          27.000  
  23976926.602 5     -2549.616 5   6013123.197 5   4678536.91246  23976920.36746
        39.750          22.000  
  24059721.664 5      3458.107 5  -6864511.768 5  -6295935.96746  24059717.07046
        40.000          21.500  
  21406674.203 7      2298.998 7  -8314667.307 7  -6431853.61648  21406665.80148
        48.250          36.500  
  25430463.461 2     -3431.353 2   8115450.408 2   6317570.63245  25430460.74245
        35.500          16.750  
  22922975.477 6      2403.198 6  -7835412.127 6  -6061173.10147  22922967.07447
        44.750          30.750  
  22007079.609 7     -1832.745 7   2162890.261 7   1702064.39148  22007073.60948
        48.250          35.500  
  24309211.016 3     -1623.848 3   1453611.241 3   1136028.70846  24309208.94146
        36.500          20.750  
  22840071.125 6      3138.190 6  -9846146.389 6  -7664413.66147  22840065.59447
        45.500          31.000  
  20845372.922 7     -1642.523 7   1656204.812 7   1309675.26248  20845363.81648
        49.250          41.000  
 11  3 29 21 37 30.0000000  0 10G11G14G16G20G22G23G24G25G30G31      
  23672265.375 5     -2575.235 5   5207655.434 5   4058578.64546  23672259.72746
        42.000          26.000  
  23984205.852 5     -2550.346 5   6051378.391 5   4708346.09346  23984200.02746
        39.500          21.000  
  24049852.953 5      3457.421 5  -6916373.080 5  -6336347.24646  24049847.48046
        39.500          22.000  
  21400128.320 6      2293.257 6  -8349066.164 6  -6458657.90548  21400119.80148
        47.250          36.750  
  25440259.938 2     -3432.740 2   8166941.513 2   6357693.34745  25440259.09445
        34.750          16.750  
  22916120.953 6      2401.544 6  -7871435.283 6  -6089243.05747  22916112.31647
        45.000          31.000  
  22012331.852 7     -1840.054 7   2190491.073 7   1723571.50848  22012325.96948
        48.250          35.000  
  24313869.859 3     -1632.217 3   1478094.489 3   1155106.53446  24313868.19546
        36.750          21.000  
  22831125.398 6      3134.156 6  -9893158.732 6  -7701046.58747  22831119.45747
        45.000          30.750  
  20850081.813 7     -1649.724 7   1680950.676 7   1328957.74748  20850072.88348
        49.000          41.250  
 11  3 29 21 37 45.0000000  0 10G11G14G16G20G22G23G24G25G30G31      
  23679624.586 5     -2578.195 5   5246328.359 5   4088713.32546  23679619.17246
        42.250          24.500  
  23991487.570 4     -2551.022 4   6089643.726 4   4738163.17946  23991481.45346
        38.750          22.000  
  24039985.313 5      3456.742 5  -6968224.203 5  -6376750.56946  24039981.07046
        40.750          22.500  
  21393599.023 6      2287.536 6  -8383379.199 6  -6485395.30848  21393590.27048
        47.500          36.750  
  25450063.742 4     -3434.075 4   8218452.631 4   6397831.72645  25450062.02045
        38.250          18.500  
  22909270.516 6      2399.919 6  -7907434.063 6  -6117293.99047  22909262.11347
        43.750          31.000  
  22017604.680 6     -1847.308 6   2218200.695 6   1745163.39148  22017599.09048
        47.000          35.000  
  24318552.813 4     -1640.537 4   1502702.551 4   1174281.64946  24318550.44546
        37.750          22.250  
  22822189.977 6      3130.133 6  -9940110.731 6  -7737632.49047  22822184.56347
        44.500          31.000  
  20854811.094 7     -1656.864 7   1705803.632 7   1348323.67748  20854802.04748
        49.500          41.000  
 11  3 29 21 38  0.0000000  0 10G11G14G16G20G22G23G24G25G30G31      
  23686993.078 5     -2581.151 5   5285045.621 5   4118882.56846  23686987.31346
        41.000          25.750  
  23998771.391 4     -2551.731 4   6127919.696 4   4767988.55546  23998765.21546
        38.000          22.000  
  24030120.031 5      3456.010 5  -7020064.360 5  -6417145.36046  24030115.84846
        40.250          23.750  
  21387085.453 6      2281.765 6  -8417605.675 6  -6512065.26648  21387076.81648
        47.000          36.500  
  25459870.547 5     -3435.424 5   8269983.995 5                
        40.000  
  22902424.664 6      2398.267 6  -7943408.072 6  -6145325.63847  22902415.73447
        44.250          31.250  
  22022898.523 7     -1854.571 7   2246019.262 7   1766840.17648  22022892.81648
        48.250          35.250  
  24323260.656 4     -1648.872 4   1527435.626 4   1193554.13846  24323257.64546
        38.500          21.500  
  22813267.422 6      3126.059 6  -9987001.620 6  -7774170.78047  22813261.48047
        45.000          31.250  
  20859560.672 7     -1664.017 7   1730763.892 7   1367773.22548  20859551.85948
        49.250          41.000  
 11  3 29 21 38 15.0000000  0 10G11G14G16G20G22G23G24G25G30G31      
  23694368.563 6     -2584.119 6   5323807.403 6   4149086.48847  23694363.14847
        42.500          27.000  
  24006056.453 4     -2552.440 4   6166206.301 4   4797822.23246  24006051.50846
        38.250          22.500  
  24020256.922 5      3455.251 5  -7071893.127 5  -6457531.24446  24020253.32446
        39.500          22.250  
  21380588.977 6      2275.964 6  -8451745.128 6  -6538667.42348  21380580.45748
        46.500          36.000  
  25469679.531 2     -3436.767 2   8321535.496 2                
        35.000  
  22895584.367 6      2396.602 6  -7979357.097 6  -6173337.81647  22895575.26247
        46.000          30.250  
  22028213.047 7     -1861.819 7   2273946.543 7   1788601.67248  22028207.10548
        48.500          35.500  
  24327990.398 4     -1657.204 4   1552293.682 4   1212924.08946  24327987.32846
        39.000          22.250  
  22804355.617 6      3121.944 6 -10033830.782 6  -7810660.96847  22804350.20347
        45.750          31.500  
  20864331.047 7     -1671.162 7   1755831.316 7   1387306.28048  20864322.41048
        49.000          41.000  
 11  3 29 21 38 30.0000000  0 10G11G14G16G20G22G23G24G25G30G31      
  23701752.891 6     -2587.030 6   5362612.856 6   4179324.45046  23701747.30146
        42.500          26.250  
  24013345.297 5     -2553.138 5   6204503.364 5   4827664.03546  24013339.06346
        39.250          22.750  
  24010396.500 5      3454.479 5  -7123710.308 5  -6497908.11146  24010392.37546
        40.750          22.250  
  21374108.969 6      2270.172 6  -8485797.706 6  -6565201.87948  21374100.74248
        46.750          37.000  
  25479492.992 2     -3438.097 2   8373106.958 2                
        35.000  
  22888747.859 6      2394.959 6  -8015281.478 6  -6201330.78647  22888738.93047
        46.250          31.500  
  22033547.820 7     -1869.031 7   2301982.008 7   1810447.46948  22033541.99648
        48.250          35.250  
  24332743.813 4     -1665.506 4   1577276.267 4   1232391.04046  24332741.27046
        39.000          22.000  
  22795456.742 6      3117.821 6 -10080598.101 6  -7847102.97947  22795450.80147
        46.250          31.250  
  20869121.516 7     -1678.263 7   1781005.255 7   1406922.32849  20869112.52749
        48.750          41.500  
 11  3 29 21 38 45.0000000  0 10G11G14G16G20G22G23G24G25G30G31      
  23709145.883 6     -2589.936 6   5401461.898 6   4209596.39646  23709140.00046
        43.000          26.250  
  24020634.289 5     -2553.854 5   6242811.172 5   4857514.24646  24020628.17246
        40.000          22.750  
  24000538.484 5      3453.655 5  -7175515.137 5  -6538275.36746  24000534.71146
        39.750          22.000  
  21367645.883 6      2264.335 6  -8519762.730 6  -6591668.11548  21367637.24648
        46.750          36.500  
  25489311.766 5     -3439.412 5   8424698.142 5                
        41.500  
  22881916.047 6      2393.282 6  -8051180.702 6  -6229304.15747  22881907.17647
        46.500          31.250  
  22038903.492 7     -1876.250 7   2330125.764 7   1832377.64448  22038897.90248
        48.500          34.500  
  24337521.367 5     -1673.822 5   1602383.592 5   1251955.19246  24337518.88346
        39.250          21.500  
  22786568.820 6      3113.640 6 -10127302.698 6  -7883496.10247  22786562.82047
        46.250          31.500  
  20873932.180 7     -1685.363 7   1806285.705 7   1426621.37848  20873923.13348
        49.750          41.000  
 11  3 29 21 39  0.0000000  0 10G11G14G16G20G22G23G24G25G30G31      
  23716546.805 5     -2592.809 5   5440354.035 5   4239901.89646  23716541.33246
        42.000          25.500  
  24027927.313 5     -2554.552 5   6281129.455 5   4887372.57946  24027920.78546
        39.500          24.000  
  23990682.477 5      3452.821 5  -7227307.457 5  -6578632.84146  23990678.00046
        40.500          24.000  
  21361199.148 6      2258.487 6  -8553640.031 6  -6618065.98848  21361190.68848
        46.750          36.750  
  25499132.781 4     -3440.718 4   8476308.917 4   6598758.51055  25499128.71555
        38.750          17.250  
  22875089.836 6      2391.623 6  -8087055.051 6  -6257258.14147  22875081.43447
        45.750          31.250  
  22044279.656 7     -1883.434 7   2358377.276 7   1854391.79148  22044273.77348
        48.000          34.750  
  24342322.938 5     -1682.098 5   1627615.056 5   1271616.03946  24342320.92246
        39.750          21.500  
  22777693.117 6      3109.445 6 -10173944.375 6  -7919840.20947  22777687.23447
        47.000          31.000  
  20878763.102 7     -1692.442 7   1831672.332 7   1446403.16248  20878753.87948
        49.500          41.000  
 11  3 29 21 39 15.0000000  0 10G11G14G16G20G22G23G24G25G30G31      
  23723956.305 6     -2595.644 6   5479288.703 6   4270240.52946  23723950.42246
        42.500          26.250  
  24035220.617 4     -2555.239 4   6319458.045 4   4917238.95946  24035214.14846
        38.750          22.500  
  23980829.422 5      3451.975 5  -7279087.076 5  -6618980.45246  23980824.35946
        40.500          22.500  
  21354769.352 6      2252.650 6  -8587429.786 6  -6644395.65348  21354760.53948
        47.250          36.250  
  25508957.602 5     -3442.004 5   8527938.972 5   6638989.95545  25508953.65245
        39.500          16.250  
  22868267.781 6      2389.975 6  -8122904.674 6  -6285192.86247  22868258.79347
        46.000          31.750  
  22049675.883 7     -1890.590 7   2386736.130 7   1876489.57548  22049670.35248
        48.500          35.000  
  24347148.383 5     -1690.361 5   1652970.470 5   1291373.50346  24347145.66446
        39.750          22.000  
  22768829.477 6      3105.234 6 -10220522.890 6  -7956135.09247  22768823.65247
        46.500          31.000  
  20883614.344 7     -1699.495 7   1857164.750 7   1466267.37248  20883604.88748
        49.750          40.750  
 11  3 29 21 39 30.0000000  0 10G11G14G16G20G22G23G24G25G30G31      
  23731373.430 5     -2598.466 5   5518265.700 5   4300612.16546  23731367.43046
        42.250          26.250  
  24042516.000 5     -2555.928 5   6357796.965 5   4947113.40846  24042509.59046
        39.500          22.500  
  23970977.820 5      3451.092 5  -7330853.453 5  -6659317.72046  23970973.98846
        40.750          24.000  
  21348355.500 6      2246.765 6  -8621131.254 6  -6670656.51648  21348347.39148
        46.250          36.500  
  25518785.711 4     -3443.275 4   8579588.104 4   6679235.82046  25518783.10946
        37.750          19.000  
  22861450.320 6      2388.317 6  -8158729.431 6  -6313108.21447  22861441.74247
        45.750          31.750  
  22055092.938 7     -1897.728 7   2415202.048 7   1898670.78248  22055087.40648
        48.750          35.500  
  24351997.258 5     -1698.614 5   1678449.680 5   1311227.43046  24351994.01246
        41.000          22.500  
  22759977.953 6      3100.990 6 -10267037.742 6  -7992380.36847  22759971.95347
        46.750          31.250  
  20888485.281 7     -1706.528 7   1882762.666 7   1486213.79548  20888476.70348
        49.750          41.000  
 11  3 29 21 39 45.0000000  0 10G11G14G16G20G22G23G24G25G30G31      
  23738797.633 5     -2601.283 5   5557284.952 5   4331016.73847  23738792.33647
        42.250          26.500  
  24049813.758 5     -2556.644 5   6396146.627 5   4976996.22046  24049807.52346
        40.750          22.500  
  23961129.703 5      3450.159 5  -7382605.834 5  -6699644.07846  23961125.69546
        42.000          25.750  
  21341959.359 6      2240.841 6  -8654743.874 6  -6696848.15548  21341951.42648
        46.500          37.250  
  25528619.023 4     -3444.564 4   8631256.560 4   6719496.78045  25528615.60245
        37.750          16.750  
  22854637.914 6      2386.630 6  -8194528.880 6  -6341003.84347  22854628.69147
        47.250          30.750  
  22060530.313 7     -1904.870 7   2443775.091 7   1920935.47448  22060524.54748
        48.500          34.750  
  24356868.969 5     -1706.881 5   1704052.889 5   1331177.94846  24356865.37146
        41.000          21.500  
  22751139.031 6      3096.698 6 -10313488.211 6  -8028575.47247  22751132.62147
        46.500          30.750  
  20893376.859 7     -1713.565 7   1908466.140 7   1506242.47649  20893367.75449
        49.250          41.500  
 11  3 29 21 40  0.0000000  0 10G11G14G16G20G22G23G24G25G30G31      
  23746230.844 6     -2604.064 6   5596345.905 6   4361453.77746  23746225.72346
        42.750          24.000  
  24057113.258 5     -2557.339 5   6434506.707 5   5006887.12446  24057107.78546
        40.250          22.750  
  23951283.844 6      3449.221 6  -7434344.142 6  -6739959.48546  23951280.48046
        42.500          24.750  
  21335580.094 6      2234.924 6  -8688267.738 6  -6722970.62248  21335571.80948
        46.500          37.250  
  25538455.070 3     -3445.823 3   8682943.898 3   6759772.57245  25538451.12145
        37.250          15.500  
  22847830.219 6      2384.964 6  -8230303.337 6  -6368879.99447  22847821.05547
        44.500          32.000  
  22065987.906 7     -1911.982 7   2472454.824 7   1943283.29248  22065982.31648
        47.750          35.000  
  24361764.414 5     -1715.113 5   1729779.582 5   1351224.74346  24361760.11346
        40.500          20.500  
  22742311.945 6      3092.397 6 -10359874.162 6  -8064720.30947  22742305.82847
        46.500          31.000  
  20898287.813 7     -1720.566 7   1934274.629 7   1526352.97848  20898278.88348
        49.000          41.000  
 11  3 29 21 40 15.0000000  0 10G11G14G16G20G22G23G24G25G30G31      
  23753672.602 6     -2606.879 6   5635449.094 6   4391923.74246  23753667.18846
        43.500          25.250  
  24064415.508 5     -2558.094 5   6472878.124 5   5036786.88246  24064409.09846
        40.750          24.750  
  23941441.375 5      3448.188 5  -7486066.968 5  -6780262.83046  23941437.60246
        41.250          24.500  
  21329217.922 6      2228.922 6  -8721701.569 6  -6749022.94148  21329209.57848
        46.500          37.250  
  25548294.20311     -3447.65611                    662063.67354  25548290.31354
        29.500          12.500  
  22841027.672 6      2383.237 6  -8266051.898 6  -6396735.97747  22841018.44947
        45.500          30.750  
  22071465.875 7     -1919.131 7   2501241.788 7   1965714.67948  22071460.22748
        48.000          35.000  
  24366682.922 5     -1723.398 5   1755630.552 5   1371368.36646  24366679.55946
        39.500          20.250  
  22733497.078 6      3088.007 6 -10406194.272 6  -8100813.85047  22733490.84447
        46.250          30.500  
  20903218.914 7     -1727.616 7   1960188.869 7   1546545.89048  20903209.86748
        48.250          41.000  
 11  3 29 21 40 30.0000000  0 10G11G14G16G20G22G23G24G25G30G31      
  23761121.094 6     -2609.502 6   5674591.621 6   4422424.36346  23761115.62146
        43.750          25.250  
  24071718.609 5     -2558.683 5   6511258.371 5   5066693.50846  24071713.48846
        40.250          23.000  
  23931601.336 5      3447.302 5  -7537776.491 5  -6820555.81246  23931597.85546
        40.500          24.750  
  21322872.547 6      2223.067 6  -8755047.573 6  -6775006.81848  21322864.14548
        46.000          37.500  
  25558136.20314     -3448.68814    909275.38714    702367.39955  25558133.89555
        38.500          14.750  
  22834229.234 6      2381.667 6  -8301776.910 6  -6424573.59047  22834220.18847
        46.750          31.500  
  22076963.922 7     -1926.089 7   2530133.118 7   1988227.38348  22076958.21548
        48.000          34.500  
  24371626.305 5     -1731.501 5   1781603.072 5   1391606.66446  24371622.94146
        40.500          22.000  
  22724694.883 6      3083.751 6 -10452450.532 6  -8136857.62147  22724688.64847
        45.750          30.500  
  20908169.688 7     -1734.477 7   1986206.021 7   1566818.98549  20908160.93449
        48.500          41.500  
 11  3 29 21 40 45.0000000  0 10G11G14G16G20G22G23G24G25G30G31      
  23768577.797 6     -2612.256 6   5713775.463 6   4452957.16646  23768571.79746
        43.500          25.000  
  24079024.867 5     -2559.429 5   6549649.801 5   5096608.85946  24079018.28146
        40.750          22.750  
  23921765.227 5      3446.238 5  -7589470.062 5  -6860836.35746  23921760.39846
        42.000          24.500  
  21316544.305 6      2217.047 6  -8788303.275 6  -6800920.34148  21316535.66848
        46.000          37.250  
  25567983.539 6     -3449.543 6    961018.531 6    742686.99145  25567979.59045
        42.500          16.750  
  22827435.945 6      2379.934 6  -8337475.920 6  -6452390.95747  22827426.89847
        46.250          31.750  
  22082481.734 6     -1933.189 6   2559130.954 6   2010823.08248  22082476.02748
        47.500          34.500  
  24376592.547 5     -1739.744 5   1807699.237 5   1411941.33246  24376589.59446
        41.500          21.750  
  22715905.383 6      3079.316 6 -10498640.274 6  -8172849.57347  22715899.38347
        45.500          30.750  
  20913141.016 7     -1741.470 7   2012328.066 7   1587173.82148  20913131.73448
        48.500          40.750  
 11  3 29 21 41  0.0000000  0 10G11G14G16G20G22G23G24G25G30G31      
  23776041.539 6     -2614.927 6   5752999.372 6   4483521.20046  23776035.77346
        43.000          25.250  
  24086332.164 5     -2560.098 5   6588051.265 5   5126532.03546  24086326.04746
        41.000          22.500  
  23911930.172 5      3445.206 5  -7641148.156 5  -6901104.85446  23911926.51646
        41.000          24.000  
  21310232.695 6      2211.062 6  -8821469.208 6  -6826763.90748  21310224.29348
        46.000          37.000  
  25577832.086 3     -3450.756 3   1012779.867 3    783020.41546  25577830.30546
        36.500          20.000  
  22820647.461 6      2378.271 6  -8373149.988 6  -6480188.88647  22820638.41447
        47.000          31.500  
  22088019.773 6     -1940.207 6   2588234.059 6   2033500.79648  22088014.53548
        47.500          34.000  
  24381581.273 5     -1747.914 5   1833917.954 5   1432371.49646  24381577.73446
        40.000          22.000  
  22707128.180 6      3074.915 6 -10544763.997 6  -8208790.07947  22707122.12147
        46.000          31.000  
  20918131.289 7     -1748.380 7   2038553.770 7   1607609.42248  20918122.41848
        49.000          40.500  
 11  3 29 21 41 15.0000000  0 10G11G14G16G20G22G23G24G25G30G31      
  23783513.867 5     -2617.620 5   5792263.678 5   4514116.70447  23783507.86747
        42.250          27.000  
  24093641.797 5     -2560.819 5   6626463.546 5   5156463.63146  24093636.32446
        39.750          23.750  
  23902099.555 5      3444.098 5  -7692809.633 5  -6941360.41346  23902094.55146
        41.250          25.250  
  21303938.938 6      2205.015 6  -8854544.437 6  -6852536.79648  21303930.24248
        46.250          37.500  
  25587685.633 5     -3451.994 5   1064559.777 5    823368.33746  25587684.20346
        39.250          21.500  
  22813863.586 6      2376.564 6  -8408798.451 6  -6507966.86947  22813855.12547
        46.750          31.000  
  22093578.430 6     -1947.249 6   2617442.788 6   2056260.82448  22093572.25448
        46.000          34.500  
  24386593.234 5     -1756.114 5   1860259.662 5   1452897.46646  24386591.04346
        40.250          20.250  
  22698363.484 6      3070.432 6 -10590820.474 6  -8244678.19447  22698357.95347
        45.250          30.250  
  20923141.922 7     -1755.322 7   2064883.607 7   1628126.17448  20923132.81648
        49.000          41.250  
 11  3 29 21 41 30.0000000  0 10G11G14G16G20G22G23G24G25G30G31      
  23790992.766 6     -2620.264 6   5831567.634 6   4544743.10246  23790987.46946
        43.750          26.250  
  24100952.781 4     -2561.516 4   6664886.285 4   5186403.36246  24100947.30946
        38.250          22.000  
  23892271.930 5      3442.987 5  -7744454.441 5  -6981602.96146  23892267.45346
        41.000          25.500  
  21297661.930 6      2198.971 6  -8887528.999 6  -6878239.03048  21297653.35248
        47.000          37.500  
  25597544.383 5     -3453.208 5   1116357.899 5    863730.47246  25597540.55146
        40.250          22.000  
  22807084.469 6      2374.877 6  -8444421.600 6  -6535725.12547  22807075.71547
        47.000          31.500  
  22099156.539 6     -1954.247 6   2646756.495 6   2079102.64748  22099150.48048
        47.000          34.750  
  24391630.219 5     -1764.281 5   1886723.874 5   1473518.92346  24391626.27046
        40.750          19.500  
  22689612.125 6      3065.953 6 -10636809.762 6  -8280513.95047  22689606.30147
        44.750          30.750  
  20928171.961 7     -1762.217 7   2091316.863 7   1648723.50548  20928162.85548
        49.000          41.000  
 11  3 29 21 41 45.0000000  0 10G11G14G16G20G22G23G24G25G30G31      
  23798479.148 6     -2622.842 6   5870910.261 6   4575399.64346  23798473.38346
        42.500          26.000  
  24108267.844 5     -2562.164 5   6703318.750 5   5216350.69046  24108260.84846
        41.000          24.500  
  23882446.664 5      3441.907 5  -7796083.047 5  -7021832.91246  23882442.94946
        42.000          26.000  
  21291402.734 6      2192.956 6  -8920423.346 6  -6903870.97648  21291394.09848
        45.750          38.000  
  25607404.016 3     -3454.378 3   1168173.567 3    904106.36946  25607401.06346
        36.750          20.500  
  22800310.148 6      2373.227 6  -8480020.008 6  -6563464.09447  22800301.74647
        46.500          31.500  
  22104754.289 6     -1961.183 6   2676174.239 6   2102025.55248  22104748.75848
        46.500          34.750  
  24396689.258 5     -1772.384 5   1913309.628 5   1494235.08646  24396685.36746
        41.000          22.000  
  22680873.367 6      3061.484 6 -10682732.028 6  -8316297.47347  22680867.83647
        44.500          30.250  
  20933221.766 7     -1769.064 7   2117852.816 7   1669400.86448  20933212.42648
        48.000          40.750  
 11  3 29 21 42  0.0000000  0 10G11G14G16G20G22G23G24G25G30G31      
  23805973.625 6     -2625.443 6   5910291.909 6   4606086.60147  23805968.15247
        43.500          26.500  
  24115582.625 5     -2562.857 5   6741761.599 5   5246306.11046  24115576.33246
        40.250          22.500  
  23872625.516 5      3440.756 5  -7847694.389 5  -7062049.39946  23872621.03946
        42.250          23.750  
  21285159.977 6      2186.878 6  -8953226.516 6  -6929431.86548  21285151.80948
        46.500          37.000  
  25617268.000 1     -3455.586 1   1220007.350 1    944496.31845  25617264.34445
        33.500          16.750  
  22793541.063 6      2371.542 6  -8515593.137 6  -6591183.36947  22793532.36747
        47.000          32.000  
  22110372.273 6     -1968.144 6   2705696.403 6   2125029.81848  22110366.80148
        46.500          34.500  
  24401771.516 5     -1780.521 5   1940017.438 5   1515046.37246  24401768.03546
        41.000          22.250  
  22672147.703 6      3056.950 6 -10728586.281 6  -8352028.01747  22672141.29347
        44.000          31.000  
  20938290.961 7     -1775.926 7   2144491.704 7   1690158.43149  20938281.73849
        49.500          41.500  
 11  3 29 21 42 15.0000000  0  9G11G14G16G20G23G24G25G30G31         
  23813474.156 6     -2627.775 6   5949708.528 6   4636800.76947  23813468.97747
        42.500          27.000  
  24122898.336 5     -2563.304 5   6780211.166 5   5276266.74846  24122892.98046
        40.000          22.750  
  23862805.945 5      3439.810 5  -7899291.545 5  -7102254.84446  23862802.23046
        41.250          25.000  
  21278934.555 6      2181.018 6  -8985941.789 6  -6954924.27348  21278926.27048
        46.750          37.750  
  22786776.039 6      2370.085 6  -8551144.416 6  -6618885.62447  22786766.81647
        47.000          31.500  
  22116009.555 6     -1974.844 6   2735319.061 6   2148112.38048  22116003.90648
        47.000          34.500  
  24406876.414 5     -1788.407 5   1966843.543 5   1535949.79446  24406873.16846
        40.750          21.500  
  22663434.313 6      3052.632 6 -10774375.757 6  -8387708.08447  22663428.43047
        44.750          30.500  
  20943378.914 7     -1782.529 7   2171229.646 7   1710993.18249  20943369.57449
        49.500          41.500  
 11  3 29 21 42 30.0000000  0  9G11G14G16G20G23G24G25G30G31         
  23820983.047 6     -2630.512 6   5989166.207 6   4667546.96346  23820977.51646
        44.500          25.500  
  24130217.844 5     -2564.182 5   6818673.901 5   5306237.65246  24130212.02046
        39.500          22.000  
  23852992.258 5      3438.412 5  -7950867.719 5  -7142443.91946  23852987.31346
        41.750          23.250  
  21272727.195 6      2174.725 6  -9018562.659 6  -6980343.11348  21272718.73448
        46.250          37.250  
  22780016.000 7      2368.206 7  -8586667.506 7  -6646565.90047  22780006.95347
        47.750          31.000  
  22121667.047 6     -1981.945 6   2765048.239 6   2171277.95348  22121660.81348
        47.500          34.750  
  24412005.359 5     -1796.698 5   1993794.016 5   1556950.13346  24412001.41046
        41.000          21.500  
  22654734.195 6      3047.859 6 -10820093.640 6  -8423332.35647  22654728.31347
        44.500          31.000  
  20948486.672 7     -1789.533 7   2198072.634 7   1731909.79448  20948477.85948
        48.750          41.000  
 11  3 29 21 42 45.0000000  0  9G11G14G16G20G23G24G25G30G31         
  23828498.109 6     -2633.007 6   6028661.311 6   4698322.33346  23828492.87146
        43.000          24.750  
  24137539.750 5     -2564.848 5   6857146.622 5   5336216.33646  24137534.62946
        40.500          22.250  
  23843180.891 5      3437.197 5  -8002425.667 5  -7182618.83346  23843176.64846
        41.750          24.500  
  21266536.992 6      2168.611 6  -9051091.830 6  -7005690.50048  21266528.47348
        46.000          37.500  
  22773260.852 6      2366.527 6  -8622165.404 6  -6674226.55547  22773251.86347
        47.250          31.250  
  22127343.539 6     -1988.826 6   2794880.628 6   2194523.94748  22127338.12548
        47.000          34.000  
  24417157.313 5     -1804.771 5   2020865.575 5   1578044.83446  24417153.59846
        41.750          24.000  
  22646047.836 6      3043.269 6 -10865742.670 6  -8458902.98447  22646041.48447
        44.000          30.750  
  20953614.414 7     -1796.323 7   2225017.483 7   1752905.76648  20953605.13348
        48.250          40.750  
 11  3 29 21 43  0.0000000  0  9G11G14G16G20G23G24G25G30G31         
  23836020.758 5     -2635.508 5   6068193.935 5   4729126.90446  23836016.22346
        41.500          22.750  
  24144863.125 5     -2565.538 5   6895629.690 5   5366203.10846  24144856.48046
        40.500          22.250  
  23833373.445 5      3435.931 5  -8053964.630 5  -7222778.94246  23833369.08646
        42.250          24.500  
  21260364.523 6      2162.453 6  -9083528.623 6  -7030965.90148  21260355.71148
        46.750          37.500  
  22766510.641 6      2364.822 6  -8657637.740 6  -6701867.29547  22766501.88747
        47.000          31.000  
  22133039.945 6     -1995.702 6   2824816.154 6   2217850.31448  22133034.18048
        46.500          34.000  
  24422331.813 5     -1812.854 5   2048058.387 5   1599234.01446  24422328.03946
        41.500          22.000  
  22637374.188 6      3038.623 6 -10911322.021 6  -8494419.31347  22637368.01247
        44.000          31.000  
  20958760.922 7     -1803.105 7   2252064.057 7   1773981.01248  20958752.05148
        49.000          40.250  
 11  3 29 21 43 15.0000000  0  9G11G14G16G20G23G24G25G30G31         
  23843552.008 6     -2637.986 6   6107763.720 6   4759960.42446  23843546.77046
        44.250          25.000  
  24152187.195 4     -2566.203 4   6934122.730 4   5396197.63846  24152182.71946
        39.000          21.750  
  23823569.063 5      3434.653 5  -8105484.425 5  -7262924.11246  23823564.52746
        40.750          24.750  
  21254209.508 6      2156.291 6  -9115872.989 6  -7056169.28748  21254200.98848
        46.500          37.500  
  22759765.617 6      2363.127 6  -8693084.642 6  -6729488.21047  22759756.57047
        47.000          31.250  
  22138756.211 6     -2002.555 6   2854854.480 6   2241256.78248  22138750.50448
        46.250          34.000  
  24427529.547 5     -1820.911 5   2075372.058 5   1620517.37746  24427524.66046
        42.000          21.000  
  22628713.797 6      3033.960 6 -10956831.419 6  -8529881.13047  22628707.56347
        43.000          30.750  
  20963927.102 7     -1809.864 7   2279212.018 7   1795135.25848  20963917.87948
        49.250          40.250  
 11  3 29 21 43 30.0000000  0  9G11G14G16G20G23G24G25G30G31         
  23851088.211 6     -2640.426 6   6147370.113 6   4790822.50446  23851082.73846
        44.500          24.500  
  24159514.828 5     -2566.886 5   6972626.017 5   5426200.12246  24159508.59446
        40.750          21.250  
  23813769.219 5      3433.335 5  -8156984.451 5  -7303053.89146  23813764.80146
        42.000          22.750  
  21248072.109 6      2150.103 6  -9148124.536 6  -7081300.34448  21248063.53148
        46.250          38.000  
  22753024.766 7      2361.436 7  -8728506.181 7  -6757089.37047  22753016.18847
        48.000          31.750  
  22144492.031 6     -2009.391 6   2884995.348 6   2264743.14548  22144486.03148
        46.500          34.000  
  24432749.031 5     -1828.961 5   2102806.467 5   1641894.81846  24432745.08246
        40.250          20.500  
  22620067.102 6      3029.264 6 -11002270.372 6  -8565288.06047  22620061.33647
        44.500          31.500  
  20969112.469 7     -1816.607 7   2306461.119 7   1816368.31748  20969103.30548
        48.750          41.000  
 11  3 29 21 43 45.0000000  0  9G11G14G16G20G23G24G25G30G31         
  23858632.297 6     -2642.859 6   6187012.993 6   4821713.00646  23858627.00046
        43.250          25.000  
  24166843.563 5     -2567.566 5   7011139.502 5   5456210.62746  24166838.14846
        40.500          21.500  
  23803972.266 5      3431.988 5  -8208464.266 5  -7343167.89646  23803967.90646
        41.500          22.750  
  21241952.203 6      2143.902 6  -9180283.064 6  -7106358.91548  21241944.15248
        47.000          37.750  
  22746289.305 6      2359.722 6  -8763902.011 6  -6784670.49847  22746279.90647
        47.500          31.250  
  22150246.867 6     -2016.209 6   2915238.477 6   2288309.20048  22150241.33648
        46.750          34.000  
  24437992.813 4     -1837.005 4   2130361.542 4   1663366.27246  24437988.98046
        39.000          21.750  
  22611433.844 6      3024.532 6 -11047638.350 6  -8600639.67347  22611427.78547
        43.500          31.000  
  20974317.414 7     -1823.344 7   2333811.273 7   1837680.11548  20974308.13348
        49.000          41.000  
 11  3 29 21 44  0.0000000  0  9G11G14G16G20G23G24G25G30G31         
  23866182.867 6     -2645.269 6   6226692.030 6   4852631.66446  23866177.57046
        42.500          25.500  
  24174173.086 5     -2568.256 5   7049663.342 5   5486229.12346  24174168.25846
        39.750          20.250  
  23794179.992 5      3430.616 5  -8259923.500 5  -7383265.88146  23794175.22346
        41.000          22.500  
  21235851.063 6      2137.676 6  -9212348.198 6  -7131344.71448  21235842.48448
        46.250          38.500  
  22739558.203 6      2358.016 6  -8799272.253 6  -6812231.68547  22739549.33247
        46.750          31.000  
  22156021.492 6     -2023.002 6   2945583.501 6   2311954.64948  22156015.72748
        46.500          34.000  
  24443259.273 4     -1845.029 4   2158036.984 4   1684931.49446  24443256.55546
        39.000          22.250  
  22602813.930 6      3019.777 6 -11092935.007 6  -8635935.71647  22602807.81347
        44.500          31.500  
  20979541.031 7     -1830.046 7   2361261.966 7   1859070.25648  20979531.75048
        48.750          41.000  
 11  3 29 21 44 15.0000000  0  9G11G14G16G20G23G24G25G30G31         
  23873740.703 6     -2647.623 6   6266406.370 6   4883577.84747  23873735.17247
        43.500          27.000  
  24181507.156 5     -2568.903 5   7088196.881 5   5516255.17246  24181500.92246
        41.000          19.750  
  23784391.523 5      3429.248 5  -8311362.223 5  -7423347.89646  23784386.52046
        42.250          22.750  
  21229766.805 6      2131.461 6  -9244320.107 6  -7156257.87148  21229757.93448
        47.250          37.500  
  22732832.844 6      2356.331 6  -8834617.212 6  -6839773.17847  22732823.50447
        46.750          31.500  
  22161815.023 6     -2029.753 6   2976029.799 6   2335679.00648  22161809.49248
        46.250          34.250  
  24448549.016 5     -1853.013 5   2185832.183 5   1706590.06246  24448546.06346
        40.250          22.000  
  22594207.898 6      3015.019 6 -11138160.295 6  -8671176.15647  22594201.72347
        44.500          31.500  
  20984783.711 7     -1836.708 7   2388812.588 7   1880538.26748  20984774.60548
        48.000          40.500  
 11  3 29 21 44 30.0000000  0  9G11G14G16G20G23G24G25G30G31         
  23881304.797 6     -2649.954 6   6306155.683 6   4914551.27446  23881299.26646
        43.500          24.500  
  24188841.211 5     -2569.557 5   7126740.228 5   5546288.94046  24188835.21146
        40.500          20.500  
  23774607.406 5      3427.855 5  -8362780.054 5  -7463413.62546  23774601.46546
        41.500          22.750  
  21223700.555 6      2125.217 6  -9276198.360 6  -7181098.04648  21223691.80148
        47.000          37.250  
  22726111.492 6      2354.643 6  -8869936.858 6  -6867294.92547  22726102.27047
        47.000          31.500  
  22167627.953 6     -2036.484 6   3006577.059 6   2359482.04347  22167622.53947
        44.750          33.500  
  24453860.891 5     -1860.981 5   2213746.905 5   1728341.76446  24453857.05946
        40.000          22.750  
  22585615.461 6      3010.237 6 -11183313.844 6  -8706360.69647  22585609.40247
        45.000          32.500  
  20990045.172 7     -1843.351 7   2416462.850 7   1902083.91848  20990036.53548
        47.750          40.750  
 11  3 29 21 44 45.0000000  0  9G11G14G16G20G23G24G25G30G31         
  23888874.477 6     -2652.292 6   6345940.056 6   4945552.03546  23888869.41446
        42.500          23.500  
  24196178.063 5     -2570.242 5   7165293.854 5   5576330.66946  24196172.12146
        40.000          20.250  
  23764826.727 5      3426.402 5  -8414176.080 5  -7503462.35046  23764821.25446
        40.250          22.750  
  21217652.281 6      2118.925 6  -9307982.233 6  -7205864.68748  21217643.29348
        46.250          37.250  
  22719395.141 6      2352.922 6  -8905230.695 6  -6894796.58247  22719385.85947
        47.500          30.750  
  22173460.609 6     -2043.223 6   3037225.410 6   2383363.84648  22173454.66848
        46.000          33.750  
  24459195.586 5     -1868.972 5   2241781.479 5   1750186.85546  24459192.39846
        39.500          22.000  
  22577037.016 6      3005.399 6 -11228394.829 6  -8741488.67547  22577030.60547
        44.000          32.500  
  20995325.813 6     -1850.003 6   2444212.898 6   1923707.32648  20995316.82448
        47.250          40.750  
 11  3 29 21 45  0.0000000  0  9G11G14G16G20G23G24G25G30G31         
  23896452.492 6     -2654.602 6   6385759.085 6   4976579.78346  23896447.25446
        42.500          24.250  
  24203515.758 5     -2570.925 5   7203857.727 5   5606380.37646  24203511.04746
        39.250          20.250  
  23755049.789 5      3424.919 5  -8465549.871 5  -7543493.74546  23755045.25446
        41.500          21.750  
  21211621.688 6      2112.630 6  -9339671.680 6  -7230557.74948  21211612.93448
        46.750          37.500  
  22712684.031 6      2351.209 6  -8940498.828 6  -6922278.20347  22712674.80947
        47.500          30.750  
  22179312.086 6     -2049.937 6   3067974.463 6   2407324.12248  22179306.26248
        46.000          34.500  
  24464553.250 5     -1876.939 5   2269935.564 5   1772125.04546  24464549.71146
        39.500          21.500  
  22568472.094 6      3000.531 6 -11273402.795 6  -8776559.77747  22568466.38747
        43.500          31.000  
  21000625.844 7     -1856.639 7   2472062.484 7   1945408.29448  21000616.62148
        48.500          40.750  
 11  3 29 21 45 15.0000000  0  9G11G14G16G20G23G24G25G30G31         
  23904036.031 5     -2656.905 5   6425612.657 5   5007634.46246  23904030.91046
        42.250          22.250  
  24210857.328 5     -2571.596 5   7242431.661 5   5636437.89346  24210851.79746
        40.500          21.000  
  23745278.305 5      3423.392 5  -8516900.759 5  -7583507.30346  23745273.53546
        42.250          22.500  
  21205609.945 6      2106.297 6  -9371266.134 6  -7255176.78148  21205601.36748
        47.250          37.500  
  22705977.461 7      2349.474 7  -8975740.940 7  -6949739.54447  22705968.12147
        47.750          31.750  
  22185182.508 6     -2056.651 6   3098824.231 6   2431362.87848  22185176.91848
        46.500          34.000  
  24469933.469 5     -1884.905 5   2298209.142 5   1794156.40246  24469929.16846
        39.500          21.250  
  22559921.406 6      2995.621 6 -11318337.112 6  -8811573.47747  22559915.40647
        45.000          31.500  
  21005944.164 7     -1863.276 7   2500011.619 7   1967186.83548  21005935.23448
        48.500          40.500  
 11  3 29 21 45 30.0000000  0  9G11G14G16G20G23G24G25G30G31         
  23911626.313 5     -2659.134 5   6465499.670 5   5038715.20146  23911621.83646
        41.250          22.750  
  24218199.102 4     -2572.239 4   7281015.247 4   5666503.01646  24218193.10246
        39.000          20.000  
  23735511.039 5      3421.898 5  -8568229.227 5  -7623503.38346  23735505.85946
        41.000          22.750  
  21199615.492 6      2099.988 6  -9402765.950 6  -7279722.07848  21199607.03148
        46.750          37.750  
  22699275.906 6      2347.783 6  -9010957.683 6  -6977181.12247  22699266.62547
        47.250          32.000  
  22191071.875 6     -2063.289 6   3129773.569 6   2455479.21948  22191065.93448
        47.000          33.750  
  24475335.781 4     -1892.813 4   2326601.334 4   1816280.16946  24475332.00846
        38.750          22.000  
  22551384.742 6      2990.730 6 -11363198.068 6  -8846530.02347  22551378.39147
        44.750          32.500  
  21011281.430 7     -1869.839 7   2528059.198 7   1989042.08348  21011272.85248
        49.000          40.500  
 11  3 29 21 45 45.0000000  0  9G11G14G16G20G23G24G25G30G31         
  23919223.422 5     -2661.376 5   6505420.311 5   5069822.12946  23919218.41846
        41.250          22.250  
  24225543.695 4     -2572.924 4   7319609.112 4   5696576.08046  24225538.34046
        39.000          20.250  
  23725748.094 5      3420.336 5  -8619534.262 5  -7663481.21946  23725742.68046
        41.000          22.250  
  21193639.383 6      2093.622 6  -9434170.285 6  -7304192.97148  21193630.68848
        47.000          38.000  
  22692579.141 6      2346.055 6  -9046148.509 6  -7004602.50347  22692570.09447
        47.000          31.500  
  22196980.289 6     -2069.945 6   3160822.742 6   2479673.35948  22196974.69948
        47.000          34.000  
  24480762.234 5     -1900.741 5   2355112.454 5   1838496.56046  24480759.22346
        41.500          25.250  
  22542861.977 6      2985.775 6 -11407984.693 6  -8881428.64547  22542855.97747
        44.750          32.500  
  21016637.352 7     -1876.421 7   2556205.510 7   2010974.26248  21016628.18848
        49.000          40.500  
 11  3 29 21 46  0.0000000  0  9G11G14G16G20G23G24G25G30G31         
  23926825.922 6     -2663.576 6   6545373.949 6   5100954.74746  23926821.38746
        42.500          25.250  
  24232889.367 5     -2573.571 5   7358212.674 5   5726656.73746  24232884.07046
        39.500          20.500  
  23715988.445 5      3418.775 5  -8670815.891 5  -7703440.81946  23715984.02746
        40.750          21.500  
  21187681.328 6      2087.276 6  -9465479.422 6  -7328589.68448  21187672.51648
        47.500          38.000  
  22685887.328 6      2344.357 6  -9081313.867 6  -7032004.03947  22685878.22347
        47.000          31.750  
  22202907.555 6     -2076.550 6   3191970.989 6   2503944.68747  22202902.02347
        46.500          33.250  
  24486210.430 5     -1908.622 5   2383741.785 5   1860805.12746  24486206.89146
        41.750          24.750  
  22534353.469 6      2980.828 6 -11452697.108 6  -8916269.43947  22534347.05947
        45.000          32.000  
  21022012.047 7     -1882.956 7   2584449.856 7   2032982.83748  21022003.17648
        48.500          40.250  
 11  3 29 21 46 15.0000000  0  9G11G14G16G20G23G24G25G30G31         
  23934435.727 6     -2665.760 6   6585360.355 6   5132112.92646  23934430.43046
        42.750          22.750  
  24240237.258 4     -2574.226 4   7396826.059 4   5756745.04046  24240231.49246
        38.250          20.000  
  23706234.922 5      3417.170 5  -8722073.434 5  -7743381.62346  23706229.56646
        40.750          20.500  
  21181741.578 6      2080.897 6  -9496692.883 6  -7352911.84248  21181732.76648
        47.500          38.000  
  22679200.250 6      2342.654 6  -9116453.681 6  -7059385.68147  22679191.14547
        47.500          31.500  
  22208853.906 6     -2083.153 6   3223218.279 6   2528293.19447  22208848.14147
        46.500          33.250  
  24491680.023 5     -1916.508 5   2412489.412 5   1883205.83046  24491678.06646
        40.500          24.000  
  22525859.297 6      2975.842 6 -11497334.745 6  -8951051.95947  22525853.18047
        45.250          32.250  
  21027405.320 7     -1889.476 7   2612791.995 7   2055067.61548  21027396.33248
        49.500          40.500  
 11  3 29 21 46 30.0000000  0  9G11G14G16G20G23G24G25G30G31         
  23942051.188 5     -2667.944 5   6625379.512 5   5163296.64046  23942045.48046
        41.750          22.500  
  24247586.781 3     -2574.920 3   7435449.859 3   5786841.41646  24247582.18846
        36.750          19.250  
  23696485.578 5      3415.509 5  -8773306.062 5  -7783303.03246  23696480.69146
        41.000          22.500  
  21175820.625 6      2074.461 6  -9527809.801 6  -7377158.78348  21175811.46148
        46.500          38.000  
  22672519.078 6      2340.896 6  -9151567.120 6  -7086746.76147  22672509.68047
        46.750          32.000  
  22214819.352 6     -2089.769 6   3254564.807 6   2552719.03747  22214813.00047
        47.000          32.500  
  24497173.586 5     -1924.408 5   2441355.531 5   1905698.85246  24497170.86746
        41.500          25.500  
  22517379.336 6      2970.795 6 -11541896.671 6  -8985775.49147  22517373.10247
        45.250          32.750  
  21032817.555 7     -1896.008 7   2641232.119 7   2077228.73948  21032808.56648
        47.750          41.250  
 11  3 29 21 46 45.0000000  0  9G11G14G16G20G23G24G25G30G31         
  23949672.125 6     -2670.044 6   6665430.168 6   5194504.88446  23949666.71146
        42.500          22.500  
  24254939.438 4     -2575.544 4   7474083.013 4   5816945.11546  24254933.26246
        39.000          19.250  
  23686740.539 5      3413.895 5  -8824514.488 5  -7823205.54946  23686735.65246
        40.750          22.000  
  21169917.320 6      2068.073 6  -9558830.900 6  -7401331.04548  21169908.09848
        47.000          38.500  
  22665841.617 6      2339.197 6  -9186655.075 6  -7114087.98347  22665832.27747
        45.500          32.500  
  22220802.797 7     -2096.299 7   3286009.286 7   2577221.19847  22220797.03147
        47.750          33.500  
  24502689.734 5     -1932.233 5   2470339.028 5   1928283.35046  24502686.02046
        41.750          25.500  
  22508913.547 6      2965.777 6 -11586383.324 6  -9020440.35747  22508907.19547
        44.500          32.250  
  21038248.031 7     -1902.465 7   2669769.089 7   2099465.32748  21038239.04348
        48.500          40.750  
 11  3 29 21 47  0.0000000  0  9G11G14G16G20G23G24G25G30G31         
  23957299.547 5     -2672.167 5   6705512.675 5   5225737.94446  23957294.07446
        41.250          22.000  
  24262292.695 4     -2576.206 4   7512726.109 4   5847056.58746  24262286.28546
        37.750          19.250  
  23677001.047 5      3412.204 5  -8875697.551 5  -7863088.33446  23676995.92646
        40.500          22.250  
  21164032.211 6      2061.628 6  -9589755.327 6  -7425427.97948  21164023.51648
        46.500          38.000  
  22659169.805 6      2337.461 6  -9221716.991 6  -7141408.91547  22659160.46547
        47.250          32.250  
  22226804.906 6     -2102.842 6   3317551.911 6   2601799.85147  22226799.43447
        47.250          33.250  
  24508225.531 5     -1940.081 5   2499440.248 5   1950959.59346  24508223.69146
        41.250          24.250  
  22500462.547 6      2960.690 6 -11630793.673 6  -9055045.78247  22500456.78147
        44.500          32.750  
  21043696.992 7     -1908.948 7   2698403.313 7   2121777.69548  21043687.88748
        48.000          41.000  
 11  3 29 21 47 15.0000000  0  9G11G14G16G20G23G24G25G30G31         
  23964933.531 5     -2674.259 5   6745626.558 5   5256995.43246  23964928.35246
        42.000          22.000  
  24269647.914 3     -2576.874 3   7551379.217 3   5877175.83546  24269642.03146
        37.250          19.250  
  23667266.023 5      3410.499 5  -8926855.039 5  -7902951.18446  23667260.78546
        41.250          22.750  
  21158166.172 6      2055.172 6  -9620582.907 6  -7449449.45948  21158157.35948
        46.500          38.500  
  22652502.305 6      2335.735 6  -9256753.021 6  -7168709.67047  22652493.31647
        47.000          31.750  
  22232826.250 6     -2109.362 6   3349192.335 6   2626454.70147  22232820.19147
        47.000          33.500  
  24513787.570 5     -1947.914 5   2528658.959 5   1973727.40046  24513783.03546
        41.750          25.250  
  22492026.359 6      2955.588 6 -11675127.488 6  -9089591.56047  22492020.12547
        45.750          32.500  
  21049164.289 7     -1915.402 7   2727134.349 7   2144165.50748  21049154.77348
        48.250          41.000  
 11  3 29 21 47 30.0000000  0  9G11G14G16G20G23G24G25G30G31         
  23972572.727 5     -2676.318 5   6785771.334 5   5288277.02446  23972567.84046
        41.000          21.750  
  24277004.180 3     -2577.520 3   7590042.023 3   5907302.61245  24276999.46945
        36.750          18.500  
  23657536.117 5      3408.772 5  -8977986.622 5  -7942793.84446  23657530.23446
        41.000          22.500  
  21152318.078 7      2048.704 7  -9651313.460 7  -7473395.32648  21152309.20748
        47.750          38.000  
  22645840.273 7      2334.013 7  -9291763.210 7  -7195990.29347  22645831.28547
        47.750          32.500  
  22238865.539 6     -2115.848 6   3380930.056 6   2651185.35847  22238859.48047
        47.250          33.250  
  24519370.016 5     -1955.714 5   2557994.669 5   1996586.35846  24519366.06646
        41.250          26.250  
  22483604.313 6      2950.469 6 -11719384.521 6  -9124077.51247  22483598.25447
        46.000          32.500  
  21054649.547 7     -1921.822 7   2755961.681 7   2166628.35248  21054640.61748
        48.250          40.250  
 11  3 29 21 47 45.0000000  0  9G11G14G16G20G23G24G25G30G31         
  23980217.383 5     -2678.369 5   6825946.873 5   5319582.54646  23980212.49646
        41.500          21.500  
  24284364.047 4     -2578.191 4   7628714.893 4   5937437.28545  24284359.10245
        38.250          18.500  
  23647811.000 5      3406.993 5  -9029091.524 5  -7982615.71546  23647805.29346
        42.000          22.500  
  21146489.305 6      2042.191 6  -9681946.317 6  -7497265.06548  21146480.19948
        46.750          37.500  
  22639183.055 6      2332.261 6  -9326747.126 6  -7223250.44447  22639173.24647
        47.250          32.250  
  22244923.531 7     -2122.345 7   3412765.237 7   2675991.96447  22244918.17647
        47.750          33.500  
  24524974.344 5     -1963.527 5   2587447.567 5   2019536.64846  24524971.50846
        41.500          26.250  
  22475197.242 6      2945.299 6 -11763563.999 6  -9158503.03047  22475190.71547
        45.750          32.500  
  21060153.953 7     -1928.229 7   2784885.118 7   2189166.08448  21060144.73048
        48.750          40.500  
 11  3 29 21 48  0.0000000  0  9G11G14G16G20G23G24G25G30G31         
  23987869.227 5     -2680.389 5   6866152.710 5   5350911.71546  23987863.40246
        42.000          21.000  
  24291725.227 4     -2578.848 4   7667397.616 4   5967579.61346  24291719.75446
        37.750          19.500  
  23638090.711 5      3405.196 5  -9080169.460 5  -8022416.57546  23638085.18046
        41.500          22.750  
  21140678.422 6      2035.678 6  -9712481.486 6  -7521058.68848  21140669.72748
        46.250          38.000  
  22632530.398 6      2330.524 6  -9361704.994 6  -7250490.29147  22632521.29347
        47.000          32.000  
  22251000.070 6     -2128.805 6   3444697.319 6   2700874.08147  22250994.42247
        47.000          33.250  
  24530601.109 5     -1971.312 5   2617017.243 5   2042577.93746  24530598.80146
        40.750          25.000  
  22466804.508 6      2940.109 6 -11807665.636 6  -9192867.90047  22466798.62547
        45.500          32.500  
  21065676.148 7     -1934.645 7   2813904.792 7   2211778.81148  21065667.10248
        48.000          40.750  
 11  3 29 21 48 15.0000000  0 10G11G13G14G16G20G23G24G25G30G31      
  23995524.602 5     -2682.114 5   6906384.421 5   5382261.05746  23995518.42646
        41.750          22.000  
  25452739.34413      2844.03113   -491902.72813                
        36.000  
  24299087.531 3     -2579.241 3   7706086.232 3   5997726.49646  24299081.88346
        36.500          19.000  
  23628375.719 5      3403.646 5  -9131224.155 5  -8062199.31346  23628369.48446
        41.000          22.750  
  21134885.531 6      2029.416 6  -9742922.726 6  -7544779.11948  21134876.83648
        46.500          38.000  
  22625882.344 6      2329.052 6  -9396640.772 6  -7277712.93847  22625873.18047
        47.250          32.250  
  22257094.531 6     -2134.976 6   3476721.961 6   2725828.31947  22257088.53147
        47.250          33.000  
  24536249.750 5     -1978.813 5   2646699.441 5   2065706.85547  24536246.91447
        40.500          27.250  
  22458426.758 6      2935.161 6 -11851693.056 6  -9227174.93147  22458420.52347
        47.250          33.000  
  21071215.711 6     -1940.765 6   2843016.268 6   2234463.06648  21071206.78148
        47.250          41.000  
 11  3 29 21 48 30.0000000  0 10G11G13G14G16G20G23G24G25G30G31      
  24003187.164 5     -2684.359 5   6946649.800 5   5413636.60746  24003181.69146
        42.000          21.500  
  25444620.578 1      2844.129 1   -534564.670 1                
        33.750  
  24306452.742 4     -2580.158 4   7744788.599 4   6027884.12345  24306446.50845
        38.000          17.250  
  23618665.844 5      3401.518 5  -9182246.923 5  -8101957.17846  23618660.54746
        41.000          23.250  
  21129112.516 6      2022.592 6  -9773261.603 6  -7568419.78648  21129103.58648
        46.750          37.250  
  22619240.273 7      2327.034 7  -9431546.277 7  -7304911.98547  22619231.10947
        47.750          32.500  
  22263207.070 6     -2141.667 6   3508846.960 6   2750860.75847  22263201.24647
        46.500          32.500  
  24541920.813 5     -1986.840 5   2676502.042 5   2088929.63446  24541918.09446
        41.000          24.750  
  22450064.586 6      2929.635 6 -11895637.588 6  -9261417.37847  22450058.05947
        46.500          32.500  
  21076774.547 7     -1947.389 7   2872227.109 7   2257224.74848  21076765.44148
        48.000          40.500  
 11  3 29 21 48 45.0000000  0 10G11G13G14G16G20G23G24G25G30G31      
  24010854.922 5     -2686.296 5   6986944.243 5   5445034.79146  24010849.15646
        41.000          20.500  
  25436503.891 1      2843.824 1   -577222.033 1                
        31.500  
  24313819.891 4     -2580.800 4   7783500.596 4   6058049.31746  24313813.42246
        38.500          19.000  
  23608961.859 5      3399.653 5  -9233241.717 5  -8141693.25046  23608956.09446
        40.000          22.750  
  21123357.734 6      2016.031 6  -9803502.065 6  -7591983.75948  21123348.92248
        46.750          38.000  
  22612602.539 7      2325.296 7  -9466425.718 7  -7332090.72047  22612593.60947
        47.750          32.250  
  22269338.789 6     -2148.051 6   3541067.724 6   2775967.82347  22269333.49247
        47.000          33.000  
  24547613.938 5     -1994.567 5   2706420.546 5   2112242.73346  24547610.92646
        39.750          25.750  
  22441717.000 6      2924.370 6 -11939503.139 6  -9295598.28147  22441710.76647
        46.750          32.500  
  21082351.109 7     -1953.715 7   2901532.840 7   2280060.37948  21082342.29748
        48.000          40.500  
 11  3 29 21 49  0.0000000  0 10G11G13G14G16G20G23G24G25G30G31      
  24018528.227 5     -2688.236 5   7027267.780 5   5476455.64646  24018523.04746
        41.500          20.750  
  25428387.188 2      2843.517 2   -619874.790 2                
        35.000  
  24321187.008 4     -2581.466 4   7822222.592 4   6088222.22545  24321182.41445
        38.250          18.250  
  23599263.461 5      3397.746 5  -9284207.910 5  -8181407.03846  23599257.81346
        41.000          24.250  
  21117622.164 6      2009.431 6  -9833643.531 6  -7615470.59948  21117613.46948
        47.250          38.000  
  22605970.742 7      2323.538 7  -9501278.792 7  -7359248.92047  22605961.05147
        47.750          32.750  
  22275488.570 6     -2154.434 6   3573384.238 6   2801149.49947  22275483.15647
        47.000          33.000  
  24553328.766 5     -2002.298 5   2736455.022 5   2135646.19046  24553326.69146
        39.250          26.000  
  22433384.570 6      2919.063 6 -11983289.089 6  -9329717.14647  22433378.21947
        47.500          32.750  
  21087945.969 6     -1960.044 6   2930933.493 6   2302969.96248  21087936.86348
        47.250          40.500  
 11  3 29 21 49 15.0000000  0 10G11G13G14G16G20G23G24G25G30G31      
  24026207.266 5     -2690.137 5   7067619.828 5   5507898.73846  24026201.67646
        41.750          21.000  
  25420270.156 1      2843.203 1   -662522.828 1   -467366.78255  25420268.72755
        31.750          16.250  
  24328558.063 4     -2582.100 4   7860954.093 4   6118402.56646  24328552.59046
        37.750          19.000  
  23589569.875 5      3395.825 5  -9335145.279 5  -8221098.36146  23589564.28546
        41.250          22.750  
  21111905.320 6      2002.836 6  -9863686.064 6  -7638880.35448  21111896.50848
        46.250          38.250  
  22599343.242 6      2321.799 6  -9536105.772 6  -7386386.77347  22599333.84447
        47.500          32.000  
  22281656.000 6     -2160.777 6   3605795.897 6   2826405.30747  22281650.41047
        47.500          32.500  
  24559067.313 5     -2009.994 5   2766604.928 5   2159139.57247  24559064.00847
        41.500          27.000  
  22425067.867 6      2913.755 6 -12026995.418 6  -9363773.97747  22425061.28147
        47.500          33.250  
  21093558.648 6     -1966.328 6   2960428.420 6   2325953.01448  21093549.77748
        47.250          39.750  
 11  3 29 21 49 30.0000000  0 10G11G13G14G16G20G23G24G25G30G31      
  24033891.688 5     -2692.275 5   7108003.950 5   5539366.82246  24033886.68446
        41.250          21.000  
  25412158.14111      2843.39111                   -500592.40855  25412154.95355
        28.500          14.750  
  24335931.828 3     -2583.013 3   7899699.285 3   6148593.52445  24335925.77045
        37.250          18.500  
  23579882.820 5      3393.620 5  -9386049.573 5  -8260763.92746  23579877.93446
        40.500          24.500  
  21106207.563 6      1995.957 6  -9893625.425 6  -7662209.70048  21106199.10248
        46.250          38.250  
  22592721.563 6      2319.798 6  -9570902.740 6  -7413501.24747  22592712.69147
        47.250          33.000  
  22287843.055 7     -2167.364 7   3638306.352 7   2851738.09547  22287837.17247
        47.750          32.750  
  24564827.383 6     -2017.939 6   2796874.012 6   2182725.84547  24564824.07847
        42.500          27.500  
  22416766.539 6      2908.146 6 -12070617.603 6  -9397765.24647  22416759.95347
        47.000          33.250  
  21099189.938 6     -1972.868 6   2990021.443 6   2349012.50248  21099180.77348
        47.500          39.250  
 11  3 29 21 49 45.0000000  0 10G11G13G14G16G20G23G24G25G30G31      
  24041580.258 5     -2693.609 5   7148408.087 5   5570850.49946  24041575.02046
        40.500          21.000  
  25404042.313 1      2842.766 1   -747805.656 1   -533820.63245  25404039.82845
        32.000          13.750  
  24343305.352 4     -2583.145 4   7938446.460 4   6178786.09045  24343298.88345
        38.250          18.250  
  23570200.203 5      3392.159 5  -9436931.963 5  -8300412.40446  23570195.14146
        39.750          24.000  
  21100527.430 6      1989.828 6  -9923472.847 6  -7685467.41448  21100519.14548
        47.000          38.250  
  22586103.180 6      2318.561 6  -9605681.152 6  -7440601.26647  22586093.95747
        47.000          32.750  
  22294045.688 6     -2173.154 6   3670903.660 6   2877138.57847  22294040.39147
        47.000          33.000  
  24570608.047 5     -2025.094 5   2827250.415 5   2206395.73347  24570604.97747
        41.250          27.250  
  22408479.781 6      2903.284 6 -12114166.863 6  -9431699.68447  22408472.66847
        46.750          33.500  
  21104837.836 7     -1978.615 7   3019700.664 7   2372139.16548  21104828.49648
        48.500          40.000  
 11  3 29 21 50  0.0000000  0 10G11G13G14G16G20G23G24G25G30G31      
  24049274.945 5     -2695.688 5   7188843.412 5   5602358.46446  24049270.00046
        41.750          20.500  
  25395930.117 1      2842.305 1   -790440.233 1   -567042.31145  25395927.45745
        30.500          16.750  
  24350681.203 4     -2584.041 4   7977207.079 4   6208989.18346  24350674.55946
        37.500          19.250  
  23560523.609 5      3389.906 5  -9487780.547 5  -8340034.54646  23560518.25446
        40.750          25.000  
  21094868.008 6      1982.923 6  -9953216.686 6  -7708644.41448  21094859.31348
        47.000          38.000  
  22579490.750 6      2316.562 6  -9640429.585 6  -7467677.93047  22579481.70347
        46.750          32.000  
  22300267.523 6     -2179.681 6   3703598.880 6   2902615.34447  22300262.28547
        47.500          33.250  
  24576410.930 5     -2032.995 5   2857745.335 5   2230157.98346  24576407.50846
        40.250          25.000  
  22400208.188 6      2897.631 6 -12157631.333 6  -9465568.05747  22400201.89547
        46.500          33.250  
  21110504.352 7     -1985.094 7   3049477.070 7   2395341.54548  21110495.07048
        47.750          40.250  
 11  3 29 21 50 15.0000000  0 10G11G13G14G16G20G23G24G25G30G31      
  24056974.609 5     -2697.508 5   7229306.031 5   5633887.71646  24056969.89846
        41.250          20.250  
  25387817.250 1      2841.982 1   -833069.965 1   -600260.14745  25387815.35245
        32.000          17.250  
  24358058.789 4     -2584.694 4   8015977.483 4   6239199.82146  24358053.25846
        37.750          19.000  
  23550853.422 5      3387.858 5  -9538598.422 5  -8379632.76046  23550848.12546
        41.250          25.500  
  21089226.953 6      1976.239 6  -9982860.266 6  -7731743.28448  21089218.02348
        46.500          38.500  
  22572883.336 6      2314.781 6  -9675151.306 6  -7494733.77947  22572874.28947
        47.000          32.750  
  22306507.203 6     -2185.959 6   3736388.273 6   2928165.49547  22306502.08247
        47.500          32.500  
  24582234.430 4     -2040.653 4   2888355.130 4   2254009.73146  24582232.12146
        38.250          24.000  
  22391953.023 6      2892.183 6 -12201014.080 6  -9499372.74047  22391946.73047
        46.750          33.250  
  21116188.039 6     -1991.328 6   3079346.984 6   2418616.79548  21116179.10948
        47.500          40.000  
 11  3 29 21 50 30.0000000  0 10G11G13G14G16G20G23G24G25G30G31      
  24064679.734 5     -2699.282 5   7269795.256 5   5665437.68746  24064674.84846
        41.000          19.250  
  25379705.969 1      2841.682 1   -875695.201 1   -633474.47945  25379703.83645
        30.250          15.500  
  24365438.148 4     -2585.319 4   8054757.269 4   6269417.75646  24365433.61346
        38.250          20.250  
  23541189.328 5      3385.817 5  -9589385.681 5  -8419207.13046  23541183.85546
        40.500          26.000  
  21083605.070 6      1969.563 6 -10012403.706 6  -7754764.13048  21083595.78948
        46.500          38.500  
  22566281.164 6      2313.048 6  -9709847.024 6  -7521769.36647  22566271.76647
        47.000          32.500  
  22312764.719 6     -2192.188 6   3769271.094 6   2953788.44247  22312759.18847
        47.500          32.250  
  24588081.938 4     -2048.263 4   2919079.069 4   2277950.41346  24588078.34046
        39.000          24.000  
  22383712.805 6      2886.736 6 -12244315.124 6  -9533113.77147  22383706.10247
        46.500          33.000  
  21121889.859 7     -1997.512 7   3109309.667 7   2441964.32148  21121880.57848
        48.250          40.500  
 11  3 29 21 50 45.0000000  0 10G11G13G14G16G20G23G24G25G30G31      
  24072390.195 5     -2701.059 5   7310311.148 5   5697008.43046  24072384.89846
        41.000          21.500  
  25371594.813 1      2841.337 1   -918315.254 1   -666684.77045  25371592.97345
        28.750          14.750  
  24372819.906 4     -2586.007 4   8093547.376 4   6299643.75645  24372814.60945
        37.750          18.250  
  23531530.883 5      3383.693 5  -9640141.076 5  -8458756.66546  23531525.58646
        41.500          25.000  
  21078002.555 6      1962.803 6 -10041845.755 6  -7777705.97448  21077993.74248
        46.500          38.500  
  22559683.594 6      2311.249 6  -9744515.757 6  -7548783.91647  22559674.37147
        46.250          32.250  
  22319039.570 6     -2198.450 6   3802247.841 6   2979484.58447  22319034.15647
        46.500          32.500  
  24593950.391 5     -2055.910 5   2949917.715 5   2301980.51047  24593947.02747
        40.750          27.000  
  22375488.555 6      2881.211 6 -12287533.282 6  -9566790.20647  22375482.37947
        47.000          33.000  
  21127609.406 7     -2003.727 7   3139365.576 7   2465384.50248  21127600.06648
        47.750          40.500  
 11  3 29 21 51  0.0000000  0 10G11G13G14G16G20G23G24G25G30G31      
  24080104.523 5     -2702.785 5   7350852.919 5   5728599.36246  24080099.40246
        40.500          22.000  
  25363484.75811      2840.99111   -960930.76411   -699891.53355  25363483.85555
        31.750          14.750  
  24380203.883 5     -2586.638 5   8132346.940 5   6329877.14746  24380197.23846
        39.750          19.250  
  23521878.219 5      3381.587 5  -9690864.882 5  -8498281.58746  23521872.57046
        40.750          25.250  
  21072418.977 6      1956.082 6 -10071186.989 6  -7800569.25148  21072410.10548
        46.750          38.000  
  22553091.594 6      2309.494 6  -9779158.167 6  -7575777.97347  22553082.25447
        46.500          32.750  
  22325332.734 7     -2204.641 7   3835317.463 7   3005253.09347  22325327.49647
        47.750          32.000  
  24599840.570 5     -2063.493 5   2980870.114 5   2326099.21446  24599837.96946
        40.000          26.250  
  22367280.406 6      2875.709 6 -12330668.921 6  -9600402.34847  22367273.87947
        47.000          33.000  
  21133346.227 7     -2009.876 7   3169513.723 7   2488876.55548  21133337.23848
        48.750          40.000  
 11  3 29 21 51 15.0000000  0 10G11G13G14G16G20G23G24G25G30G31      
  24087824.438 5     -2704.495 5   7391420.341 5   5760210.26446  24087819.55146
        41.000          22.000  
  25355377.570 1      2840.721 1  -1003541.583 1   -733094.60145  25355375.67245
        32.750          14.750  
  24387587.953 4     -2587.288 4   8171156.257 4   6360118.15046  24387582.89146
        38.000          20.500  
  23512231.867 5      3379.452 5  -9741556.665 5  -8537781.56147  23512225.75047
        42.000          26.750  
  21066854.516 6      1949.326 6 -10100426.884 6  -7823353.56148  21066845.76248
        46.750          38.500  
  22546504.547 6      2307.721 6  -9813773.975 6  -7602751.27747  22546495.38347
        46.250          33.500  
  22331643.133 6     -2210.821 6   3868479.779 6   3031093.82747  22331637.95347
        47.250          33.000  
  24605752.172 5     -2071.074 5   3011936.231 5   2350306.53346  24605749.62946
        40.250          25.750  
  22359087.469 6      2870.166 6 -12373721.412 6  -9633949.69847  22359080.88347
        47.000          32.500  
  21139100.914 7     -2016.024 7   3199754.076 7   2512440.45848  21139091.51648
        48.000          40.000  
 11  3 29 21 51 30.0000000  0 10G11G13G14G16G20G23G24G25G30G31      
  24095549.094 5     -2706.195 5   7432013.271 5   5791841.03546  24095544.26646
        40.250          22.500  
  25347269.156 1      2840.390 1  -1046147.426 1   -766293.83245  25347267.90245
        30.750          13.750  
  24394975.398 4     -2587.933 4   8209975.253 4   6390366.63946  24394970.10246
        38.500          19.500  
  23502591.641 5      3377.270 5  -9792215.711 5  -8577256.02546  23502585.64146
        41.500          25.000  
  21061309.609 6      1942.554 6 -10129565.198 6  -7846058.72648  21061301.20748
        46.250          38.750  
  22539922.188 6      2305.942 6  -9848363.101 6  -7629703.79547  22539913.02347
        46.000          33.000  
  22337971.594 6     -2216.980 6   3901734.472 6   3057006.55047  22337966.23847
        47.000          32.500  
  24611684.883 5     -2078.639 5   3043115.811 5   2374602.27146  24611682.86746
        39.750          24.750  
  22350910.547 6      2864.600 6 -12416690.412 6  -9667431.99247  22350904.43047
        47.000          33.000  
  21144872.898 6     -2022.148 6   3230086.299 6   2536075.94848  21144863.73448
        47.500          40.000  
 11  3 29 21 51 45.0000000  0 10G11G13G14G16G20G23G24G25G30G31      
  24103278.914 5     -2707.857 5   7472631.132 5   5823491.26246  24103273.44146
        40.500          22.500  
  25339162.06311      2840.05811  -1088749.00111   -799489.64654  25339161.10254
        31.000          12.500  
  24402365.242 5     -2588.555 5   8248803.575 5   6420622.46346  24402358.94946
        40.250          20.000  
  23492957.570 5      3375.091 5  -9842842.075 5  -8616705.03446  23492951.68846
        41.250          25.500  
  21055784.344 6      1935.785 6 -10158601.980 6  -7868684.77848  21055775.41448
        46.500          38.000  
  22533344.930 6      2304.190 6  -9882925.955 6  -7656635.84547  22533336.11747
        46.000          33.500  
  22344317.016 6     -2223.094 6   3935080.886 6   3082990.73747  22344311.66047
        47.500          32.250  
  24617640.219 4     -2086.168 4   3074408.330 4   2398985.99346  24617637.09046
        38.500          25.500  
  22342749.805 6      2859.019 6 -12459575.703 6  -9700849.05247  22342743.68847
        46.750          33.250  
  21150662.211 6     -2028.236 6   3260509.833 6   2559782.58548  21150653.28148
        47.500          40.500  
 11  3 29 21 52  0.0000000  0 10G11G13G14G16G20G23G24G25G30G31      
  24111012.398 5     -2709.496 5   7513273.566 5   5855160.59246  24111008.33246
        40.500          21.500  
  25331057.125 1      2839.789 1  -1131345.843 1   -832681.90445  25331054.23045
        32.500          14.750  
  24409754.813 5     -2589.197 5   8287641.536 5   6450885.72246  24409749.98446
        40.000          20.250  
  23483330.039 5      3372.880 5  -9893435.269 5  -8656128.17846  23483324.56646
        41.500          26.000  
  21050278.117 6      1928.989 6 -10187536.809 6  -7891231.37648  21050269.42248
        46.250          38.500  
  22526773.000 6      2302.413 6  -9917462.151 6  -7683547.12447  22526763.54347
        46.500          33.000  
  22350679.867 6     -2229.210 6   3968519.029 6   3109046.40247  22350674.86347
        46.750          32.000  
  24623616.195 4     -2093.698 4   3105813.805 4   2423457.70746  24623613.71146
        38.250          26.250  
  22334604.813 6      2853.396 6 -12502376.637 6  -9734200.37847  22334598.87147
        46.000          33.250  
  21156469.211 6     -2034.316 6   3291024.575 6   2583560.28948  21156460.28148
        47.500          40.250  
 11  3 29 21 52 15.0000000  0 10G11G13G14G16G20G23G24G25G30G31      
  24118751.578 5     -2711.135 5   7553940.587 5   5886849.10846  24118746.63346
        40.250          22.750  
  25322951.031 1      2839.449 1  -1173937.572 1   -865870.08245  25322949.71945
        33.750          16.250  
  24417147.805 5     -2589.858 5   8326489.413 5   6481156.73346  24417142.50846
        40.250          21.250  
  23473708.930 5      3370.601 5  -9943994.286 5  -8695524.71447  23473703.45747
        40.500          26.750  
  21044791.805 6      1922.135 6 -10216368.838 6  -7913697.87048  21044782.81648
        47.000          38.750  
  22520206.055 6      2300.611 6  -9951971.310 6  -7710437.33147  22520196.94947
        45.250          33.500  
  22357060.766 6     -2235.330 6   4002048.977 6   3135173.60047  22357055.64547
        47.500          32.500  
  24629614.500 5     -2101.232 5   3137332.280 5   2448017.57646  24629611.37146
        39.500          25.000  
  22326476.367 6      2847.726 6 -12545092.527 6  -9767485.44347  22326470.19147
        47.000          33.250  
  21162293.242 7     -2040.405 7   3321630.650 7   2607409.17548  21162284.48848
        48.000          40.750  
 11  3 29 21 52 30.0000000  0 10G11G13G14G16G20G23G24G25G30G31      
  24126494.297 5     -2712.724 5   7594631.449 5   5918556.21346  24126490.17246
        39.250          22.000  
  25314847.313 1      2839.142 1  -1216524.699 1   -899054.71745  25314844.94545
        33.750          15.500  
  24424541.688 5     -2590.482 5   8365346.639 5   6511435.03246  24424536.21546
        39.750          19.750  
  23464094.227 5      3368.327 5  -9994519.187 5  -8734894.66946  23464088.46146
        41.500          25.750  
  21039324.289 6      1915.305 6 -10245098.411 6  -7936084.53048  21039315.71148
        47.000          38.500  
  22513644.125 6      2298.838 6  -9986453.885 6  -7737306.83147  22513634.31647
        46.000          32.250  
  22363458.727 6     -2241.390 6   4035669.821 6   3161371.62547  22363453.31347
        46.750          32.250  
  24635632.969 4     -2108.722 4   3168963.105 4   2472664.92446  24635630.42646
        37.500          22.500  
  22318364.211 6      2842.060 6 -12587723.426 6  -9800704.27247  22318357.74247
        45.500          33.000  
  21168135.008 7     -2046.441 7   3352327.267 7   2631328.60448  21168125.78548
        48.500          40.500  
 11  3 29 21 52 45.0000000  0 10G11G13G14G16G20G23G24G25G30G31      
  24134242.164 5     -2714.301 5   7635345.962 5   5950281.72146  24134237.51246
        40.500          22.000  
  25306744.164 2      2838.817 2  -1259106.947 2   -932235.46845  25306741.56345
        34.250          15.500  
  24431937.836 5     -2591.131 5   8404213.597 5   6541720.94746  24431932.36346
        40.000          19.000  
  23454486.273 5      3366.011 5 -10045009.353 5  -8774237.56447  23454480.21547
        42.000          26.750  
  21033877.227 6      1908.432 6 -10273724.894 6  -7958390.86448  21033868.41448
        46.500          39.000  
  22507088.188 6      2297.040 6 -10020909.486 6  -7764155.30347  22507078.26247
        45.750          33.000  
  22369873.914 6     -2247.452 6   4069381.600 6   3187640.51447  22369868.61747
        47.250          32.750  
  24641673.531 3     -2116.219 3   3200706.395 3   2497399.91046  24641670.40246
        37.250          22.500  
  22310267.641 6      2836.342 6 -12630268.555 6  -9833856.27447  22310261.17247
        45.250          32.250  
  21173992.977 6     -2052.478 6   3383114.434 6   2655318.59648  21173984.34048
        47.000          40.750  
 11  3 29 21 53  0.0000000  0 10G11G13G14G16G20G23G24G25G30G31      
  24141994.609 5     -2715.840 5   7676083.558 5   5982025.23246  24141990.54346
        41.000          22.750  
  25298641.797 2      2838.501 2  -1301684.467 2   -965412.72045  25298639.25445
        35.000          14.750  
  24439336.133 5     -2591.760 5   8443089.998 5   6572014.17646  24439330.66046
        40.500          20.750  
  23444885.484 5      3363.685 5 -10095464.631 5  -8813553.25346  23444879.25046
        42.000          25.500  
  21028449.375 6      1901.564 6 -10302248.360 6  -7980616.92648  21028440.50448
        46.500          39.250  
  22500535.711 6      2295.261 6 -10055338.395 6  -7790982.97547  22500526.37147
        46.750          32.750  
  22376306.422 6     -2253.464 6   4103183.560 6   3213979.67247  22376300.77347
        47.000          32.250  
  24647735.563 4     -2123.675 4   3232561.514 4   2522222.05846  24647732.96146
        37.750          25.000  
  22302188.086 6      2830.616 6 -12672727.796 6  -9866941.34947  22302182.14547
        46.750          33.000  
  21179868.898 7     -2058.474 7   3413991.549 7   2679378.67248  21179859.96948
        48.500          40.250  
 11  3 29 21 53 15.0000000  0 10G11G13G14G16G20G23G24G25G30G31      
  24149750.906 5     -2717.374 5   7716844.169 5   6013786.65946  24149745.90246
        40.750          23.000  
  25290539.758 2      2838.185 2  -1344257.240 2   -998586.16645  25290537.21545
        34.750          14.750  
  24446736.367 5     -2592.402 5   8481976.024 5   6602314.92646  24446730.42646
        40.750          21.750  
  23435289.773 5      3361.320 5 -10145884.428 5  -8852841.31646  23435284.71146
        41.000          25.000  
  21023040.766 6      1894.670 6 -10330668.411 6  -8002762.40648  21023032.12948
        46.500          38.750  
  22493989.211 6      2293.470 6 -10089740.451 6  -7817789.73947  22493980.34047
        47.000          33.500  
  22382755.867 6     -2259.466 6   4137075.555 6   3240388.99147  22382750.86347
        47.500          32.000  
  24653819.289 5     -2131.122 5   3264528.344 5   2547131.25546  24653815.28146
        39.500          22.750  
  22294125.273 6      2824.858 6 -12715100.666 6  -9899959.11747  22294118.39547
        46.250          33.500  
  21185761.836 6     -2064.451 6   3444958.308 6   2703508.60948  21185752.78948
        47.500          40.500  
 11  3 29 21 53 30.0000000  0 10G11G13G14G16G20G23G24G25G30G31      
  24157512.344 5     -2718.876 5   7757627.307 5   6045565.65546  24157506.69546
        41.750          24.250  
  25282439.594 3      2837.859 3  -1386825.131 3  -1031755.90344  25282436.64144
        35.750          12.500  
  24454136.898 5     -2593.038 5   8520871.587 5   6632623.09746  24454131.66046
        39.500          20.250  
  23425702.008 5      3358.923 5 -10196268.268 5  -8892101.35046  23425696.71146
        42.000          24.500  
  21017652.727 6      1887.758 6 -10358984.776 6  -8024827.08248  21017644.14848
        46.500          39.000  
  22487448.031 6      2291.682 6 -10124115.684 6  -7844575.58848  22487438.28148
        47.500          34.000  
  22389221.586 6     -2265.448 6   4171057.281 6   3266868.22347  22389216.69947
        47.250          32.500  
  24659922.234 5     -2138.555 5   3296606.666 5   2572127.32946  24659919.69146
        39.250          22.500  
  22286078.336 6      2819.068 6 -12757386.691 6  -9932909.22447  22286071.86747
        47.500          33.000  
  21191671.531 6     -2070.420 6   3476014.606 6   2727708.30748  21191662.19148
        47.500          40.250  
 11  3 29 21 53 45.0000000  0 10G11G13G14G16G20G23G24G25G30G31      
  24165277.945 5     -2720.366 5   7798432.793 5   6077362.04146  24165272.70746
        41.750          26.000  
  25274340.227 3      2837.525 3  -1429388.007 3  -1064921.75045  25274337.33245
        36.750          13.750  
  24461541.102 5     -2593.687 5   8559776.889 5   6662938.87645  24461534.92645
        40.500          18.250  
  23416121.641 6      3356.505 6 -10246615.838 6  -8931333.13646  23416115.75846
        42.500          25.500  
  21012283.750 6      1880.820 6 -10387197.070 6  -8046810.67348  21012275.23048
        47.000          38.750  
  22480911.563 6      2289.883 6 -10158463.928 6  -7871340.41647  22480901.98847
        47.000          33.500  
  22395705.750 6     -2271.423 6   4205128.630 6   3293417.28947  22395700.04347
        47.000          32.000  
  24666048.930 5     -2145.982 5   3328796.396 5   2597210.18046  24666046.44546
        40.000          26.250  
  22278048.148 6      2813.248 6 -12799585.405 6  -9965791.29247  22278041.56347
        46.750          33.500  
  21197598.273 7     -2076.380 7   3507160.302 7   2751977.67148  21197589.40248
        47.750          40.000  
 11  3 29 21 54  0.0000000  0 10G11G13G14G16G20G23G24G25G30G31      
  24173046.680 5     -2721.786 5   7839259.584 5   6109175.07046  24173041.67646
        42.000          22.250  
  25266241.563 4      2837.226 4  -1471946.403 4  -1098083.91145  25266238.84445
        38.000          14.750  
  24468947.234 5     -2594.294 5   8598691.293 5   6693261.74746  24468941.46946
        41.500          20.250  
  23406547.984 5      3354.086 5 -10296927.135 5  -8970536.67147  23406541.51647
        41.750          27.500  
  21006935.398 6      1873.900 6 -10415305.571 6  -8068713.38648  21006926.58648
        47.000          39.000  
  22474380.422 6      2288.112 6 -10192785.610 6  -7898084.55147  22474371.49247
        46.250          33.000  
  22402206.250 6     -2277.338 6   4239288.699 6   3320035.49847  22402201.53947
        46.750          32.250  
  24672195.484 5     -2153.354 5   3361096.703 5   2622379.24446  24672192.64846
        39.750          24.250  
  22270034.352 6      2807.426 6 -12841696.796 6  -9998605.30747  22270027.70747
        45.750          33.500  
  21203542.180 7     -2082.280 7   3538394.497 7   2776315.99848  21203533.13348
        48.000          39.750  
 11  3 29 21 54 15.0000000  0 10G11G13G14G16G20G23G24G25G30G31      
  24180819.313 5     -2723.243 5   7880108.222 5   6141005.08446  24180814.66046
        40.750          22.500  
  25258143.867 3      2836.882 3  -1514499.627 3  -1131242.48545  25258140.79745
        37.250          14.750  
  24476353.422 5     -2594.949 5   8637615.525 5   6723592.26446  24476348.65246
        40.500          21.500  
  23396980.391 5      3351.607 5 -10347201.245 5  -9009711.20446  23396974.56646
        42.000          24.750  
  21001606.242 6      1866.915 6 -10443309.295 6  -8090534.45448  21001597.25448
        46.750          39.000  
  22467854.211 6      2286.288 6 -10227079.937 6  -7924807.36147  22467844.87147
        46.750          33.250  
  22408723.578 6     -2283.271 6   4273537.770 6   3346723.04747  22408717.63747
        47.500          31.500  
  24678362.406 4     -2160.758 4   3393508.079 4   2647634.79646  24678360.21546
        38.000          24.000  
  22262037.594 6      2801.541 6 -12883719.909 6 -10031350.54847  22262031.00847
        45.500          33.500  
  21209502.664 7     -2088.194 7   3569717.411 7   2800723.44648  21209493.91048
        48.500          40.250  
 11  3 29 21 54 30.0000000  0 10G11G13G14G16G20G23G24G25G30G31      
  24188596.000 5     -2724.656 5   7920978.059 5   6172851.63546  24188592.28546
        41.250          22.750  
  25250046.906 3      2836.555 3  -1557047.953 3  -1164396.80745  25250044.77345
        37.250          14.750  
  24483761.953 4     -2595.586 4   8676549.318 4   6753930.19746  24483756.77346
        38.500          19.500  
  23387421.055 6      3349.111 6 -10397437.906 6  -9048856.58746  23387415.05546
        42.500          26.000  
  20996297.273 6      1859.932 6 -10471208.278 6  -8112273.90348  20996288.34448
        47.250          38.750  
  22461333.719 6      2284.481 6 -10261347.158 6  -7951509.05948  22461324.20348
        46.000          33.750  
  22415258.047 7     -2289.167 7   4307875.282 7   3373479.51347  22415252.63347
        47.750          31.250  
  24684551.445 4     -2168.124 4   3426029.935 4   2672976.50046  24684548.72746
        38.000          23.000  
  22254057.688 6      2795.645 6 -12925654.586 6 -10064026.87747  22254050.57447
        47.000          33.250  
  21215480.141 7     -2094.091 7   3601128.769 7   2825199.81948  21215471.21148
        48.750          40.500  
 11  3 29 21 54 45.0000000  0 10G11G13G14G16G20G23G24G25G30G31      
  24196377.578 5     -2726.049 5   7961868.793 5   6204714.47246  24196373.45346
        40.750          22.500  
  25241951.109 3      2836.232 3  -1599591.436 3  -1197547.49145  25241949.09445
        36.500          14.750  
  24491173.141 5     -2596.218 5   8715492.584 5   6784275.56546  24491167.78546
        41.500          20.500  
  23377868.547 5      3346.575 5 -10447636.536 5  -9087972.32846  23377862.54746
        42.000          25.000  
  20991008.313 6      1852.920 6 -10499002.075 6  -8133931.39848  20990999.20748
        47.250          38.500  
  22454818.188 6      2282.663 6 -10295587.100 6  -7978189.49047  22454808.32047
        47.500          33.500  
  22421808.867 6     -2295.049 6   4342301.020 6   3400304.72547  22421803.04347
        47.500          31.250  
  24690761.219 3     -2175.481 3   3458662.154 3   2698404.19646  24690758.26646
        36.750          22.250  
  22246094.680 6      2789.721 6 -12967500.401 6 -10096633.95148  22246087.74248
        46.500          33.750  
  21221474.164 7     -2099.970 7   3632628.325 7   2849744.91948  21221465.23448
        47.750          40.500  
 11  3 29 21 55  0.0000000  0 10G11G13G14G16G20G23G24G25G30G31      
  24204163.539 5     -2727.394 5   8002779.706 5   6236593.01346  24204158.35946
        41.000          22.750  
  25233855.570 4      2835.928 4  -1642130.361 4  -1230694.57745  25233854.19945
        38.250          15.500  
  24498585.430 5     -2596.830 5   8754445.036 5   6814628.03846  24498580.36746
        40.500          22.000  
  23368323.016 6      3344.050 6 -10497797.288 6  -9127058.55046  23368316.78146
        42.500          25.500  
  20985739.242 6      1845.923 6 -10526690.924 6  -8155507.10048  20985730.54748
        46.750          39.000  
  22448307.352 6      2280.877 6 -10329800.249 6  -8004849.05448  22448297.42648
        46.250          34.500  
  22428377.141 6     -2300.883 6   4376814.260 6   3427198.13347  22428371.66847
        47.250          32.000  
  24696991.547 3     -2182.795 3   3491404.086 3   2723917.34546  24696989.59046
        36.000          22.750  
  22238148.844 6      2783.792 6 -13009257.279 6 -10129171.74047  22238141.49647
        47.250          32.500  
  21227485.039 6     -2105.799 6   3664215.310 6   2874358.14448  21227476.22748
        47.250          40.250  
 11  3 29 21 55 15.0000000  0 10G11G13G14G16G20G23G24G25G30G31      
  24211952.430 5     -2728.738 5   8043710.774 5   6268487.29446  24211947.54346
        41.250          23.250  
  25225762.719 4      2835.602 4  -1684664.386 4  -1263837.82845  25225760.41045
        37.750          17.250  
  24505999.570 5     -2597.458 5   8793406.908 5   6844987.92846  24505994.21546
        40.500          21.250  
  23358784.633 6      3341.465 6 -10547919.265 6  -9166114.56246  23358779.04346
        42.500          25.000  
  20980490.031 7      1838.880 7 -10554274.122 7  -8177000.49648  20980481.10248
        48.000          39.000  
  22441802.109 6      2279.059 6 -10363986.134 6  -8031487.37747  22441792.06647
        47.500          33.500  
  22434960.625 6     -2306.710 6   4411414.912 6   3454159.64047  22434955.32847
        47.000          32.000  
  24703243.414 3     -2190.113 3   3524255.781 3   2749516.03946  24703240.87146
        36.750          21.000  
  22230219.656 6      2777.812 6 -13050924.464 6 -10161639.62147  22230213.18847
        47.500          32.500  
  21233512.703 7     -2111.628 7   3695889.726 7   2899039.50048  21233503.59848
        48.750          40.250  
 11  3 29 21 55 30.0000000  0 10G11G13G14G16G20G23G24G25G30G31      
  24219745.344 5     -2730.080 5   8084661.977 5   6300397.24046  24219740.92646
        40.250          23.500  
  25217668.773 3      2835.256 3  -1727193.224 3  -1296977.13845  25217666.99245
        37.250          17.250  
  24513416.055 5     -2598.118 5   8832378.685 5   6875355.49446  24513410.58246
        40.000          19.500  
  23349254.594 6      3338.832 6 -10598001.744 6  -9205139.80446  23349248.47746
        42.500          26.250  
  20975261.297 6      1831.801 6 -10581751.131 6  -8198411.13748  20975252.66048
        47.500          39.500  
  22435302.242 6      2277.215 6 -10398144.364 6  -8058104.13748  22435292.55148
        47.500          34.000  
  22441562.133 6     -2312.544 6   4446103.079 6   3481189.35147  22441556.30947
        47.250          30.750  
  24709515.633 4     -2197.440 4   3557217.385 4   2775200.37046  24709513.67646
        37.500          23.500  
  22222307.484 6      2771.784 6 -13092501.221 6 -10194037.04847  22222300.95747
        46.500          33.000  
  21239556.305 7     -2117.472 7   3727651.808 7   2923789.16148  21239547.19948
        48.750          40.500  
 11  3 29 21 55 45.0000000  0 10G11G13G14G16G20G23G24G25G30G31      
  24227541.609 5     -2731.368 5   8125632.494 5   6332322.23446  24227537.54346
        40.750          24.250  
  25209576.953 4      2834.927 4  -1769717.131 4  -1330112.50845  25209574.70345
        38.250          17.250  
  24520833.258 4     -2598.752 4   8871359.961 4   6905730.44846  24520828.13746
        39.000          20.250  
  23339732.211 5      3336.199 5 -10648044.732 5  -9244134.27546  23339725.80146
        42.250          25.500  
  20970052.883 7      1824.732 7 -10609122.114 7  -8219739.16448  20970044.24648
        48.000          39.750  
  22428806.648 6      2275.397 6 -10432275.323 6  -8084699.65447  22428797.25047
        45.000          33.500  
  22448179.398 6     -2318.328 6   4480878.000 6   3508286.65647  22448173.69147
        47.000          31.500  
  24715808.375 3     -2204.716 3   3590288.123 3   2800969.76846  24715806.30146
        37.000          22.750  
  22214413.266 6      2765.756 6 -13133987.566 6 -10226364.01747  22214406.38747
        46.250          32.750  
  21245617.148 7     -2123.264 7   3759500.771 7   2948606.52948  21245608.10248
        48.000          40.500  
 11  3 29 21 56  0.0000000  0 10G11G13G14G16G20G23G24G25G30G31      
  24235342.102 5     -2732.626 5   8166621.890 5   6364261.94646  24235337.03946
        41.250          22.500  
  25201485.984 3      2834.605 3  -1812236.202 3  -1363244.16145  25201483.73445
        36.500          17.750  
  24528253.453 5     -2599.366 5   8910350.450 5   6936112.55446  24528248.50846
        40.500          21.500  
  23330216.602 5      3333.548 5 -10698047.947 5  -9283097.75546  23330210.13346
        41.500          26.000  
  20964864.617 6      1817.661 6 -10636387.025 6  -8240984.53648  20964855.45348
        47.000          39.500  
  22422317.867 6      2273.587 6 -10466379.134 6  -8111274.00047  22422307.76647
        47.500          33.500  
  22454813.375 6     -2324.071 6   4515739.062 6   3535451.08647  22454807.66847
        47.000          30.500  
  24722122.758 4     -2211.966 4   3623467.618 4   2826823.88546  24722119.98046
        38.000          22.250  
  22206535.203 6      2759.710 6 -13175383.217 6 -10258620.31547  22206528.91047
        46.500          32.750  
  21251694.375 7     -2129.020 7   3791436.065 7   2973491.16748  21251685.15248
        48.750          40.250  
 11  3 29 21 56 15.0000000  0 10G11G13G14G16G20G23G24G25G30G31      
  24243145.078 5     -2733.878 5   8207630.053 5   6396216.28046  24243140.89546
        41.500          22.750  
  25193395.805 4      2834.274 4  -1854750.314 4  -1396371.97345  25193393.73045
        37.500          18.250  
  24535675.547 5     -2599.999 5   8949350.442 5   6966502.09846  24535669.07846
        40.750          20.000  
  23320708.602 6      3330.858 6 -10748010.817 6  -9322029.78646  23320702.60246
        43.500          25.750  
  20959696.648 7      1810.549 7 -10663545.265 7  -8262146.79448  20959688.07048
        48.250          39.250  
  22415832.391 6      2271.762 6 -10500455.564 6  -8137827.02547  22415822.64147
        46.000          33.000  
  22461463.813 6     -2329.812 6   4550686.239 6   3562682.61747  22461458.34047
        46.750          31.250  
  24728456.867 3     -2219.214 3   3656755.830 3   2852762.73546  24728454.26646
        36.750          21.500  
  22198675.250 6      2753.631 6 -13216687.678 6 -10290805.56647  22198668.84047
        46.250          32.500  
  21257788.195 7     -2134.766 7   3823457.557 7   2998442.96548  21257779.09048
        49.000          40.250  
 11  3 29 21 56 30.0000000  0 10G11G13G14G16G20G23G24G25G30G31      
  24250952.281 5     -2735.111 5   8248656.723 5   6428185.04846  24250948.09846
        41.500          23.250  
  25185306.328 3      2833.929 3  -1897259.255 3  -1429495.72945  25185304.72345
        37.000          18.250  
  24543098.414 5     -2600.637 5   8988360.003 5   6996899.14746  24543092.76646
        40.750          20.750  
  23311208.484 6      3328.141 6 -10797932.930 6  -9360930.06046  23311202.66046
        42.500          26.250  
  20954548.766 6      1803.412 6 -10690596.441 6  -8283225.62148  20954540.07048
        47.500          39.000  
  22409353.281 6      2269.925 6 -10534504.441 6  -8164358.58747  22409343.53147
        46.250          33.500  
  22468130.266 6     -2335.541 6   4585719.347 6   3589981.11147  22468124.61747
        47.000          31.750  
  24734809.844 1     -2226.455 1   3690152.653 1   2878786.21646  24734809.23446
        33.500          19.000  
  22190833.617 6      2747.511 6 -13257900.340 6 -10322919.27347  22190826.09447
        46.250          33.500  
  21263897.602 7     -2140.499 7   3855565.047 7   3023461.78848  21263888.73048
        48.750          39.750  
 11  3 29 21 56 45.0000000  0 10G11G13G14G16G20G23G24G25G30G31      
  24258762.742 5     -2736.323 5   8289701.565 5   6460167.93546  24258759.08646
        40.750          22.750  
  25177217.617 4      2833.584 4  -1939763.009 4  -1462615.41745  25177216.24645
        37.750          18.500  
  24550523.109 5     -2601.280 5   9027379.200 5   7027303.65946  24550518.16446
        39.250          20.750  
  23301716.883 5      3325.382 5 -10847813.656 5  -9399798.09246  23301710.64846
        42.250          26.000  
  20949421.586 7      1796.257 7 -10717540.293 7  -8304220.81948  20949413.00848
        48.000          39.250  
  22402879.344 6      2268.085 6 -10568525.720 6  -8190868.63748  22402869.30148
        47.500          33.750  
  22474813.117 6     -2341.246 6   4620838.034 6   3617346.28547  22474807.58647
        47.000          31.250  
  24741186.289 1     -2233.685 1   3723657.921 1   2904894.19045  24741185.15245
        33.750          18.250  
  22183007.953 6      2741.355 6 -13299020.667 6 -10354961.03347  22183001.48447
        47.000          32.750  
  21270023.977 7     -2146.233 7   3887758.540 7   3048547.61548  21270014.52048
        49.000          39.500  
