     2.11           OBSERVATION DATA    GPS(GPS)            RINEX VERSION / TYPE
cnvtToRINEX 2.11.0  Stan Thomas         26-Mar-11 14:10 UTC PGM / RUN BY / DATE 
----------------------------------------------------------- COMMENT             
BR1                                                         MARKER NAME         
BR1                                                         MARKER NUMBER       
Stan Thomas         University of Utah                      OBSERVER / AGENCY   
4644124574          NetRS               1.12                REC # / TYPE / VERS 
12532422            TRM41249.00                             ANT # / TYPE        
 -1911713.1997 -4567269.9917  4009429.9059                  APPROX POSITION XYZ 
        1.0560        0.0000        0.0000                  ANTENNA: DELTA H/E/N
     1     1     0                                          WAVELENGTH FACT L1/2
     7    C1    D1    L1    L2    P2    S1    S2            # / TYPES OF OBSERV 
  2011     3    22    19    52    0.0000000     GPS         TIME OF FIRST OBS   
  2011     3    22    23    59   45.0000000     GPS         TIME OF LAST OBS    
     0                                                      RCV CLOCK OFFS APPL 
    15                                                      LEAP SECONDS        
    19                                                      # OF SATELLITES     
   G03    95    95    92    77    77    95    77            PRN / # OF OBS      
   G04   302   302   295   254   254   302   254            PRN / # OF OBS      
   G06    62    62    59    57    57    62    57            PRN / # OF OBS      
   G07   135   135   131   126   126   135   126            PRN / # OF OBS      
   G09    21    21    21    17    17    21    17            PRN / # OF OBS      
   G11   856   856   853   838   838   856   838            PRN / # OF OBS      
   G12   361   361   354   342   342   361   342            PRN / # OF OBS      
   G13   427   427   425   421   421   427   421            PRN / # OF OBS      
   G14   666   666   661   650   650   666   650            PRN / # OF OBS      
   G16   615   615   613   591   591   615   591            PRN / # OF OBS      
   G18   218   218   210   193   193   218   193            PRN / # OF OBS      
   G19   241   241   239   236   236   241   236            PRN / # OF OBS      
   G20   937   937   936   931   931   937   931            PRN / # OF OBS      
   G22   547   547   546   546   546   547   546            PRN / # OF OBS      
   G23   825   825   823   820   820   825   820            PRN / # OF OBS      
   G24   990   990   989   973   973   990   973            PRN / # OF OBS      
   G25   666   666   663   658   658   666   658            PRN / # OF OBS      
   G30   767   767   766   766   766   767   766            PRN / # OF OBS      
   G31   992   992   992   992   992   992   992            PRN / # OF OBS      
CARRIER PHASE MEASUREMENTS: PHASE SHIFTS REMOVED            COMMENT             
                                                            END OF HEADER       
 11  3 22 19 52  0.0000000  0  9G09G11G12G14G18G19G22G24G31         
  25128743.57812     -3645.20312    688882.02312                
        34.500  
  22454750.72716      1500.10916  -2222851.85416  -1701133.89557  22454742.67657
        45.500          31.500  
  25349885.39811      1055.92211                                
        33.000  
  20717744.06317     -1318.98417    814874.71117    641577.83148  20717734.78148
        49.750          39.750  
  23590172.68015     -2538.79715   2154547.74215   1672922.12756  23590166.03556
        41.500          24.750  
  24076941.82015     -2474.15615   2067236.92515   1604435.50757  24076934.35557
        41.750          27.750  
  21383662.37517     -1567.75017   1110516.85717    868604.11758  21383651.45358
        49.750          39.000  
  22777576.84416      2635.26616  -3279054.64716  -2523915.12557  22777570.43457
        45.500          29.000  
  21930368.25016      2971.82816  -3640382.16616  -2783003.95258  21930360.66858
        47.000          38.000  
 11  3 22 19 52 15.0000000  0 10G03G09G11G12G14G18G19G22G24G31      
  25668088.40613     -2705.00013    702481.58413                
        37.250  
  25139154.438 1     -3647.304 1    743591.589 1                
        33.750  
  22450481.484 6      1495.839 6  -2245289.443 6  -1718617.72647  22450473.14147
        44.000          31.250  
  25346883.063 2      1048.766 2    624940.727 2   -532883.07156  25346874.42656
        35.250          19.500  
  20721516.906 7     -1321.574 7    834698.317 7    657024.79248  20721507.56648
        49.500          40.000  
  23597424.469 5     -2540.310 5   2192652.387 5   1702614.01346  23597416.65246
        40.000          25.500  
  24084008.930 5     -2475.809 5   2104374.057 5   1633373.47347  24084001.46547
        41.500          27.750  
  21388143.656 7     -1569.980 7   1134066.550 7    886954.51448  21388132.79348
        48.000          39.000  
  22770063.195 6      2632.457 6  -3318541.505 6  -2554684.10047  22770056.02347
        45.750          30.500  
  21921894.141 7      2968.758 7  -3684913.543 7  -2817703.69848  21921886.55948
        48.250          37.750  
 11  3 22 19 52 30.0000000  0 10G03G09G11G12G14G18G19G22G24G31      
  25675806.430 5     -2703.851 5    743039.356 5    773070.93356  25675801.89556
        41.750          21.000  
  25149576.164 1     -3651.293 1    798360.989 1                
        33.500  
  22446236.523 6      1487.168 6  -2267596.962 6  -1736000.19947  22446227.88747
        44.750          32.000  
  25343898.938 1      1045.063 1    609264.787 1   -545097.97145  25343890.47745
        31.750          18.250  
  20725303.734 7     -1326.750 7    854599.566 7    672532.25948  20725294.33648
        49.000          40.500  
  23604683.555 5     -2543.317 5   2230802.137 5   1732341.04646  23604676.44146
        40.500          24.500  
  24091085.453 5     -2479.223 5   2141562.398 5   1662351.33547  24091078.28147
        41.250          28.750  
  21392637.844 7     -1574.443 7   1157683.199 7    905357.07848  21392627.09848
        49.000          38.500  
  22762565.031 6      2626.772 6  -3357943.080 6  -2585386.60847  22762558.21147
        44.500          30.000  
  21913437.742 7      2962.625 7  -3729352.918 7  -2852331.75848  21913429.80948
        48.750          38.000  
 11  3 22 19 52 45.0000000  0 10G03G09G11G12G14G18G19G22G24G31      
  25683514.703 5     -2701.030 5    783554.806 5    804641.37546  25683511.92646
        40.500          20.750  
  25160008.703 2     -3655.186 2    853188.778 2                
        34.250  
  22442016.297 6      1478.552 6  -2289775.245 6  -1753281.97847  22442008.12947
        44.750          31.250  
  25340937.352 1      1037.869 1    593696.754 1   -557228.80945  25340927.83645
        29.000          17.250  
  20729105.258 7     -1331.828 7    874576.981 7    688099.07748  20729095.62548
        49.000          40.250  
  23611951.438 5     -2546.244 5   2268995.799 5   1762102.30246  23611944.32446
        40.750          25.250  
  24098170.398 5     -2482.537 5   2178800.460 5   1691367.97147  24098163.93047
        39.500          26.500  
  21397144.336 7     -1578.832 7   1181365.675 7    923810.94648  21397134.11748
        48.750          38.500  
  22755083.461 6      2621.150 6  -3397260.336 6  -2616023.41347  22755076.28947
        44.000          30.250  
  21904998.523 7      2956.550 7  -3773701.169 7  -2886888.80648  21904990.70748
        48.000          38.000  
 11  3 22 19 53  0.0000000  0  9G03G09G11G14G18G19G22G24G31         
  25691214.219 4     -2698.264 4    824028.764 4    836179.48646  25691214.13746
        38.500          21.500  
  25170454.352 3     -3659.118 3    908075.555 3   1405176.98055  25170446.06655
        36.000          18.250  
  22437820.711 6      1469.871 6  -2311823.316 6  -1770462.28547  22437812.54347
        45.000          31.750  
  20732921.375 7     -1336.964 7    894631.441 7    703725.93148  20732912.21148
        49.250          40.000  
  23619228.531 5     -2549.243 5   2307234.444 5   1791898.58446  23619221.06646
        41.250          24.500  
  24105266.289 5     -2485.888 5   2216088.777 5   1720423.74047  24105260.05547
        41.000          28.000  
  21401663.609 7     -1583.290 7   1205115.031 7    942316.91748  21401652.74648
        48.500          38.500  
  22747617.719 6      2615.441 6  -3436491.956 6  -2646593.48447  22747610.60547
        45.000          30.750  
  21896576.953 7      2950.387 7  -3817956.971 7  -2921373.82348  21896569.13748
        48.500          38.000  
 11  3 22 19 53 15.0000000  0  9G03G09G11G14G18G19G22G24G31         
  25698910.359 5     -2695.218 5    864457.041 5    867681.99546  25698907.34846
        41.500          19.500  
  25180908.969 3     -3662.778 3    963017.232 3   1447988.71545  25180902.26645
        36.500          17.750  
  22433649.008 6      1461.418 6  -2333744.586 6  -1787543.79747  22433640.43047
        44.500          30.750  
  20736751.188 7     -1341.841 7    914759.058 7    719409.78748  20736742.49248
        49.000          39.750  
  23626512.773 5     -2551.991 5   2345514.314 5   1821727.01646  23626505.71946
        40.750          22.750  
  24112372.047 5     -2488.973 5   2253423.379 5   1749515.55347  24112364.52347
        41.750          28.000  
  21406195.258 7     -1587.512 7   1228927.708 7    960872.24148  21406184.39548
        48.750          38.500  
  22740167.867 6      2609.955 6  -3475641.287 6  -2677099.43947  22740160.81347
        45.000          30.250  
  21888172.492 7      2944.432 7  -3862123.457 7  -2955789.23948  21888164.61748
        49.250          38.000  
 11  3 22 19 53 30.0000000  0 10G03G09G11G12G14G18G19G22G24G31      
  25706596.461 5     -2692.099 5    904838.525 5    899148.15745  25706591.34045
        42.250          17.750  
  25191374.578 3     -3666.373 3   1018012.830 3   1490842.43345  25191368.05145
        36.750          18.250  
  22429501.531 6      1453.002 6  -2355539.618 6  -1804526.92647  22429493.01247
        44.500          31.500  
  25332171.77311      1012.92211   -732747.97211                
        32.250  
  20740595.477 7     -1346.650 7    934958.811 7    735149.85048  20740586.13748
        48.500          39.500  
  23633804.633 5     -2554.693 5   2383834.702 5   1851587.00746  23633798.10546
        41.000          24.500  
  24119485.742 6     -2491.987 6   2290803.187 6   1778642.61947  24119477.69147
        43.000          27.000  
  21410738.656 7     -1591.684 7   1252802.969 7    979476.32248  21410727.85248
        49.000          38.250  
  22732733.281 6      2604.495 6  -3514708.713 6  -2707541.58147  22732726.57847
        44.500          30.500  
  21879784.695 7      2938.507 7  -3906201.065 7  -2990135.40248  21879776.99648
        49.000          38.000  
 11  3 22 19 53 45.0000000  0 10G03G09G11G12G14G18G19G22G24G31      
  25714269.211 4     -2689.209 4    945176.664 4    930580.53545  25714267.54745
        38.000          16.250  
  25201851.094 3     -3670.166 3   1073065.317 3   1533740.51245  25201844.15645
        37.250          17.750  
  22425379.000 6      1444.351 6  -2377204.886 6  -1821408.93747  22425370.71547
        44.500          31.500  
  25329291.070 1      1009.271 1   -747887.034 1                
        32.500  
  20744453.414 7     -1351.676 7    955233.957 7    750948.66448  20744444.36748
        49.250          39.750  
  23641105.625 5     -2557.612 5   2422198.886 5   1881481.14446  23641098.21946
        40.500          22.750  
  24126607.609 5     -2495.203 5   2328231.232 5   1807807.26147  24126600.02747
        41.500          26.500  
  21415294.367 7     -1596.081 7   1276744.179 7    998131.80348  21415283.56348
        48.000          38.500  
  22725315.328 6      2598.796 6  -3553690.651 6  -2737917.08947  22725308.85947
        45.000          31.250  
  21871414.703 7      2932.334 7  -3950186.069 7  -3024409.40348  21871406.65248
        48.750          38.500  
 11  3 22 19 54  0.0000000  0 10G03G09G11G12G14G18G19G22G24G31      
  25721935.914 3     -2686.341 3    985471.772 3    961979.16845  25721935.18845
        35.750          17.250  
  25212337.836 4     -3673.972 4   1128174.903 4   1576683.05745  25212331.30945
        37.750          17.250  
  22421280.977 6      1435.649 6  -2398739.627 6  -1838189.24847  22421272.22347
        44.250          31.500  
  25326430.461 1      1001.966 1   -762916.521 1                
        30.500  
  20748326.320 7     -1356.720 7    975584.763 7    766806.43648  20748316.86348
        49.250          39.750  
  23648414.266 5     -2560.571 5   2460607.445 5   1911409.83246  23648406.97746
        39.250          23.000  
  24133739.289 5     -2498.431 5   2365707.699 5   1837009.63847  24133731.88347
        41.500          26.500  
  21419863.227 7     -1600.505 7   1300751.748 7   1016838.97948  21419852.12948
        49.250          38.750  
  22717914.016 6      2593.040 6  -3592586.258 6  -2768225.33047  22717907.66447
        45.250          30.500  
  21863062.391 7      2926.114 7  -3994077.780 7  -3058610.71248  21863054.34048
        49.000          38.000  
 11  3 22 19 54 15.0000000  0 10G03G09G11G12G14G18G19G22G24G31      
  25729602.563 3     -2683.442 3   1025723.397 3    993344.00045  25729595.74245
        37.000          15.500  
  25222835.094 4     -3677.763 4   1183341.352 4   1619669.92945  25222829.44545
        37.750          18.250  
  22417207.594 6      1426.928 6  -2420143.543 6  -1854867.61547  22417199.25047
        45.250          31.500  
  25323588.35911       994.66111   -777835.98011                
        27.250  
  20752213.477 7     -1361.761 7    996011.179 7    782723.12148  20752204.07848
        49.500          39.750  
  23655731.898 4     -2563.535 4   2499060.474 4   1941373.18346  23655724.55146
        39.000          22.250  
  24140878.828 5     -2501.646 5   2403232.390 5   1866249.61247  24140872.65247
        42.000          27.500  
  21424443.977 7     -1604.949 7   1324825.986 7   1035598.11248  21424432.87948
        48.500          39.000  
  22710528.969 6      2587.250 6  -3631395.004 6  -2798465.89447  22710521.73847
        45.000          30.500  
  21854727.938 7      2919.851 7  -4037875.549 7  -3092738.81148  21854720.06348
        49.250          38.000  
 11  3 22 19 54 30.0000000  0  9G03G09G11G14G18G19G22G24G31         
  25737255.422 1     -2680.247 1   1065927.098 1   1024671.62745  25737245.73045
        30.500          15.500  
  25233342.219 4     -3681.249 4   1238560.087 4   1662697.53845  25233336.74645
        38.000          17.750  
  22413158.781 6      1418.477 6  -2441420.697 6  -1871447.21447  22413150.02747
        45.750          31.500  
  20756113.563 7     -1366.511 7   1016508.846 7    798695.32848  20756104.51648
        49.500          40.000  
  23663056.477 5     -2566.219 5   2537553.754 5   1971367.90446  23663049.83246
        39.750          21.500  
  24148028.680 5     -2504.549 5   2440800.628 5   1895523.52247  24148022.09447
        41.250          27.750  
  21429037.016 7     -1609.110 7   1348962.639 7   1054405.88048  21429026.21148
        49.500          38.500  
  22703159.219 6      2581.725 6  -3670120.886 6  -2828641.89147  22703152.57447
        44.750          30.750  
  21846410.406 7      2913.847 7  -4081583.254 7  -3126796.73248  21846402.59048
        50.000          38.000  
 11  3 22 19 54 45.0000000  0  8G09G11G14G18G19G22G24G31            
  25243861.398 3     -3684.934 3   1293834.104 3   1705768.23145  25243854.52045
        36.000          17.750  
  22409134.672 6      1409.791 6  -2462567.565 6  -1887925.27947  22409125.91847
        45.000          31.750  
  20760028.328 7     -1371.476 7   1037080.990 7    814725.56548  20760019.22348
        50.000          39.500  
  23670389.930 5     -2569.120 5   2576090.549 5   2001396.52246  23670382.99246
        39.750          22.000  
  24155188.258 6     -2507.655 6   2478415.449 6   1924833.74246  24155179.32846
        43.250          26.250  
  21433642.594 7     -1613.513 7   1373165.327 7   1073265.10848  21433632.14148
        49.750          38.750  
  22695806.242 6      2575.943 6  -3708760.026 6  -2858750.28947  22695799.71547
        45.500          30.250  
  21838111.313 7      2907.587 7  -4125197.061 7  -3160781.49048  21838103.26248
        49.750          38.500  
 11  3 22 19 55  0.0000000  0 10G03G09G11G12G14G18G19G22G24G31      
  25752573.92211     -2672.45311                                
        33.500  
  25254389.977 5     -3688.514 5   1349161.809 5   1748880.76046  25254383.39146
        41.250          19.000  
  22405135.273 6      1401.169 6  -2483585.097 6  -1904302.56847  22405126.81347
        45.750          31.500  
  25315199.59411       969.93811                                
        33.500  
  20763957.531 7     -1376.343 7   1057726.139 7    830812.69548  20763947.95748
        50.000          40.000  
  23677731.695 4     -2571.945 4   2614669.721 4   2031458.17146  23677724.58246
        39.000          21.250  
  24162354.461 6     -2510.669 6   2516075.478 6   1954179.11147  24162346.00047
        43.000          26.750  
  21438260.734 7     -1617.828 7   1397432.750 7   1092174.76948  21438249.87148
        50.250          39.000  
  22688470.242 6      2570.225 6  -3747313.403 6  -2888791.86347  22688463.30547
        45.750          31.000  
  21829829.148 7      2901.383 7  -4168717.808 7  -3194693.73348  21829821.27348
        49.500          39.000  
 11  3 22 19 55 15.0000000  0 10G03G09G11G12G14G18G19G22G24G31      
  25760145.234 1     -2669.031 1   -382494.332 1                
        32.750  
  25264925.125 5     -3691.157 5   1404529.162 5   1792024.19246  25264919.71146
        40.500          20.750  
  22401157.906 6      1393.469 6  -2504487.138 6  -1920589.87247  22401148.80147
        45.750          31.500  
  25312439.586 1       962.469 1   -447052.293 1  -1716204.67056  25312430.59856
        33.000          19.000  
  20767896.867 7     -1380.280 7   1078430.337 7    846945.82748  20767887.64548
        49.000          40.000  
  23685078.352 5     -2573.841 5   2653277.340 5   2061541.97746  23685071.23846
        39.250          22.000  
  24169524.945 5     -2512.716 5   2553766.224 5   1983548.48147  24169518.35947
        41.000          27.250  
  21442888.461 7     -1621.209 7   1421750.892 7   1111123.95848  21442877.01248
        49.750          38.750  
  22681147.398 6      2565.417 6  -3785794.664 6  -2918777.24147  22681140.40247
        44.000          31.250  
  21821562.508 7      2896.088 7  -4212159.127 7  -3228544.07748  21821554.80948
        49.500          39.000  
 11  3 22 19 55 30.0000000  0 10G03G09G11G12G14G18G19G22G24G31      
  25767762.617 3     -2668.483 3   -342467.086 3                
        36.750  
  25275475.953 4     -3696.126 4   1459971.046 4   1835225.66145  25275469.89545
        38.000          18.500  
  22397209.133 6      1383.397 6  -2525238.100 6  -1936759.44247  22397200.32047
        46.250          31.500  
  25309701.633 1       957.970 1   -461421.836 1  -1727401.69545  25309695.80945
        28.250          15.500  
  20771855.031 7     -1386.552 7   1099228.622 7    863152.28548  20771845.92648
        50.000          39.750  
  23692438.156 5     -2578.083 5   2691948.590 5   2091675.37946  23692430.10546
        39.500          21.500  
  24176709.422 5     -2517.087 5   2591522.534 5   2012968.93646  24176703.18846
        40.750          26.000  
  21447532.141 7     -1626.937 7   1446154.948 7   1130140.09148  21447521.39548
        49.250          38.250  
  22673845.016 6      2558.239 6  -3824168.252 6  -2948678.71847  22673838.37147
        45.750          31.250  
  21813317.797 7      2888.419 7  -4255485.413 7  -3262304.79348  21813310.03948
        49.500          39.000  
 11  3 22 19 55 45.0000000  0  9G03G09G11G14G18G19G22G24G31         
  25775373.391 5     -2665.450 5   -302485.330 5    -45601.27456  25775368.27056
        40.000          24.500  
  25286036.516 4     -3699.753 4   1515467.336 4   1878469.53946  25286030.28146
        38.000          19.000  
  22393285.211 6      1374.635 6  -2545857.622 6  -1952826.59747  22393276.57447
        46.000          31.500  
  20775826.594 7     -1391.483 7   1120100.871 7    879416.37448  20775817.72348
        49.250          39.500  
  23699804.336 5     -2581.007 5   2730663.690 5   2121842.94446  23699797.45746
        39.750          22.500  
  24183903.688 5     -2520.128 5   2629324.448 5   2042424.86547  24183896.75047
        41.250          26.500  
  21452188.602 7     -1631.358 7   1470625.318 7   1149207.90548  21452177.56348
        49.500          38.500  
  22666559.531 6      2552.355 6  -3862453.576 6  -2978511.41647  22666552.65247
        45.250          31.000  
  21805091.602 7      2882.049 7  -4298716.154 7  -3295991.04648  21805083.14148
        49.750          37.750  
 11  3 22 19 56  0.0000000  0  9G03G09G11G14G18G19G22G24G31         
  25782969.000 4     -2661.860 4   -262557.424 4    -14488.65146  25782966.92646
        39.000          26.000  
  25296605.484 4     -3702.785 4   1571009.118 4   1921748.91245  25296599.42645
        38.750          18.250  
  22389385.633 6      1366.406 6  -2566353.710 6  -1968797.56547  22389376.64547
        47.250          31.500  
  20779811.133 7     -1395.863 7   1141038.815 7    895731.64948  20779802.14548
        49.750          40.000  
  23707178.688 5     -2583.398 5   2769414.654 5   2152038.45346  23707171.28146
        40.500          22.000  
  24191104.641 5     -2522.594 5   2667163.359 5   2071909.68347  24191097.35247
        42.000          27.250  
  21456856.328 7     -1635.236 7   1495153.862 7   1168321.04348  21456845.58248
        49.500          38.750  
  22659289.758 6      2546.997 6  -3900658.532 6  -3008281.49347  22659282.82047
        46.000          31.750  
  21796881.492 7      2876.191 7  -4341859.012 7  -3329608.81748  21796873.67648
        50.000          38.000  
 11  3 22 19 56 15.0000000  0 10G03G09G11G12G14G18G19G22G24G31      
  25790555.938 5     -2658.250 5   -222683.681 5     16581.65146  25790554.62546
        39.250          24.750  
  25307183.898 3     -3705.807 3   1626596.217 3   1965063.56445  25307177.25445
        36.750          17.750  
  22385508.219 6      1358.165 6  -2586726.185 6  -1984672.21647  22385499.69947
        46.750          31.750  
  25301623.23411       933.18811   -260410.23711                
        33.500  
  20783808.203 7     -1400.227 7   1162042.225 7    912097.93848  20783798.62948
        49.000          40.000  
  23714559.617 5     -2585.787 5   2808201.458 5   2182261.88246  23714552.09446
        40.000          22.750  
  24198314.086 6     -2525.043 6   2705039.008 6   2101423.12547  24198304.74647
        43.250          26.500  
  21461535.344 7     -1639.138 7   1519740.933 7   1187479.78848  21461524.42248
        49.250          38.250  
  22652034.680 6      2541.622 6  -3938782.859 6  -3037988.75747  22652028.56347
        45.000          31.250  
  21788688.398 7      2870.322 7  -4384913.842 7  -3363158.01148  21788680.28948
        50.000          38.500  
 11  3 22 19 56 30.0000000  0 10G03G09G11G12G14G18G19G22G24G31      
  25798138.617 6     -2655.415 6   -182852.450 6     47618.93347  25798134.72747
        43.500          26.500  
  25317772.422 3     -3709.611 3   1682240.375 3   2008422.69245  25317765.83645
        37.250          17.750  
  22381657.305 6      1349.109 6  -2606962.816 6  -2000441.01147  22381649.02047
        46.000          31.500  
  25298971.133 1       929.096 1   -274346.684 1                
        33.250  
  20787819.484 7     -1405.373 7   1183122.818 7    928524.37248  20787810.37948
        49.000          40.000  
  23721949.563 4     -2588.948 4   2847035.676 4   2212522.28346  23721942.85946
        39.000          22.000  
  24205530.438 6     -2528.256 6   2742962.853 6   2130974.10546  24205521.50846
        43.500          25.500  
  21466227.477 7     -1643.804 7   1544397.997 7   1206693.06448  21466216.49648
        49.000          38.500  
  22644797.750 6      2535.429 6  -3976814.292 6  -3067623.61447  22644790.87147
        46.000          30.750  
  21780514.789 7      2863.623 7  -4427868.188 7  -3396628.88948  21780506.62148
        49.500          38.500  
 11  3 22 19 56 45.0000000  0 10G03G09G11G12G14G18G19G22G24G31      
  25805708.188 6     -2652.254 6   -143068.633 6     78619.24847  25805705.17647
        42.500          30.000  
  25328370.500 3     -3713.085 3   1737936.656 3   2051822.47545  25328364.32445
        35.750          16.750  
  22377831.078 6      1340.369 6  -2627068.358 6  -2016107.66047  22377823.20347
        45.500          32.000  
  25296339.875 1       921.676 1   -288171.823 1                
        31.500  
  20791844.594 7     -1410.199 7   1204275.809 7    945007.21348  20791835.72348
        49.000          40.250  
  23729347.688 4     -2591.802 4   2885912.702 4   2242816.00246  23729340.92646
        39.000          22.000  
  24212752.641 5     -2531.138 5   2780929.923 5   2160558.82246  24212746.81646
        40.750          26.000  
  21470931.805 7     -1648.162 7   1569120.430 7   1225957.28348  21470921.05948
        48.250          38.750  
  22637577.141 6      2529.518 6  -4014757.065 6  -3097189.38347  22637570.26247
        45.500          31.000  
  21772358.867 7      2857.211 7  -4470726.350 7  -3430024.82348  21772350.81648
        49.750          38.000  
 11  3 22 19 57  0.0000000  0 10G03G09G11G12G14G18G19G22G24G31      
  25813267.656 5     -2649.092 5   -103332.254 5    109582.54546  25813266.81346
        40.750          26.250  
  25338978.664 3     -3716.548 3   1793684.875 3   2095262.62545  25338972.66445
        35.750          14.750  
  22374030.453 6      1331.605 6  -2647042.437 6  -2031671.87547  22374021.75847
        45.750          31.500  
  25293727.484 1       914.243 1   -301885.467 1                
        30.500  
  20795883.813 7     -1415.021 7   1225501.123 7    961546.41548  20795874.64848
        48.750          40.000  
  23736754.000 5     -2594.672 5   2924832.786 5   2273143.28946  23736746.65246
        39.250          22.750  
  24219987.047 5     -2534.008 5   2818940.040 5   2190177.00546  24219979.99246
        42.000          24.500  
  21475649.125 7     -1652.540 7   1593908.535 7   1245272.67948  21475638.49648
        49.500          38.500  
  22630374.125 6      2523.577 6  -4052610.717 6  -3126685.72647  22630366.95347
        45.250          30.750  
  21764221.570 7      2850.775 7  -4513487.975 7  -3463345.53848  21764213.57848
        50.000          38.500  
 11  3 22 19 57 15.0000000  0  9G03G11G12G14G18G19G22G24G31         
  25820822.008 6     -2645.624 6    -63647.888 6    140505.38346  25820817.88346
        43.000          25.000  
  22370253.414 6      1323.106 6  -2666889.028 6  -2047136.74547  22370245.07047
        45.750          32.750  
  25291137.98411       906.81011   -315491.50611                
        29.000  
  20799935.891 7     -1419.559 7   1246794.503 7    978138.64948  20799926.66848
        49.250          39.750  
  23744167.625 5     -2597.257 5   2963791.642 5   2303500.80046  23744160.92246
        40.000          21.250  
  24227226.328 5     -2536.579 5   2856988.722 5   2219825.27946  24227220.85546
        41.250          26.000  
  21480377.680 7     -1656.646 7   1618758.229 7   1264636.06548  21480366.52348
        49.250          38.500  
  22623187.031 6      2517.897 6  -4090379.180 6  -3156115.68147  22623179.85947
        46.000          31.000  
  21756101.883 7      2844.596 7  -4556156.921 7  -3496594.02948  21756093.65648
        49.000          38.750  
 11  3 22 19 57 30.0000000  0  9G03G11G12G14G18G19G22G24G31         
  25828364.766 6     -2642.531 6    -24009.919 6    171392.02846  25828361.52046
        42.500          26.250  
  22366502.617 6      1314.211 6  -2686602.197 6  -2062497.64747  22366494.27347
        45.750          32.000  
  25288572.664 1       899.503 1   -328984.053 1                
        33.250  
  20804001.836 7     -1424.464 7   1268161.465 7    994788.22648  20803992.49648
        49.750          39.500  
  23751589.781 4     -2600.233 4   3002795.140 4   2333893.08346  23751582.84446
        38.750          21.500  
  24234476.516 5     -2539.510 5   2895081.366 5   2249507.77446  24234469.16846
        41.750          25.000  
  21485119.453 7     -1661.142 7   1643675.361 7   1284052.00048  21485108.29748
        49.000          38.500  
  22616016.797 6      2511.816 6  -4128056.415 6  -3185474.55147  22616010.09447
        45.500          31.250  
  21748001.102 7      2838.001 7  -4598726.936 7  -3529765.43148  21747992.81648
        50.000          38.250  
 11  3 22 19 57 45.0000000  0  9G03G11G12G14G18G19G22G24G31         
  25835895.234 4     -2639.257 4     15578.934 4    202240.39746  25835894.80146
        39.000          25.000  
  22362776.188 6      1305.466 6  -2706184.182 6  -2077756.33047  22362767.84447
        45.000          32.250  
  25286026.117 2       892.074 2   -342365.163 2                
        34.750  
  20808081.273 7     -1429.198 7   1289599.427 7   1011493.11548  20808071.87548
        49.250          39.750  
  23759019.922 4     -2603.047 4   3041840.849 4   2364318.25346  23759012.75046
        38.250          20.500  
  24241732.984 6     -2542.249 6   2933215.096 6   2279222.32446  24241725.57846
        42.750          24.250  
  21489873.023 7     -1665.476 7   1668657.501 7   1303518.58048  21489861.92648
        48.750          38.500  
  22608864.320 6      2505.876 6  -4165644.556 6  -3214763.99947  22608857.50047
        45.750          31.500  
  21739918.297 7      2831.541 7  -4641200.045 7  -3562861.32648  21739910.07048
        50.000          38.500  
 11  3 22 19 58  0.0000000  0  9G03G11G12G14G18G19G22G24G31         
  25843421.266 5     -2635.975 5     55118.556 5    233050.38546  25843419.19146
        39.250          22.000  
  22359074.563 6      1296.697 6  -2725634.632 6  -2092912.52047  22359065.86747
        44.500          32.000  
  25283502.266 2       884.622 2   -355634.487 2  -1753025.30455  25283492.69155
        35.250          18.500  
  20812174.477 7     -1433.924 7   1311108.292 7   1028253.26048  20812165.25448
        49.750          40.250  
  23766458.508 5     -2605.873 5   3080928.940 5   2394776.45646  23766451.16046
        39.500          19.500  
  24248997.477 5     -2544.980 5   2971389.791 5   2308968.77946  24248990.12946
        41.500          24.500  
  21494639.508 7     -1669.811 7   1693704.664 7   1323035.83848  21494628.58648
        47.750          38.250  
  22601728.438 6      2499.899 6  -4203143.045 6  -3243983.58947  22601721.50047
        46.000          31.750  
  21731854.609 7      2825.054 7  -4683575.862 7  -3595881.40248  21731846.32448
        50.000          38.500  
 11  3 22 19 58 15.0000000  0  9G03G11G12G14G18G19G22G24G31         
  25850937.180 5     -2632.693 5     94608.953 5    263822.03546  25850933.11346
        40.500          20.750  
  22355398.781 6      1287.908 6  -2744953.257 6  -2107965.99347  22355389.79347
        45.000          32.000  
  25280997.555 1       877.149 1   -368791.717 1  -1763277.71945  25280990.03145
        32.750          16.750  
  20816280.945 7     -1438.654 7   1332688.095 7   1045068.68548  20816271.78148
        49.000          40.000  
  23773904.406 4     -2608.689 4   3120059.271 4   2425267.58746  23773897.58646
        38.750          19.750  
  24256270.055 5     -2547.686 5   3009605.081 5   2338746.86046  24256262.35546
        40.500          26.000  
  21499418.266 7     -1674.166 7   1718817.160 7   1342603.99948  21499407.22748
        48.500          38.000  
  22594609.656 6      2493.898 6  -4240551.521 6  -3273133.03047  22594602.71947
        45.000          31.500  
  21723809.109 7      2818.536 7  -4725853.903 7  -3628825.28848  21723801.05948
        49.750          38.750  
 11  3 22 19 58 30.0000000  0  9G03G11G12G14G18G19G22G24G31         
  25858443.164 5     -2630.111 5    134060.621 5    294563.53546  25858441.50046
        41.250          24.250  
  22351749.156 6      1278.391 6  -2764129.124 6  -2122908.21447  22351740.93047
        45.500          32.250  
  25278512.53911       869.67611   -381825.58711  -1773434.06255  25278510.58255
        29.500          15.500  
  20820403.039 7     -1444.091 7   1354349.465 7   1061947.66648  20820393.64148
        49.500          39.500  
  23781360.602 5     -2612.247 5   3159242.970 5   2455800.28246  23781354.01646
        39.500          20.000  
  24263550.172 5     -2551.101 5   3047871.601 5   2368564.87746  24263544.28946
        40.500          25.500  
  21504211.422 7     -1679.243 7   1744005.801 7   1362231.49948  21504200.32448
        48.500          38.250  
  22587510.633 6      2487.151 6  -4277858.785 6  -3302203.61247  22587503.40247
        46.500          30.500  
  21715784.742 7      2811.267 7  -4768022.906 7  -3661684.22048  21715776.57448
        49.500          38.000  
 11  3 22 19 58 45.0000000  0  9G03G11G12G14G18G19G22G24G31         
  25865937.625 5     -2625.434 5    173442.125 5    325250.28346  25865935.78546
        40.250          23.750  
  22348121.789 6      1270.951 6  -2783193.394 6  -2137763.48047  22348113.27047
        45.500          32.000  
  25276054.48411       862.20311   -394767.30111  -1783518.55155  25276048.60255
        33.250          14.750  
  20824534.406 7     -1447.425 7   1376060.839 7   1078865.60948  20824525.00848
        49.750          39.500  
  23788821.773 5     -2613.709 5   3198448.603 5   2486350.08146  23788814.30946
        41.250          21.000  
  24270836.398 5     -2552.413 5   3086157.802 5   2398398.21646  24270829.98846
        41.000          25.500  
  21509013.445 7     -1682.236 7   1769239.337 7   1381893.98548  21509002.40648
        49.250          38.000  
  22580424.633 6      2482.465 6  -4315095.761 6  -3331219.42447  22580417.57847
        45.750          31.750  
  21707775.016 7      2806.056 7  -4810113.752 7  -3694482.24048  21707766.90648
        50.000          38.750  
 11  3 22 19 59  0.0000000  0  9G03G11G12G14G18G19G22G24G31         
  25873425.148 4     -2622.659 4    212782.013 4    355904.67946  25873421.31646
        38.000          19.000  
  22344520.641 6      1261.563 6  -2802116.843 6  -2152509.02947  22344512.06347
        45.500          32.250  
  25273616.141 4       854.695 4   -407587.725 4  -1793508.43345  25273607.73845
        37.500          15.500  
  20828680.891 7     -1452.683 7   1397851.077 7   1095845.01348  20828671.43448
        49.750          39.750  
  23796291.961 5     -2617.094 5   3237705.017 5   2516939.45346  23796284.20346
        40.500          20.000  
  24278131.664 5     -2555.620 5   3124492.097 5   2428269.02646  24278124.78546
        40.750          25.250  
  21513829.266 7     -1687.170 7   1794546.885 7   1401614.13748  21513818.57848
        49.750          38.750  
  22573357.625 6      2475.829 6  -4352233.197 6  -3360157.67447  22573350.80547
        44.500          32.000  
  21699785.898 7      2798.904 7  -4852097.316 7  -3727196.67148  21699777.78948
        50.000          39.000  
 11  3 22 19 59 15.0000000  0  9G03G11G12G14G18G19G22G24G31         
  25880899.930 1     -2619.292 1    252071.400 1    386519.76145  25880898.26645
        32.250          16.250  
  22340945.086 6      1252.738 6  -2820907.906 6  -2167151.40847  22340936.21547
        46.000          31.500  
  25271198.758 3       847.166 3   -420295.209 3  -1803410.30045  25271187.66045
        37.250          14.750  
  20832840.836 7     -1457.345 7   1419711.259 7   1112878.91448  20832831.73048
        49.750          39.750  
  23803770.000 5     -2619.899 5   3277003.497 5   2547561.59646  23803762.59446
        41.250          20.750  
  24285433.797 5     -2558.222 5   3162865.430 5   2458170.27746  24285427.21146
        41.250          24.750  
  21518657.547 7     -1691.515 7   1819919.608 7   1421385.07748  21518646.68448
        49.500          38.500  
  22566307.336 6      2469.757 6  -4389279.548 6  -3389024.95047  22566300.69147
        44.750          31.750  
  21691815.633 7      2792.296 7  -4893981.760 7  -3759833.86248  21691807.40648
        49.750          38.500  
 11  3 22 19 59 30.0000000  0  9G03G11G12G14G18G19G22G24G31         
  25888365.33611     -2614.01611                    417091.79855  25888363.84855
        25.750          13.750  
  22337393.469 6      1244.202 6  -2839570.930 6  -2181694.01647  22337384.94947
        46.000          32.000  
  25268798.523 2       839.905 2   -432893.778 2  -1813227.36245  25268790.23845
        35.000          16.750  
  20837013.000 7     -1461.686 7   1441636.555 7   1129963.54448  20837003.95348
        49.500          40.000  
  23811256.141 5     -2622.416 5   3316339.739 5   2578213.19146  23811247.68046
        41.000          19.750  
  24292742.727 5     -2560.516 5   3201273.166 5   2488098.32646  24292735.96546
        41.250          25.750  
  21523497.188 7     -1695.563 7   1845353.058 7   1441203.33148  21523486.50048
        49.500          38.500  
  22559274.852 6      2463.958 6  -4426238.917 6  -3417824.44247  22559267.44547
        46.250          31.250  
  21683863.422 7      2785.957 7  -4935771.113 7  -3792396.96148  21683854.96148
        50.250          38.750  
 11  3 22 19 59 45.0000000  0  8G11G12G14G18G19G22G24G31            
  22333868.133 6      1235.083 6  -2858097.172 6  -2196130.05747  22333859.55547
        46.000          32.000  
  25266423.320 1       832.071 1   -445374.840 1  -1822952.80945  25266417.32045
        33.500          18.500  
  20841199.258 7     -1466.600 7   1463635.558 7   1147105.61648  20841190.21148
        49.250          39.750  
  23818750.055 5     -2625.510 5   3355722.384 5   2608900.91146  23818742.53146
        41.500          20.500  
  24300059.617 5     -2563.346 5   3239723.351 5   2518059.44946  24300052.44546
        41.250          25.000  
  21528350.266 7     -1700.181 7   1870855.778 7   1461075.57448  21528339.75448
        48.500          38.750  
  22552259.883 6      2457.564 6  -4463102.373 6  -3446549.19647  22552253.00447
        46.250          31.750  
  21675930.805 7      2779.036 7  -4977456.646 7  -3824879.15748  21675922.57848
        49.500          38.500  
 11  3 22 20  0  0.0000000  0  8G11G12G14G18G19G22G24G31            
  22330367.758 6      1226.226 6  -2876490.565 6  -2210462.56547  22330358.77047
        46.500          32.000  
  25264069.250 1       824.489 1   -457742.169 1  -1832589.76745  25264065.59445
        33.500          17.750  
  20845398.758 7     -1471.237 7   1485704.114 7   1164301.88948  20845389.71148
        50.000          39.750  
  23826252.172 5     -2628.319 5   3395147.163 5   2639621.47346  23826245.05946
        41.250          20.000  
  24307383.141 5     -2565.895 5   3278211.769 5   2548050.37246  24307376.96546
        40.250          24.750  
  21533215.563 7     -1704.542 7   1896423.913 7   1480998.78748  21533204.99248
        49.750          38.500  
  22545262.492 6      2451.422 6  -4499873.702 6  -3475202.17447  22545255.32047
        47.000          31.500  
  21668017.227 7      2772.364 7  -5019042.107 7  -3857283.36348  21668009.00048
        50.250          39.000  
 11  3 22 20  0 15.0000000  0  8G11G12G14G18G19G22G24G31            
  22326892.531 6      1217.380 6  -2894751.271 6  -2224691.68347  22326884.30547
        46.250          32.250  
  25261739.344 3       816.916 3   -469995.916 3  -1842138.13545  25261734.16445
        37.250          17.750  
  20849611.844 7     -1475.852 7   1507841.896 7   1181552.10748  20849602.50448
        49.500          40.500  
  23833762.266 5     -2631.115 5   3434613.884 5   2670374.72646  23833755.85546
        42.250          21.500  
  24314714.477 5     -2568.402 5   3316737.800 5   2578070.59946  24314708.06646
        41.500          24.500  
  21538093.688 7     -1708.892 7   1922057.291 7   1500972.83248  21538083.23448
        49.500          38.500  
  22538282.734 6      2445.273 6  -4536552.800 6  -3503783.27447  22538275.79747
        46.000          32.000  
  21660122.797 7      2765.678 7  -5060527.283 7  -3889609.44148  21660114.80548
        49.500          39.250  
 11  3 22 20  0 30.0000000  0  8G11G12G14G18G19G22G24G31            
  22323443.813 6      1208.494 6  -2912878.679 6  -2238816.93447  22323434.59047
        46.000          32.250  
  25259429.383 5       809.297 5   -482135.377 5  -1851597.50745  25259422.97345
        39.500          18.250  
  20853837.344 7     -1480.465 7   1530048.872 7   1198856.22748  20853828.35548
        49.750          39.500  
  23841280.500 5     -2633.925 5   3474122.763 5   2701160.81846  23841273.73846
        41.000          22.000  
  24322054.242 6     -2570.906 6   3355301.396 6   2608120.06446  24322046.66046
        42.500          25.750  
  21542983.820 7     -1713.259 7   1947756.174 7   1520997.92048  21542973.25048
        49.000          38.500  
  22531321.023 6      2439.081 6  -4573139.018 6  -3532291.99947  22531313.38347
        46.750          32.000  
  21652247.859 7      2758.946 7  -5101911.469 7  -3921856.81648  21652239.86748
        50.000          38.750  
 11  3 22 20  0 45.0000000  0  8G11G12G14G18G19G22G24G31            
  22320018.672 6      1199.685 6  -2930873.949 6  -2252839.22147  22320010.44547
        47.000          31.500  
  25257140.547 4       801.744 4   -494161.541 4  -1860968.44345  25257132.73045
        39.000          17.250  
  20858075.953 7     -1484.987 7   1552323.671 7   1216213.20648  20858066.78948
        49.500          39.750  
  23848807.328 5     -2636.670 5   3513672.810 5   2731978.97746  23848800.27346
        42.000          22.500  
  24329398.789 5     -2573.297 5   3393900.855 5   2638197.52546  24329391.67646
        41.250          24.500  
  21547886.414 7     -1717.546 7   1973519.370 7   1541073.12148  21547875.72748
        49.500          38.000  
  22524376.008 6      2432.951 6  -4609633.286 6  -3560729.07647  22524368.66047
        46.750          32.500  
  21644391.617 7      2752.276 7  -5143195.612 7  -3954026.24948  21644383.44948
        50.500          39.000  
 11  3 22 20  1  0.0000000  0  8G11G12G14G18G19G22G24G31            
  22316619.688 6      1190.811 6  -2948736.113 6  -2266757.78647  22316611.28547
        46.500          32.000  
  25254872.805 3       794.121 3   -506073.363 3  -1870250.31245  25254863.99245
        37.250          15.500  
  20862327.641 7     -1489.549 7   1574666.911 7   1233623.50848  20862318.53548
        50.000          39.750  
  23856341.094 5     -2639.457 5   3553264.664 5   2762829.72946  23856334.44946
        42.000          22.750  
  24336751.070 5     -2575.735 5   3432536.875 5   2668303.43846  24336743.89846
        42.000          22.750  
  21552801.586 7     -1721.891 7   1999347.733 7   1561199.11048  21552790.72348
        49.250          37.750  
  22517448.734 6      2426.744 6  -4646034.447 6  -3589093.60647  22517441.91447
        46.750          32.250  
  21636554.648 7      2745.526 7  -5184378.507 7  -3986116.77748  21636546.77348
        50.000          38.750  
 11  3 22 20  1 15.0000000  0  8G11G12G14G18G19G22G24G31            
  22313247.000 6      1181.874 6  -2966464.224 6  -2280571.89647  22313238.12947
        46.500          32.500  
  25252627.320 3       786.435 3   -517869.882 3  -1879442.43545  25252620.73445
        35.750          15.500  
  20866592.711 7     -1494.158 7   1597079.277 7   1251087.68348  20866584.19148
        49.500          39.500  
  23863883.531 5     -2642.287 5   3592898.965 5   2793713.54846  23863876.59446
        41.500          22.000  
  24344110.281 5     -2578.193 5   3471209.767 5   2698438.09946  24344103.40246
        40.750          24.750  
  21557729.414 7     -1726.285 7   2025242.010 7   1581376.46048  21557718.37548
        49.500          38.250  
  22510539.805 6      2420.466 6  -4682341.442 6  -3617384.74947  22510533.10247
        46.500          31.750  
  21628737.430 7      2738.706 7  -5225459.095 7  -4018127.58948  21628728.96948
        50.000          39.000  
 11  3 22 20  1 30.0000000  0  8G11G12G14G18G19G22G24G31            
  22309898.109 6      1173.005 6  -2984059.294 6  -2294282.33947  22309889.59047
        46.250          32.750  
  25250405.766 4       778.817 4   -529552.131 4  -1888545.51445  25250398.71145
        38.500          17.250  
  20870870.742 7     -1498.664 7   1619559.231 7   1268604.52248  20870861.52048
        50.000          39.500  
  23871433.211 5     -2645.041 5   3632574.576 5   2824629.56346  23871426.44946
        41.000          21.750  
  24351476.234 5     -2580.543 5   3509917.908 5   2728600.24846  24351469.06346
        41.500          24.000  
  21562668.953 7     -1730.600 7   2051201.013 7   1601604.23648  21562658.32448
        49.750          38.500  
  22503648.766 6      2414.258 6  -4718555.310 6  -3645603.32947  22503641.77047
        47.000          32.250  
  21620939.195 7      2731.945 7  -5266438.271 7  -4050059.37848  21620930.79348
        50.250          38.750  
 11  3 22 20  1 45.0000000  0  8G11G12G14G18G19G22G24G31            
  22306575.406 6      1164.128 6  -3001521.209 6  -2307889.01847  22306566.77047
        47.000          32.000  
  25248205.211 5       771.186 5   -541119.918 5  -1897559.40046  25248199.73846
        39.500          19.250  
  20875161.516 7     -1503.155 7   1642106.555 7   1286173.85248  20875152.17648
        49.250          39.250  
  23878991.656 5     -2647.791 5   3672291.445 5   2855577.72546  23878984.71946
        42.000          22.500  
  24358848.953 5     -2582.867 5   3548660.908 5   2758789.55646  24358841.66446
        41.250          24.500  
  21567621.227 7     -1734.914 7   2077224.730 7   1621882.45148  21567610.30548
        49.750          38.000  
  22496775.398 6      2408.026 6  -4754675.698 6  -3673749.07947  22496768.28547
        45.000          32.500  
  21613160.711 7      2725.157 7  -5307315.620 7  -4081911.82048  21613152.30948
        50.500          38.750  
 11  3 22 20  2  0.0000000  0  8G11G12G14G18G19G22G24G31            
  22303278.313 6      1155.219 6  -3018849.494 6  -2321391.57547  22303269.09047
        47.250          32.000  
  25246025.508 4       763.521 4   -552572.737 4  -1906483.67646  25246020.79746
        37.750          20.000  
  20879464.469 7     -1507.659 7   1664721.436 7   1303795.82648  20879455.36348
        49.750          39.250  
  23886557.297 5     -2650.569 5   3712049.987 5   2886558.34846  23886550.82846
        41.500          25.500  
  24366228.469 5     -2585.193 5   3587438.799 5   2789006.02146  24366220.71146
        41.500          25.000  
  21572585.352 7     -1739.263 7   2103313.670 7   1642211.48348  21572574.60548
        50.250          37.500  
  22489919.734 6      2401.746 6  -4790701.886 6  -3701821.42647  22489912.44547
        44.000          31.500  
  21605401.008 7      2718.325 7  -5348090.491 7  -4113684.41148  21605393.07448
        50.500          39.500  
 11  3 22 20  2 15.0000000  0  8G11G12G14G18G19G22G24G31            
  22300005.391 6      1146.291 6  -3036043.864 6  -2334789.79047  22299996.98847
        47.000          32.500  
  25243866.352 4       755.822 4   -563910.074 4  -1915317.95745  25243861.99245
        38.500          17.750  
  20883781.180 7     -1512.155 7   1687403.758 7   1321470.35948  20883771.72348
        50.000          39.500  
  23894131.055 6     -2653.341 6   3751850.096 6   2917571.38146  23894124.35246
        42.500          24.500  
  24373614.445 5     -2587.499 5   3626251.289 5   2819249.47346  24373606.57046
        42.000          25.250  
  21577562.500 7     -1743.617 7   2129467.932 7   1662591.41048  21577551.93048
        49.250          38.250  
  22483082.125 6      2395.437 6  -4826633.440 6  -3729820.01147  22483075.24647
        45.000          32.250  
  21597661.773 7      2711.465 7  -5388762.459 7  -4145376.81848  21597653.25448
        50.500          39.500  
 11  3 22 20  2 30.0000000  0  8G11G12G14G18G19G22G24G31            
  22296759.414 6      1137.292 6  -3053103.249 6  -2348082.81047  22296751.24647
        45.500          32.750  
  25241730.742 3       748.038 3   -575130.650 3  -1924061.16245  25241724.27345
        36.000          14.750  
  20888110.016 7     -1516.709 7   1710154.390 7   1339198.12148  20888100.96948
        49.500          39.500  
  23901711.891 5     -2656.182 5   3791692.833 5   2948617.60846  23901705.94946
        41.750          22.500  
  24381006.586 5     -2589.841 5   3665098.907 5   2849520.28346  24380999.70746
        41.500          24.500  
  21582552.156 7     -1748.029 7   2155688.363 7   1683022.90548  21582541.87948
        49.500          38.250  
  22476262.844 6      2389.051 6  -4862469.200 6  -3757743.95847  22476255.84847
        46.500          32.000  
  21589941.656 7      2704.522 7  -5429330.295 7  -4176988.07848  21589933.66448
        50.500          39.250  
 11  3 22 20  2 45.0000000  0  8G11G12G14G18G19G22G24G31            
  22293538.492 6      1128.398 6  -3070029.214 6  -2361271.87047  22293529.91447
        47.000          32.500  
  25239618.172 4       740.357 4   -586236.005 4  -1932714.65345  25239608.65645
        38.500          13.750  
  20892452.461 7     -1521.141 7   1732971.500 7   1356977.67548  20892443.23848
        49.250          39.250  
  23909302.367 5     -2658.912 5   3831576.513 5   2979695.76046  23909295.54746
        42.250          25.000  
  24388405.766 6     -2592.061 6   3703979.815 6   2879817.04546  24388398.71146
        42.500          25.250  
  21587554.258 7     -1752.332 7   2181973.350 7   1703504.69748  21587543.33648
        49.500          38.250  
  22469461.422 6      2382.751 6  -4898210.472 6  -3785594.29347  22469454.66047
        46.500          32.750  
  21582241.570 7      2697.662 7  -5469795.218 7  -4208519.15348  21582233.10948
        50.500          39.500  
 11  3 22 20  3  0.0000000  0  8G11G12G14G18G19G22G24G31            
  22290343.102 6      1119.474 6  -3086821.322 6  -2374356.63547  22290334.52347
        47.000          32.750  
  25237528.445 5       732.651 5   -597225.769 5  -1941278.06745  25237518.75445
        40.000          16.750  
  20896807.031 7     -1525.583 7   1755855.248 7   1374809.15948  20896798.04348
        49.500          39.000  
  23916899.266 5     -2661.660 5   3871501.414 5   3010806.01246  23916893.38346
        42.000          24.500  
  24395809.961 5     -2594.278 5   3742893.983 5   2910139.67346  24395803.60946
        41.000          25.000  
  21592568.609 7     -1756.662 7   2208323.279 7   1724037.09848  21592557.62948
        49.500          38.000  
  22462678.086 6      2376.412 6  -4933856.657 6  -3813370.52047  22462670.79747
        46.500          31.750  
  21574561.500 7      2690.743 7  -5510156.364 7  -4239969.36648  21574552.86348
        50.000          39.250  
 11  3 22 20  3 15.0000000  0  8G11G12G14G18G19G22G24G31            
  22287172.961 6      1110.542 6  -3103479.447 6  -2387336.98947  22287164.50047
        46.250          33.000  
  25235458.969 5       724.938 5   -608099.834 5  -1949751.37846  25235452.55946
        40.250          19.250  
  20901174.109 7     -1529.995 7   1778805.172 7   1392692.20948  20901164.82848
        49.250          39.250  
  23924505.266 6     -2664.397 6   3911467.369 6   3041948.26446  23924498.27046
        42.500          23.250  
  24403222.633 6     -2596.456 6   3781840.830 6   2940487.83346  24403214.93446
        43.500          25.250  
  21597595.047 7     -1760.982 7   2234738.013 7   1744619.99548  21597584.35948
        50.000          38.500  
  22455913.422 6      2370.058 6  -4969407.522 6  -3841072.47447  22455905.60547
        46.500          32.750  
  21566900.438 7      2683.839 7  -5550413.954 7  -4271338.87948  21566891.80148
        51.000          39.750  
 11  3 22 20  3 30.0000000  0  8G11G12G14G18G19G22G24G31            
  22284029.055 6      1101.549 6  -3120002.684 6  -2400212.23547  22284020.88747
        47.000          32.500  
  25233411.547 5       717.160 5   -618857.235 5  -1958133.71146  25233406.36746
        39.750          19.500  
  20905554.219 7     -1534.455 7   1801822.002 7   1410627.39448  20905545.05548
        49.500          39.750  
  23932118.531 5     -2667.188 5   3951475.195 5   3073123.14846  23932111.59446
        42.000          22.750  
  24410639.602 5     -2598.673 5   3820820.924 5   2970861.87846  24410632.48846
        41.500          25.250  
  21602634.000 7     -1765.353 7   2261218.310 7   1765253.98048  21602623.48848
        50.000          38.000  
  22449166.500 6      2363.632 6  -5004862.004 6  -3868699.32747  22449159.32847
        46.500          32.750  
  21559259.539 7      2676.853 7  -5590566.752 7  -4302626.73748  21559250.96148
        50.500          40.000  
 11  3 22 20  3 45.0000000  0  8G11G12G14G18G19G22G24G31            
  22280910.438 6      1092.586 6  -3136391.476 6  -2412982.72347  22280901.39147
        46.500          32.250  
  25231384.984 4       709.395 4   -629498.162 4  -1966425.42245  25231382.09045
        37.500          18.500  
  20909946.852 7     -1538.856 7   1824904.849 7   1428614.01848  20909937.45348
        49.250          40.000  
  23939739.539 6     -2669.935 6   3991524.226 6   3104330.13846  23939733.07046
        42.500          23.000  
  24418063.234 5     -2600.827 5   3859833.331 5   3001261.10446  24418056.29746
        41.750          24.750  
  21607685.477 7     -1769.695 7   2287763.732 7   1785938.71648  21607674.78948
        49.750          38.000  
  22442437.500 6      2357.217 6  -5040220.255 6  -3896251.19547  22442430.79747
        45.750          32.500  
  21551638.711 7      2669.874 7  -5630614.865 7  -4333833.02048  21551630.13348
        50.250          39.250  
 11  3 22 20  4  0.0000000  0  8G11G12G14G18G19G22G24G31            
  22277817.383 6      1083.555 6  -3152644.800 6  -2425647.64547  22277809.03947
        46.500          32.500  
  25229382.141 4       701.557 4   -640021.524 4  -1974625.47045  25229379.42245
        37.750          18.500  
  20914351.773 7     -1543.315 7   1848054.569 7   1446652.75448  20914342.78548
        49.500          39.500  
  23947368.344 5     -2672.736 5   4031615.267 5   3135569.85446  23947362.40246
        41.250          23.750  
  24425494.000 6     -2603.003 6   3898878.370 6   3031685.75147  24425486.88747
        42.500          26.500  
  21612749.383 7     -1774.097 7   2314375.185 7   1806674.90048  21612738.63748
        49.250          37.500  
  22435727.641 6      2350.734 6  -5075481.264 6  -3923727.28747  22435720.99647
        46.250          32.250  
  21544037.742 7      2662.825 7  -5670557.237 7  -4364956.91448  21544029.39848
        50.500          39.500  
 11  3 22 20  4 15.0000000  0  8G11G12G14G18G19G22G24G31            
  22274750.016 6      1074.591 6  -3168763.658 6  -2438207.79047  22274741.49647
        47.000          33.000  
  25227402.805 5       693.787 5   -650428.327 5  -1982734.54145  25227396.92245
        40.750          16.750  
  20918769.938 7     -1547.680 7   1871269.768 7   1464742.50948  20918760.42248
        49.000          39.250  
  23955005.328 5     -2675.471 5   4071747.337 5   3166841.56546  23954998.80146
        42.000          25.500  
  24432929.133 5     -2605.087 5   3937954.672 5   3062134.76146  24432922.84046
        40.750          25.500  
  21617825.555 7     -1778.424 7   2341051.549 7   1827461.67048  21617815.10248
        49.500          37.500  
  22429035.906 6      2344.303 6  -5110645.803 6  -3951128.21547  22429029.20347
        47.250          32.000  
  21536456.602 7      2655.820 7  -5710394.529 7  -4395998.92148  21536448.60948
        50.500          39.250  
 11  3 22 20  4 30.0000000  0  8G11G12G14G18G19G22G24G31            
  22271708.445 6      1065.631 6  -3184748.130 6  -2450663.22347  22271699.57447
        47.000          33.000  
  25225446.281 5       686.011 5   -660718.493 5  -1990752.68945  25225436.12145
        40.000          16.750  
  20923199.586 7     -1552.017 7   1894550.025 7   1482882.96248  20923191.00848
        49.000          39.500  
  23962649.813 5     -2678.188 5   4111920.160 5   3198144.99446  23962643.69546
        42.250          24.750  
  24440370.922 5     -2607.142 5   3977061.802 5   3092607.78846  24440364.80546
        40.000          25.500  
  21622914.578 7     -1782.737 7   2367792.600 7   1848298.84548  21622903.48048
        49.750          37.000  
  22422362.930 6      2337.866 6  -5145713.788 6  -3978453.89847  22422355.87547
        46.500          33.250  
  21528896.172 7      2648.807 7  -5750126.631 7  -4426958.96548  21528887.77048
        49.750          39.000  
 11  3 22 20  4 45.0000000  0  8G11G12G14G18G19G22G24G31            
  22268692.156 6      1056.649 6  -3200597.864 6  -2463013.67147  22268683.16847
        46.250          33.250  
  25223509.586 5       678.218 5   -670891.768 5  -1998679.96645  25223501.24245
        39.250          16.750  
  20927642.391 7     -1556.365 7   1917895.496 7   1501074.23148  20927633.05148
        49.750          39.750  
  23970303.172 5     -2680.916 5   4152133.894 5   3229480.32946  23970296.23446
        41.750          24.750  
  24447819.672 5     -2609.172 5   4016199.389 5   3123104.55047  24447812.14847
        41.750          27.250  
  21628015.508 7     -1787.060 7   2394598.507 7   1869186.54648  21628004.76248
        49.250          37.500  
  22415707.711 6      2331.397 6  -5180684.750 6  -4005703.98447  22415701.24247
        46.500          32.000  
  21521355.523 7      2641.762 7  -5789753.068 7  -4457836.66548  21521347.23848
        50.000          39.250  
 11  3 22 20  5  0.0000000  0  9G11G12G14G18G19G20G22G24G31         
  22265701.555 6      1047.648 6  -3216312.577 6  -2475258.89547  22265693.03547
        46.250          32.500  
  25221594.797 4       670.399 4   -680947.750 4  -2006515.79945  25221589.44145
        38.750          18.250  
  20932097.336 7     -1560.704 7   1941306.051 7   1519316.21748  20932087.99648
        49.250          39.500  
  23977963.305 6     -2683.655 6   4192388.726 6   3260847.68546  23977956.71946
        42.500          22.500  
  24455271.734 5     -2611.188 5   4055367.207 5   3153624.87746  24455265.32446
        40.250          25.250  
  25594642.89815      3183.78115   -591968.33315   -414384.29556  25594636.66456
        41.500          25.000  
  21633128.875 7     -1791.394 7   2421469.410 7   1890124.90248  21633117.77748
        49.500          38.000  
  22409072.000 6      2324.891 6  -5215558.117 6  -4032878.02147  22409065.12147
        46.250          32.500  
  21513834.930 7      2634.687 7  -5829273.372 7  -4488631.66448  21513826.41048
        51.250          39.750  
 11  3 22 20  5 15.0000000  0  9G11G12G14G18G19G20G22G24G31         
  22262737.211 6      1038.570 6  -3231891.120 6  -2487398.01847  22262728.51647
        45.500          33.250  
  25219703.438 4       662.502 4   -690885.284 4  -2014259.39245  25219699.54745
        37.500          18.500  
  20936564.375 7     -1565.088 7   1964782.366 7   1537609.44448  20936555.62148
        49.500          39.500  
  23985631.414 6     -2686.447 6   4232685.428 6   3292247.65446  23985625.35546
        42.500          24.250  
  24462731.148 5     -2613.256 5   4094566.040 5   3184169.35546  24462725.32446
        41.250          25.750  
  25585552.656 5      3184.325 5   -639733.214 5   -451603.71147  25585547.94547
        42.000          28.500  
  21638254.867 7     -1795.797 7   2448406.360 7   1911114.71448  21638244.18048
        49.250          38.250  
  22402454.461 6      2318.303 6  -5250332.661 6  -4059975.04747  22402447.75847
        47.000          32.500  
  21506334.984 7      2627.519 7  -5868686.153 7  -4519342.89148  21506326.75848
        50.750          39.500  
 11  3 22 20  5 30.0000000  0  9G11G12G14G18G19G20G22G24G31         
  22259798.852 6      1029.574 6  -3247334.723 6  -2499431.98447  22259789.68847
        47.000          32.750  
  25217836.609 5       654.655 5   -700705.108 5  -2021911.23746  25217830.90246
        40.500          19.000  
  20941044.242 7     -1569.386 7   1988323.156 7   1555952.91048  20941035.43048
        49.500          39.750  
  23993306.914 5     -2689.155 5   4273022.751 5   3323679.26446  23993300.73846
        42.000          23.000  
  24470197.406 5     -2615.216 5   4133794.286 5   3214736.73646  24470190.11746
        42.250          25.750  
  25576461.180 5      3185.250 5   -687511.970 5   -488833.92947  25576455.00447
        42.250          30.500  
  21643392.641 7     -1800.120 7   2475408.160 7   1932155.06248  21643382.36348
        48.750          37.500  
  22395855.852 6      2311.779 6  -5285009.342 6  -4086995.82647  22395848.91447
        47.250          32.250  
  21498855.563 7      2620.404 7  -5907992.217 7  -4549970.94948  21498847.27748
        50.500          39.500  
 11  3 22 20  5 45.0000000  0  9G11G12G14G18G19G20G22G24G31         
  22256885.164 6      1020.565 6  -3262643.193 6  -2511360.67047  22256876.58647
        45.500          32.250  
  25215989.883 5       646.817 5   -710407.358 5  -2029471.43546  25215983.64846
        41.000          19.000  
  20945536.102 7     -1573.685 7   2011928.428 7   1574346.61448  20945526.58648
        49.750          39.500  
  24000990.469 5     -2691.871 5   4313400.816 5   3355142.64046  24000984.17646
        42.000          25.000  
  24477666.914 6     -2617.162 6   4173051.716 6   3245326.89046  24477660.56346
        42.500          25.250  
  25567367.172 6      3186.148 6   -735304.195 6   -526074.64147  25567361.28947
        43.000          32.250  
  21648543.367 7     -1804.453 7   2502474.952 7   1953246.05848  21648532.97348
        48.750          37.500  
  22389275.625 6      2305.232 6  -5319587.824 6  -4113940.07547  22389268.80547
        46.500          32.750  
  21491395.695 7      2613.271 7  -5947191.276 7  -4580515.64048  21491387.58648
        50.500          39.750  
 11  3 22 20  6  0.0000000  0  9G11G12G14G18G19G20G22G24G31         
  22253998.211 6      1011.513 6  -3277815.887 6  -2523183.53947  22253989.63347
        47.250          33.000  
  25214165.688 5       638.932 5   -719991.339 5  -2036939.39845  25214158.45745
        40.750          16.750  
  20950040.578 7     -1577.982 7   2035598.155 7   1592790.54948  20950031.00448
        49.500          39.750  
  24008682.695 5     -2694.611 5   4353819.977 5   3386638.04346  24008675.93446
        42.000          25.500  
  24485143.359 5     -2619.106 5   4212338.309 5   3275939.77247  24485136.59847
        42.000          26.750  
  25558270.406 5      3187.009 5   -783109.331 5   -563325.37047  25558264.34847
        41.250          29.500  
  21653706.898 7     -1808.812 7   2529607.130 7   1974388.00448  21653695.80148
        49.000          37.500  
  22382714.086 6      2298.638 6  -5354067.401 6  -4140807.25347  22382707.55947
        46.750          33.000  
  21483957.023 7      2606.093 7  -5986282.669 7  -4610976.42048  21483948.62148
        51.000          39.250  
 11  3 22 20  6 15.0000000  0  9G11G12G14G18G19G20G22G24G31         
  22251137.188 7      1002.478 7  -3292853.058 7  -2534900.81747  22251128.14147
        47.750          33.500  
  25212364.914 4       631.044 4   -729456.993 4  -2044315.12645  25212355.16445
        39.000          15.500  
  20954556.461 7     -1582.246 7   2059331.846 7   1611284.32548  20954547.94148
        48.750          39.750  
  24016382.148 5     -2697.319 5   4394279.763 5   3418165.08046  24016375.09446
        40.750          22.750  
  24492624.477 5     -2621.003 5   4251653.347 5   3306574.80647  24492618.59447
        41.000          26.500  
  25549169.203 5      3187.893 5   -830927.728 5   -600586.47847  25549164.78547
        39.750          27.750  
  21658882.102 7     -1813.143 7   2556804.272 7   1995580.56848  21658871.41448
        49.500          38.000  
  22376171.875 6      2292.047 6  -5388448.100 6  -4167597.39447  22376165.17247
        47.000          32.500  
  21476538.781 7      2598.924 7  -6025266.527 7  -4641353.41948  21476530.20348
        50.000          39.500  
 11  3 22 20  6 30.0000000  0  9G11G12G14G18G19G20G22G24G31         
  22248301.023 6       993.387 6  -3307753.869 6  -2546511.83747  22248292.62147
        47.000          33.250  
  25210585.016 5       623.098 5   -738803.463 5  -2051598.05945  25210577.84445
        40.000          16.750  
  20959085.617 7     -1586.558 7   2083130.222 7   1629828.50448  20959075.98448
        48.750          38.750  
  24024089.016 5     -2700.083 5   4434781.010 5   3449724.42346  24024082.31346
        40.000          22.500  
  24500113.430 5     -2622.923 5   4290997.198 5   3337232.26447  24500105.32047
        42.250          27.250  
  25540068.914 5      3188.721 5   -878758.550 5   -637857.27547  25540062.79747
        40.500          27.500  
  21664070.055 7     -1817.525 7   2584067.153 7   2016824.36348  21664059.19148
        49.250          37.250  
  22369648.523 6      2285.382 6  -5422728.829 6  -4194309.62947  22369641.41047
        47.000          32.000  
  21469140.727 7      2591.673 7  -6064141.623 7  -4671645.65848  21469132.55948
        51.250          39.750  
 11  3 22 20  6 45.0000000  0  9G11G12G14G18G19G20G22G24G31         
  22245491.484 6       984.319 6  -3322518.650 6  -2558016.85347  22245482.49647
        47.250          33.500  
  25208829.133 4       615.178 4   -748031.137 4  -2058788.47845  25208824.12945
        39.000          18.250  
  20963626.516 7     -1590.822 7   2106992.550 7   1648422.52348  20963617.46948
        48.750          39.000  
  24031804.039 5     -2702.821 5   4475323.320 5   3481315.76946  24031797.80546
        40.000          21.750  
  24507604.813 6     -2624.790 6   4330369.053 6   3367911.59747  24507597.58247
        43.250          26.500  
  25530965.008 5      3189.571 5   -926602.115 5   -675138.02546  25530958.48046
        39.750          25.500  
  21669270.750 7     -1821.886 7   2611395.448 7   2038119.11948  21669259.94548
        49.500          38.000  
  22363144.180 6      2278.726 6  -5456909.715 6  -4220944.07047  22363137.24247
        47.250          32.500  
  21461763.852 7      2584.430 7  -6102908.067 7  -4701853.23848  21461754.86348
        50.500          39.500  
 11  3 22 20  7  0.0000000  0  9G11G12G14G18G19G20G22G24G31         
  22242707.969 6       975.290 6  -3337148.006 6  -2569416.35147  22242698.74647
        45.000          33.000  
  25207096.445 5       607.279 5   -757140.324 5  -2065886.59046  25207091.96946
        40.500          20.000  
  20968178.781 7     -1595.032 7   2130918.038 7   1667065.75548  20968169.96948
        48.750          39.250  
  24039526.813 5     -2705.516 5   4515906.062 5   3512938.64546  24039519.93446
        40.000          21.750  
  24515101.781 6     -2626.601 6   4369768.071 6   3398612.06447  24515094.49247
        42.500          27.250  
  25521856.148 3      3190.460 3   -974459.011 3   -712429.17646  25521851.37946
        36.000          23.750  
  21674483.359 7     -1826.197 7   2638788.402 7   2059464.26448  21674472.61348
        49.000          37.500  
  22356658.930 6      2272.095 6  -5490991.137 6  -4247501.00247  22356651.87547
        47.000          33.250  
  21454407.414 7      2577.215 7  -6141566.285 7  -4731976.48748  21454398.66048
        51.000          39.750  
 11  3 22 20  7 15.0000000  0  9G11G12G14G18G19G20G22G24G31         
  22239949.602 6       966.242 6  -3351641.635 6  -2580710.08347  22239941.02347
        46.250          33.000  
  25205387.188 5       599.356 5   -766130.661 5  -2072892.07546  25205381.42246
        41.750          20.250  
  20972744.055 7     -1599.240 7   2154906.639 7   1685758.15648  20972734.89148
        48.750          39.250  
  24047257.141 5     -2708.211 5   4556529.227 5   3544592.98846  24047250.02746
        39.250          21.500  
  24522604.398 5     -2628.386 5   4409193.855 5   3429333.40047  24522597.34447
        41.250          27.250  
  25512748.461 3      3191.320 3  -1022328.817 3   -749730.33646  25512741.75846
        36.000          22.000  
  21679708.203 7     -1830.531 7   2666246.364 7   2080860.06648  21679697.45748
        48.750          38.250  
  22350192.133 6      2265.435 6  -5524972.663 6  -4273980.10047  22350185.43047
        47.000          32.750  
  21447071.805 7      2569.961 7  -6180115.702 7  -4762014.95448  21447063.28548
        50.500          40.000  
 11  3 22 20  7 30.0000000  0  9G11G12G14G18G19G20G22G24G31         
  22237217.336 6       957.126 6  -3365998.525 6  -2591897.26047  22237208.75847
        47.500          32.750  
  25203697.742 4       591.369 4   -775001.194 4  -2079804.18645  25203692.79745
        38.500          18.500  
  20977320.805 7     -1603.492 7   2178959.027 7   1704500.27148  20977311.75848
        49.250          39.000  
  24054995.609 5     -2710.950 5   4597193.471 5   3576279.34546  24054988.61346
        39.500          21.250  
  24530112.359 5     -2630.208 5   4448646.980 5   3460076.02947  24530105.65647
        42.000          27.500  
  25503636.781 4      3192.132 4  -1070210.801 4   -787041.00846  25503630.43046
        39.000          19.000  
  21684945.859 7     -1834.912 7   2693770.042 7   2102307.07948  21684935.17248
        48.750          38.250  
  22343745.453 6      2258.698 6  -5558853.135 6  -4300380.45247  22343737.98847
        46.500          33.250  
  21439757.008 7      2562.631 7  -6218555.169 7  -4791967.74948  21439748.48848
        50.250          40.250  
 11  3 22 20  7 45.0000000  0  9G11G12G14G18G19G20G22G24G31         
  22234511.805 6       948.025 6  -3380218.896 6  -2602978.06747  22234502.75847
        47.500          33.250  
  25202031.984 4       583.391 4   -783752.056 4  -2086622.99345  25202024.93045
        39.000          15.500  
  20981910.070 7     -1607.706 7   2203074.621 7   1723291.63348  20981900.96548
        48.500          39.000  
  24062741.328 4     -2713.672 4   4637898.558 4   3607997.52346  24062734.03946
        38.750          21.500  
  24537623.570 4     -2631.990 4   4488126.831 4   3490839.46247  24537618.39147
        39.000          26.500  
  25494521.953 4      3192.963 4  -1118105.250 4   -824361.43045  25494516.12945
        38.750          18.250  
  21690196.258 7     -1839.274 7   2721359.150 7   2123805.07248  21690185.27748
        48.750          38.000  
  22337317.195 6      2251.966 6  -5592632.618 6  -4326702.11448  22337310.19948
        47.000          33.750  
  21432462.898 7      2555.306 7  -6256884.753 7  -4821834.92048  21432454.61348
        50.500          39.250  
 11  3 22 20  8  0.0000000  0  9G11G12G14G18G19G20G22G24G31         
  22231831.188 6       938.950 6  -3394303.141 6  -2613952.80147  22231822.72747
        47.500          33.000  
  25200390.063 5       575.438 5   -792383.631 5  -2093348.82845  25200380.31345
        40.750          16.250  
  20986511.117 7     -1611.878 7   2227252.795 7   1742131.76248  20986501.83648
        48.500          38.750  
  24070494.234 5     -2716.364 5   4678644.021 5   3639747.17646  24070488.58646
        39.500          21.500  
  24545141.867 5     -2633.706 5   4527632.426 5   3521623.00047  24545135.51647
        40.000          26.750  
  25485406.344 3      3193.824 3  -1166012.604 3   -861691.56445  25485398.82045
        36.750          16.250  
  21695458.000 7     -1843.594 7   2749013.063 7   2145353.56448  21695447.37148
        48.750          37.750  
  22330907.578 6      2245.252 6  -5626311.405 6  -4352945.30047  22330900.99247
        47.000          33.000  
  21425189.977 7      2547.991 7  -6295104.614 7  -4851616.59148  21425181.16448
        50.500          39.750  
 11  3 22 20  8 15.0000000  0  9G11G12G14G18G19G20G22G24G31         
  22229176.922 7       929.842 7  -3408250.777 7  -2624821.08447  22229168.69547
        48.500          33.000  
  25198769.984 5       567.454 5   -800895.434 5  -2099981.41245  25198761.11345
        39.250          15.500  
  20991123.930 7     -1616.051 7   2251493.565 7   1761020.66348  20991114.70748
        48.500          39.000  
  24078256.336 4     -2719.066 4   4719430.015 4   3671528.42446  24078249.75046
        38.250          21.500  
  24552665.000 5     -2635.419 5   4567163.715 5   3552426.55147  24552658.06347
        41.750          26.750  
  25476286.922 2      3194.656 2  -1213932.450 2   -899031.44945  25476279.51645
        35.250          14.750  
  21700733.336 7     -1847.947 7   2776732.264 7   2166952.92548  21700722.64848
        48.250          37.750  
  22324518.078 6      2238.494 6  -5659888.818 6  -4379109.50447  22324511.14147
        47.500          32.750  
  21417937.500 7      2540.639 7  -6333214.198 7  -4881312.32448  21417929.21548
        50.250          40.000  
 11  3 22 20  8 30.0000000  0  8G11G12G14G18G19G22G24G31            
  22226549.883 7       920.540 7  -3422058.874 7  -2635580.63047  22226540.66047
        48.250          33.000  
  25197174.344 5       559.262 5   -809284.364 5  -2106518.22345  25197167.40645
        41.250          18.500  
  20995749.289 7     -1620.408 7   2275799.688 7   1779960.48948  20995739.89148
        49.000          39.000  
  24086025.492 4     -2721.957 4   4760259.374 4   3703343.43446  24086019.31646
        38.500          21.500  
  24560193.328 5     -2637.301 5   4606723.237 5   3583252.07446  24560185.68846
        41.500          26.000  
  21706021.016 7     -1852.474 7   2804519.369 7   2188605.19948  21706009.85948
        48.750          37.500  
  22318148.633 6      2231.531 6  -5693361.784 6  -4405192.32247  22318141.46147
        47.500          33.000  
  21410707.758 7      2533.074 7  -6371210.308 7  -4910919.65148  21410699.23848
        50.000          40.000  
 11  3 22 20  8 45.0000000  0  9G11G12G14G18G19G20G22G24G31         
  22223946.906 7       911.787 7  -3435735.680 7  -2646237.88347  22223938.21147
        48.500          32.500  
  25195599.961 5       551.608 5   -817558.477 5  -2112965.62446  25195594.48846
        41.000          20.250  
  21000385.391 7     -1624.198 7   2300162.664 7   1798944.61648  21000376.22748
        48.750          39.250  
  24093802.180 4     -2724.291 4   4801123.738 4   3735185.72446  24093795.53546
        38.500          22.500  
  24567725.406 5     -2638.601 5   4646302.255 5   3614092.80847  24567717.94147
        41.250          26.500  
  25458041.219 2      3197.109 2    291136.039 2                
        35.000  
  21711319.977 7     -1856.460 7   2832366.276 7   2210304.07448  21711308.76248
        48.750          37.500  
  22311797.359 6      2225.102 6  -5726738.311 6  -4431199.98847  22311790.12947
        47.500          33.000  
  21403497.047 7      2526.041 7  -6409100.921 7  -4940444.77248  21403488.23448
        50.500          40.500  
 11  3 22 20  9  0.0000000  0  9G11G12G14G18G19G20G22G24G31         
  22221371.023 7       902.458 7  -3449272.549 7  -2656786.08047  22221362.32847
        48.250          33.000  
  25194047.234 5       543.372 5   -825709.059 5  -2119316.82545  25194042.99245
        39.500          18.500  
  21005033.625 7     -1628.548 7   2324590.886 7   1817979.58448  21005024.57848
        49.250          39.000  
  24101586.008 4     -2727.199 4   4842031.719 4   3767061.98546  24101579.94946
        37.500          21.500  
  24575261.172 5     -2640.450 5   4685909.013 5   3644955.16947  24575255.28947
        39.750          26.500  
  25448916.016 4      3197.055 4    243180.212 4   -915986.21856  25448910.71956
        38.250          20.000  
  21716632.102 7     -1861.023 7   2860281.625 7   2232056.28048  21716620.94548
        48.750          37.000  
  22305465.797 6      2218.085 6  -5760009.588 6  -4457125.64047  22305459.15247
        47.250          33.000  
  21396308.320 7      2518.418 7  -6446877.197 7  -4969880.79648  21396299.50848
        50.750          40.000  
 11  3 22 20  9 15.0000000  0  9G11G12G14G18G19G20G22G24G31         
  22218821.078 7       893.366 7  -3462673.036 7  -2667228.01247  22218812.50047
        48.250          33.000  
  25192519.281 5       535.379 5   -833739.747 5  -2125574.55445  25192514.62945
        40.500          17.750  
  21009694.250 7     -1632.630 7   2349080.330 7   1837062.25848  21009685.08648
        49.000          39.000  
  24109378.414 3     -2729.850 3   4882979.465 3   3798969.26046  24109371.94546
        37.000          21.000  
  24582801.602 4     -2642.029 4   4725539.441 4   3675835.96246  24582796.65646
        38.000          25.750  
  25439788.578 5      3197.897 5    195211.764 5   -953364.33445  25439782.69545
        39.500          15.500  
  21721956.484 7     -1865.332 7   2888261.597 7   2253858.84748  21721945.68048
        48.750          37.500  
  22299154.203 6      2211.298 6  -5793179.058 6  -4482971.95848  22299147.55948
        46.750          33.750  
  21389140.883 7      2511.028 7  -6484542.620 7  -4999230.44848  21389132.30548
        50.250          40.250  
 11  3 22 20  9 30.0000000  0  9G11G12G14G18G19G20G22G24G31         
  22216297.156 7       884.274 7  -3475937.145 7  -2677563.67747  22216287.99247
        48.500          33.000  
  25191015.250 6       527.368 6   -841650.263 6  -2131738.57045  25191007.60945
        42.500          17.250  
  21014365.813 7     -1636.702 7   2373630.856 7   1856192.53248  21014356.88348
        49.500          39.250  
  24117177.414 4     -2732.499 4   4923966.953 4   3830907.47646  24117172.17646
        38.250          21.000  
  24590349.492 5     -2643.593 5   4765193.334 5   3706735.00847  24590341.73447
        41.000          26.500  
  25430659.164 5      3198.733 5    147230.770 5   -990752.11445  25430651.28945
        41.750          13.750  
  21727293.188 7     -1869.640 7   2916306.199 7   2275711.75648  21727282.20748
        48.000          36.750  
  22292861.563 6      2204.484 6  -5826246.316 6  -4508738.63648  22292854.62548
        47.000          34.250  
  21381994.531 7      2503.613 7  -6522096.816 7  -5028493.42048  21381985.95348
        50.500          39.750  
 11  3 22 20  9 45.0000000  0  9G11G12G14G18G19G20G22G24G31         
  22213798.930 7       875.155 7  -3489064.463 7  -2687792.75347  22213789.82447
        48.000          33.500  
  25189532.555 5       519.336 5   -849440.303 5  -2137808.68945  25189523.74245
        42.000          17.250  
  21019049.422 7     -1640.784 7   2398242.609 7   1875370.50848  21019040.49248
        48.750          39.000  
  24124985.680 4     -2735.172 4   4964994.535 4   3862876.93646  24124979.73846
        38.500          20.250  
  24597898.555 5     -2645.136 5   4804870.380 5   3737652.14646  24597892.78946
        40.000          26.250  
  25421526.297 1      3199.540 1     99237.663 1  -1028149.62245  25421518.48045
        33.250          15.500  
  21732642.570 7     -1873.969 7   2944415.734 7   2297615.27848  21732631.70748
        48.250          37.500  
  22286588.742 6      2197.634 6  -5859210.828 6  -4534425.25047  22286581.74647
        47.000          33.500  
  21374869.344 7      2496.161 7  -6559539.229 7  -5057669.29748  21374860.59048
        50.750          40.000  
 11  3 22 20 10  0.0000000  0  8G11G12G14G18G19G22G24G31            
  22211327.438 7       865.793 7  -3502051.362 7  -2697912.41147  22211318.39147
        47.750          33.250  
  25188073.938 5       511.061 5   -857106.215 5  -2143782.06546  25188066.23846
        40.250          19.500  
  21023745.156 7     -1645.089 7   2422918.939 7   1894598.80848  21023736.05148
        49.500          39.000  
  24132801.336 4     -2738.066 4   5006065.530 4   3894880.25646  24132795.57046
        38.500          21.000  
  24605454.578 5     -2646.890 5   4844573.734 5   3768589.74246  24605447.99246
        39.500          26.250  
  21738004.508 7     -1878.527 7   2972593.635 7   2319572.06248  21737993.58648
        48.500          37.500  
  22280335.969 6      2190.532 6  -5892068.814 6  -4560028.85947  22280328.50447
        47.250          33.500  
  21367766.188 7      2488.451 7  -6596866.001 7  -5086755.06448  21367757.55148
        50.750          39.750  
 11  3 22 20 10 15.0000000  0  8G11G12G14G18G19G22G24G31            
  22208882.055 7       856.808 7  -3514903.485 7  -2707927.05047  22208872.89147
        47.750          33.000  
  25186637.555 5       503.137 5   -864653.273 5  -2149662.94246  25186631.90646
        41.750          20.000  
  21028452.133 7     -1648.999 7   2447653.920 7   1913872.80348  21028442.79348
        49.000          38.750  
  24140624.234 4     -2740.585 4   5047174.310 4   3926913.00246  24140617.88346
        38.250          20.750  
  24613013.961 4     -2648.246 4   4884297.430 4   3799543.18546  24613007.14146
        38.750          25.500  
  21743378.523 7     -1882.713 7   3000834.337 7   2341577.79048  21743367.48448
        47.750          37.000  
  22274102.766 6      2183.787 6  -5924825.618 6  -4585553.62848  22274095.77048
        47.000          34.500  
  21360684.266 7      2481.099 7  -6634082.479 7  -5115754.89448  21360676.03948
        50.500          40.500  
 11  3 22 20 10 30.0000000  0  9G11G12G14G18G19G20G22G24G31         
  22206462.250 6       847.667 6  -3527618.491 6  -2717834.83947  22206453.32047
        47.500          33.000  
  25185224.656 5       495.059 5   -872079.160 5  -2155449.45046  25185218.83246
        41.750          20.500  
  21033170.313 7     -1653.037 7   2472449.478 7   1933194.00848  21033161.44148
        49.250          38.500  
  24148454.156 4     -2743.234 4   5088322.822 4   3958976.70646  24148447.80546
        39.000          20.750  
  24620578.313 5     -2649.723 5   4924043.270 5   3830513.90446  24620571.08246
        41.000          26.000  
  25394113.01611      3202.20311                                
        32.250  
  21748764.914 7     -1887.047 7   3029140.041 7   2363634.16948  21748754.28548
        48.250          37.250  
  22267888.906 6      2176.887 6  -5957478.918 6  -4610997.73648  22267881.55948
        47.000          34.250  
  21353623.742 7      2473.584 7  -6671186.237 7  -5144666.88548  21353614.75448
        51.000          40.250  
 11  3 22 20 10 45.0000000  0  9G11G12G14G18G19G20G22G24G31         
  22204068.328 7       838.666 7  -3540198.484 7  -2727637.43747  22204059.69147
        48.250          33.000  
  25183833.313 5       487.130 5   -879386.115 5  -2161143.21146  25183828.71946
        41.000          19.000  
  21037900.320 7     -1656.921 7   2497303.289 7   1952560.60448  21037890.74648
        48.750          38.750  
  24156291.719 4     -2745.744 4   5129508.978 4   3991069.69746  24156286.07046
        39.000          20.000  
  24628145.523 5     -2651.025 5   4963808.652 5   3861499.85047  24628138.11747
        39.750          26.500  
  25384974.148 2      3203.250 2    474743.018 2                
        34.000  
  21754163.508 7     -1891.228 7   3057508.462 7   2385739.41248  21754152.17648
        48.000          37.250  
  22261694.719 6      2170.111 6  -5990030.588 6  -4636362.65948  22261687.25448
        46.750          33.750  
  21346584.352 7      2466.195 7  -6708179.164 7  -5173492.51348  21346575.59848
        51.250          40.500  
 11  3 22 20 11  0.0000000  0  9G11G12G14G18G19G20G22G24G31         
  22201700.789 7       829.389 7  -3552639.323 7  -2737331.59347  22201692.09447
        48.250          33.250  
  25182467.828 5       478.911 5   -886569.780 5  -2166740.83545  25182460.30545
        39.500          16.250  
  21042641.727 7     -1661.062 7   2522219.223 7   1971975.60648  21042632.09448
        49.500          38.750  
  24164138.172 5     -2748.538 5   5170737.042 5   4023195.43346  24164131.64546
        39.500          20.250  
  24635716.188 5     -2652.583 5   5003597.395 5   3892504.00347  24635709.48447
        39.750          26.500  
  25375828.961 3      3203.423 3    426691.672 3                
        37.250  
  21759574.156 6     -1895.682 6   3085943.686 6   2407896.70948  21759563.46948
        47.250          37.500  
  22255520.250 6      2163.044 6  -6022476.247 6  -4661644.97748  22255512.43448
        47.000          33.750  
  21339566.711 7      2458.518 7  -6745056.940 7  -5202228.41948  21339558.01648
        50.500          40.000  
 11  3 22 20 11 15.0000000  0  9G11G12G14G18G19G20G22G24G31         
  22199359.906 7       820.189 7  -3564942.153 7  -2746918.20347  22199351.03547
        48.500          33.250  
  25181123.500 5       470.758 5   -893631.147 5  -2172243.18345  25181114.39545
        40.500          16.250  
  21047394.563 7     -1665.111 7   2547195.895 7   1991437.94348  21047385.34048
        49.250          39.250  
  24171990.883 5     -2751.228 5   5212005.462 5   4055352.56446  24171984.41446
        39.750          20.000  
  24643291.891 4     -2654.038 4   5043407.962 4   3923525.12847  24643285.30547
        38.750          27.500  
  25366681.695 3      3204.149 3    378629.444 3                
        36.000  
  21764997.820 6     -1900.058 6   3114444.550 6   2430105.15948  21764987.25048
        47.500          37.000  
  22249365.930 6      2156.036 6  -6054816.789 6  -4686845.39348  22249358.58248
        46.000          34.000  
  21332570.508 7      2450.901 7  -6781820.451 7  -5230875.28548  21332561.87148
        50.750          39.500  
 11  3 22 20 11 30.0000000  0  9G11G12G14G18G19G20G22G24G31         
  22197045.109 7       810.983 7  -3577106.895 7  -2756397.23447  22197036.70747
        48.500          33.500  
  25179801.602 5       462.600 5   -900570.148 5  -2177650.14945  25179792.61345
        39.750          16.250  
  21052158.719 7     -1669.153 7   2572233.189 7   2010947.50648  21052149.37948
        49.500          38.500  
  24179851.906 5     -2753.916 5   5253314.200 5   4087541.10846  24179844.61746
        39.250          19.500  
  24650871.430 5     -2655.461 5   5083239.875 5   3954562.93446  24650865.60546
        39.250          25.000  
  25357533.109 3      3204.849 3    330556.716 3                
        35.750  
  21770434.055 7     -1904.431 7   3143011.022 7   2452364.72048  21770423.07448
        48.250          36.750  
  22243232.070 6      2149.010 6  -6087051.941 6  -4711963.67547  22243224.48847
        47.000          33.500  
  21325596.492 7      2443.258 7  -6818469.314 7  -5259432.82148  21325587.91448
        51.500          40.250  
 11  3 22 20 11 45.0000000  0  9G11G12G14G18G19G20G22G24G31         
  22194756.078 7       801.895 7  -3589135.322 7  -2765770.02948  22194747.38348
        48.250          34.000  
  25178505.117 5       454.544 5   -907388.312 5  -2182963.00745  25178496.94945
        39.750          18.250  
  21056934.430 7     -1673.057 7   2597329.037 7   2030502.70248  21056925.09048
        49.000          38.750  
  24187720.063 5     -2756.475 5   5294661.326 5   4119759.57646  24187713.47746
        40.250          20.000  
  24658454.914 4     -2656.738 4   5123090.952 4   3985615.63446  24658448.91446
        38.750          25.500  
  25348385.297 4      3205.705 4    282471.137 4  -1158394.27555  25348377.30555
        38.250          16.250  
  21775881.930 6     -1908.680 6   3171641.215 6   2474673.94248  21775871.18448
        47.000          37.000  
  22237117.414 6      2142.090 6  -6119183.284 6  -4737001.07847  22237110.24247
        46.750          33.500  
  21318644.063 7      2435.717 7  -6855005.063 7  -5287902.22248  21318635.54348
        51.250          40.000  
 11  3 22 20 12  0.0000000  0  9G11G12G14G18G19G20G22G24G31         
  22192493.656 7       792.651 7  -3601025.090 7  -2775034.78148  22192484.84448
        48.500          34.000  
  25177231.508 5       446.344 5   -914083.476 5  -2188180.01646  25177224.33646
        41.000          20.000  
  21061721.383 7     -1677.096 7   2622485.475 7   2050105.10448  21061712.39548
        48.750          38.500  
  24195595.195 5     -2759.181 5   5336049.045 5   4152009.67846  24195589.02046
        40.000          21.250  
  24666043.258 5     -2658.135 5   5162962.982 5   4016684.67546  24666036.20346
        39.250          25.250  
  25339232.555 5      3206.374 5    234375.530 5  -1195871.47045  25339223.91845
        41.750          16.250  
  21781343.102 6     -1913.077 6   3200337.373 6   2497034.55948  21781332.23848
        47.000          37.000  
  22231023.078 6      2135.007 6  -6151208.394 6  -4761955.69247  22231016.14147
        46.000          33.250  
  21311713.586 7      2428.018 7  -6891425.332 7  -5316281.62648  21311704.83248
        51.000          40.250  
 11  3 22 20 12 15.0000000  0  9G11G12G14G18G19G20G22G24G31         
  22190256.953 7       783.442 7  -3612776.716 7  -2784191.90247  22190248.08247
        48.000          33.250  
  25175980.195 4       438.174 4   -920656.085 4  -2193301.55646  25175974.31346
        39.000          19.500  
  21066519.938 7     -1681.077 7   2647701.625 7   2069754.04848  21066510.59848
        49.000          38.750  
  24203479.344 5     -2761.849 5   5377476.774 5   4184290.96446  24203472.81646
        39.750          19.250  
  24673633.133 3     -2659.473 3   5202855.080 3   4047769.38946  24673627.42646
        37.000          24.750  
  25330077.055 5      3207.080 5    186269.325 5  -1233356.93245  25330069.76645
        41.500          18.250  
  21786816.141 6     -1917.441 6   3229098.993 6   2519446.19248  21786805.16048
        47.250          37.500  
  22224949.813 6      2127.941 6  -6183127.510 6  -4786827.71448  22224941.99648
        46.500          34.000  
  21304804.797 7      2420.332 7  -6927730.319 7  -5344571.20448  21304796.45348
        51.250          40.750  
 11  3 22 20 12 30.0000000  0  9G11G12G14G18G19G20G22G24G31         
  22188046.969 7       774.256 7  -3624390.558 7  -2793241.65347  22188038.74247
        48.000          33.000  
  25174753.750 5       430.024 5   -927106.438 5  -2198327.78746  25174747.04746
        40.250          19.500  
  21071329.852 7     -1685.008 7   2672976.750 7   2089448.93748  21071320.62948
        49.000          38.500  
  24211370.492 5     -2764.489 5   5418944.114 5   4216603.10346  24211363.43846
        40.250          19.000  
  24681228.180 3     -2660.748 3   5242766.305 3   4078868.95946  24681222.76646
        36.500          23.500  
  25320921.406 4      3207.822 4    138151.988 4  -1270850.99945  25320914.29345
        38.000          16.750  
  21792301.539 6     -1921.764 6   3257925.448 6   2541908.33848  21792290.73448
        47.000          37.250  
  22218895.469 6      2120.896 6  -6214940.948 6  -4811617.39348  22218888.29748
        46.000          34.000  
  21297918.164 7      2412.667 7  -6963920.327 7  -5372771.19648  21297909.58648
        50.500          40.750  
 11  3 22 20 12 45.0000000  0  9G11G12G14G18G19G20G22G24G31         
  22185863.391 7       765.037 7  -3635866.109 7  -2802183.62947  22185854.57847
        48.250          33.500  
  25173549.531 5       421.825 5   -933433.815 5  -2203258.22146  25173543.12146
        40.250          19.250  
  21076150.609 7     -1688.961 7   2698311.163 7   2109190.01848  21076141.38748
        49.500          38.500  
  24219269.211 5     -2767.146 5   5460451.304 5   4248946.29646  24219261.80546
        39.750          19.000  
  24688827.156 3     -2662.036 3   5282696.842 3   4109983.60046  24688820.80546
        37.000          25.000  
  25311762.352 3      3208.525 3     90024.120 3  -1308353.16345  25311754.94545
        36.250          15.500  
  21797799.289 6     -1926.113 6   3286817.143 6   2564421.33248  21797788.30948
        47.250          36.500  
  22212861.836 6      2113.803 6  -6246647.989 6  -4836324.16048  22212854.48848
        46.250          33.750  
  21291053.203 7      2404.950 7  -6999994.582 7  -5400880.97748  21291044.91848
        51.250          40.500  
 11  3 22 20 13  0.0000000  0 10G11G12G14G18G19G20G22G24G25G31      
  22183706.703 7       755.697 7  -3647201.568 7  -2811016.46047  22183697.71547
        48.750          33.500  
  25172367.844 4       413.523 4   -939636.659 4  -2208091.52445  25172360.96545
        38.750          18.250  
  21080983.000 7     -1693.008 7   2723706.281 7   2128978.42148  21080974.01248
        50.000          39.000  
  24227175.617 5     -2769.900 5   5501999.806 5   4281321.68346  24227168.50446
        39.500          20.500  
  24696430.133 4     -2663.404 4   5322647.908 4   4141114.19146  24696423.07846
        38.750          22.500  
  25302602.031 4      3209.112 4     41887.435 4  -1345862.48945  25302593.98045
        38.500          14.750  
  21803310.039 7     -1930.565 7   3315775.614 7   2586986.35448  21803299.00048
        48.000          37.250  
  22206848.875 6      2106.589 6  -6278246.824 6  -4860946.62248  22206841.64548
        46.750          33.750  
  24697888.71115      1955.95315   -721289.05115   -541567.26956  24697885.11356
        39.750          19.000  
  21284211.000 7      2397.115 7  -7035951.311 7  -5428899.19448  21284202.48048
        51.250          40.500  
 11  3 22 20 13 15.0000000  0 10G11G12G14G18G19G20G22G24G25G31      
  22181575.125 7       746.632 7  -3658401.041 7  -2819743.31948  22181566.25448
        48.750          34.250  
  25171210.727 5       405.451 5   -945718.431 5  -2212830.50445  25171202.73445
        40.250          17.250  
  21085826.570 7     -1696.797 7   2749158.233 7   2148811.09648  21085817.28948
        49.000          38.000  
  24235088.750 5     -2772.404 5   5543585.867 5   4313726.33445  24235082.51645
        39.750          18.250  
  24704035.453 3     -2664.496 3   5362615.355 3   4172257.62646  24704028.51646
        36.500          22.000  
  25293440.719 3      3209.937 3     -6261.620 3  -1383381.25745  25293432.60945
        36.750          16.250  
  21808832.563 6     -1934.778 6   3344797.286 6   2609600.62748  21808821.69948
        47.250          36.750  
  22200855.992 6      2099.587 6  -6309740.631 6  -4885487.23748  22200848.35248
        46.000          34.500  
  24692313.797 5      1953.132 5   -750586.038 5   -564396.08345  24692310.37545
        40.000          17.250  
  21277390.297 7      2389.501 7  -7071793.820 7  -5456828.40748  21277381.83648
        51.500          40.500  
 11  3 22 20 13 30.0000000  0 10G11G12G14G18G19G20G22G24G25G31      
  22179470.563 7       737.440 7  -3669462.642 7  -2828362.75848  22179461.86748
        48.750          34.000  
  25170077.984 5       397.263 5   -951677.370 5  -2217473.85346  25170069.40646
        41.500          19.500  
  21090681.141 7     -1700.675 7   2774668.362 7   2168689.11448  21090671.62548
        49.250          38.000  
  24243009.977 5     -2775.018 5   5585211.137 5   4346161.53546  24243003.68446
        39.750          20.250  
  24711645.039 4     -2665.673 4   5402600.456 4   4203414.75846  24711637.86746
        37.750          24.000  
  25284278.242 1      3210.668 1    -54421.646 1  -1420908.31945  25284267.73045
        33.500          16.750  
  21814367.852 6     -1939.090 6   3373883.635 6   2632265.28748  21814357.16448
        47.250          37.000  
  22194882.703 6      2092.476 6  -6341127.764 6  -4909944.72448  22194875.41448
        46.000          34.500  
  24686752.594 5      1948.378 5   -779811.708 5   -587169.31246  24686749.11346
        39.500          19.500  
  21270591.820 7      2381.764 7  -7107520.285 7  -5484667.18948  21270583.00848
        51.000          40.250  
 11  3 22 20 13 45.0000000  0 10G11G12G14G18G19G20G22G24G25G31      
  22177391.531 7       728.231 7  -3680386.101 7  -2836874.54147  22177382.60247
        48.500          33.500  
  25168966.250 5       389.055 5   -957513.191 5  -2222021.22246  25168961.77346
        41.000          20.500  
  21095546.828 7     -1704.555 7   2800236.680 7   2188612.46848  21095537.13748
        49.500          38.250  
  24250938.844 5     -2777.636 5   5626875.674 5   4378627.33746  24250932.02346
        39.250          19.000  
  24719256.625 3     -2666.841 3   5442603.078 3   4234585.56346  24719250.03946
        37.000          22.750  
  25275109.438 3      3211.360 3   -102592.048 3  -1458443.60345  25275101.91445
        37.000          17.750  
  21819914.695 6     -1943.417 6   3403034.884 6   2654980.52248  21819904.06648
        47.000          37.250  
  22188930.672 6      2085.329 6  -6372407.701 6  -4934318.68448  22188923.61748
        46.500          34.500  
  24681204.875 5      1943.588 5   -808965.531 5   -609886.52646  24681201.62946
        40.000          20.250  
  21263815.586 7      2373.994 7  -7143130.193 7  -5512415.15448  21263806.65648
        50.000          40.000  
 11  3 22 20 14  0.0000000  0 10G11G12G14G18G19G20G22G24G25G31      
  22175339.336 7       718.985 7  -3691170.882 7  -2845278.27148  22175330.28948
        49.000          34.000  
  25167879.281 5       380.808 5   -963225.317 5  -2226472.22946  25167874.68846
        39.250          20.000  
  21100422.906 7     -1708.449 7   2825863.411 7   2208581.34348  21100413.62548
        50.000          38.750  
  24258874.711 5     -2780.280 5   5668579.879 5   4411124.07546  24258868.53546
        40.000          20.000  
  24726872.906 3     -2668.013 3   5482623.270 3   4265770.00646  24726866.08646
        36.750          24.750  
  25265940.055 3      3212.022 3   -150772.385 3  -1495986.71345  25265933.00045
        36.750          16.250  
  21825474.656 7     -1947.776 7   3432251.530 7   2677746.72948  21825464.02748
        47.750          36.250  
  22182998.594 6      2078.134 6  -6403579.709 6  -4958608.55248  22182991.18848
        47.000          34.500  
  24675670.984 5      1938.739 5   -838046.610 5   -632547.09746  24675667.21146
        40.000          19.750  
  21257061.516 7      2366.178 7  -7178622.861 7  -5540071.76248  21257052.99648
        50.000          41.000  
 11  3 22 20 14 15.0000000  0 10G11G12G14G18G19G20G22G24G25G31      
  22173313.453 7       709.753 7  -3701817.178 7  -2853574.08247  22173304.64147
        48.500          33.500  
  25166816.789 5       372.556 5   -968813.662 5  -2230826.80246  25166810.26246
        40.250          20.000  
  21105310.938 7     -1712.319 7   2851548.193 7   2228595.45048  21105301.53948
        48.500          38.500  
  24266818.469 5     -2782.906 5   5710323.466 5   4443651.47146  24266811.64846
        40.500          20.750  
  24734491.883 4     -2669.140 4   5522660.376 4   4296967.70546  24734484.30146
        37.750          22.750  
  25256770.563 4      3212.683 4   -198962.635 4  -1533537.54745  25256762.57045
        37.500          18.250  
  21831046.984 6     -1952.114 6   3461533.235 6   2700563.61648  21831035.94548
        46.500          37.250  
  22177087.359 6      2070.939 6  -6434643.786 6  -4982814.31847  22177079.66047
        47.000          33.500  
  24670150.016 5      1933.883 5   -867054.856 5   -655150.86946  24670147.53146
        40.750          20.000  
  21250329.953 7      2358.360 7  -7213998.266 7  -5567636.99748  21250320.73048
        49.750          40.500  
 11  3 22 20 14 30.0000000  0 10G11G12G14G18G19G20G22G24G25G31      
  22171313.766 7       700.519 7  -3712324.970 7  -2861761.97547  22171304.95347
        49.000          33.000  
  25165776.719 4       364.314 4   -974278.370 4  -2235085.03145  25165769.02045
        38.500          18.250  
  21110209.711 7     -1716.175 7   2877290.816 7   2248654.62348  21110200.31348
        48.000          38.250  
  24274769.109 5     -2785.526 5   5752106.358 5   4476209.50346  24274763.05146
        41.000          20.500  
  24742113.063 3     -2670.247 3   5562714.088 3   4328178.31846  24742106.88746
        37.000          22.500  
  25247597.148 2      3213.353 2   -247162.931 2  -1571096.14445  25247590.50445
        35.500          18.250  
  21836631.461 6     -1956.452 6   3490880.019 6   2723431.21748  21836620.42248
        46.500          36.750  
  22171196.750 6      2063.730 6  -6465599.731 6  -5006935.81048  22171189.46148
        47.000          34.000  
  24664644.594 5      1929.011 5   -895990.020 5   -677697.72446  24664640.82046
        41.250          19.750  
  21243620.273 7      2350.525 7  -7249256.144 7  -5595110.65148  21243611.81348
        49.750          40.750  
 11  3 22 20 14 45.0000000  0 10G11G12G14G18G19G20G22G24G25G31      
  22169340.656 7       691.285 7  -3722694.242 7  -2869841.93147  22169331.31647
        49.000          33.000  
  25164760.375 5       356.062 5   -979619.296 5  -2239246.73745  25164752.03145
        40.500          18.500  
  21115118.977 6     -1720.010 6   2903090.962 6   2268758.62948  21115109.57848
        47.500          38.500  
  24282727.813 5     -2788.132 5   5793928.345 5   4508797.97246  24282721.28546
        41.750          20.000  
  24749737.266 3     -2671.314 3   5602783.800 3   4359401.40746  24749731.85246
        36.250          22.500  
  25238423.383 5      3213.996 5   -295372.866 5  -1608662.20946  25238417.09046
        40.000          19.250  
  21842228.469 6     -1960.797 6   3520291.971 6   2746349.59648  21842217.60548
        46.750          36.250  
  22165326.672 6      2056.511 6  -6496447.390 6  -5030972.93948  22165319.32448
        47.000          35.000  
  24659152.477 5      1924.113 5   -924851.718 5   -700187.32946  24659148.52746
        41.500          20.500  
  21236933.477 7      2342.678 7  -7284396.310 7  -5622492.58248  21236924.60548
        49.750          40.500  
 11  3 22 20 15  0.0000000  0 10G11G12G14G18G19G20G22G24G25G31      
  22167394.203 7       682.056 7  -3732925.080 7  -2877814.01748  22167384.92248
        49.500          34.250  
  25163767.961 5       347.816 5   -984836.535 5  -2243312.08346  25163759.96946
        41.250          19.500  
  21120039.828 7     -1723.817 7   2928948.215 7   2288907.12648  21120030.37148
        48.000          38.750  
  24290693.797 5     -2790.724 5   5835789.200 5   4541416.74246  24290687.79746
        41.250          20.750  
  24757366.352 3     -2672.359 3   5642869.181 3   4390636.68346  24757359.76646
        37.000          21.750  
  25229248.492 5      3214.670 5   -343592.914 5  -1646236.28946  25229241.26246
        41.500          20.500  
  21847837.750 6     -1965.113 6   3549768.670 6   2769318.43148  21847826.47748
        46.500          37.000  
  22159476.992 6      2049.293 6  -6527186.787 6  -5054925.70148  22159470.11348
        46.000          34.500  
  24653673.484 6      1919.212 6   -953639.901 6   -722619.64146  24653670.70746
        42.500          20.500  
  21230268.930 7      2334.824 7  -7319418.672 7  -5649782.71648  21230260.11748
        49.750          40.500  
 11  3 22 20 15 15.0000000  0 10G11G12G14G18G19G20G22G24G25G31      
  22165473.500 7       672.817 7  -3743017.341 7  -2885678.11648  22165464.51248
        48.250          34.000  
  25162798.000 5       339.554 5   -989929.844 5  -2247280.89046  25162790.59446
        40.000          19.500  
  21124970.648 6     -1727.618 6   2954862.479 6   2309100.05448  21124961.54348
        46.750          38.500  
  24298667.422 5     -2793.320 5   5877688.999 5   4574065.90046  24298660.83646
        41.250          20.500  
  24764996.570 3     -2673.382 3   5682969.918 3   4421883.98146  24764990.80546
        36.750          22.250  
  25220071.781 5      3215.344 5   -391823.079 5  -1683818.12645  25220062.96945
        40.000          17.250  
  21853459.031 6     -1969.434 6   3579310.177 6   2792337.76048  21853448.28548
        47.000          36.750  
  22153648.055 6      2042.041 6  -6557817.395 6  -5078793.69248  22153640.64848
        47.250          34.000  
  24648209.250 6      1914.274 6   -982354.005 6   -744994.21346  24648206.53146
        42.500          21.000  
  21223626.867 7      2326.939 7  -7354322.752 7  -5676980.67848  21223618.05548
        48.750          40.500  
 11  3 22 20 15 30.0000000  0 10G11G12G14G18G19G20G22G24G25G31      
  22163579.484 7       663.574 7  -3752970.945 7  -2893434.17048  22163570.67248
        49.250          34.500  
  25161851.586 4       331.263 4   -994898.794 4  -2251152.83046  25161846.17246
        38.500          19.750  
  21129913.102 6     -1731.416 6   2980833.711 6   2329337.37248  21129903.82048
        47.500          38.500  
  24306648.313 5     -2795.919 5   5919627.791 5   4606745.39046  24306641.84446
        41.000          20.000  
  24772630.336 3     -2674.382 3   5723085.643 3   4453142.89146  24772624.57046
        36.500          22.250  
  25210890.313 3      3215.981 3   -440062.794 3  -1721407.64645  25210882.49645
        36.750          15.500  
  21859092.797 6     -1973.766 6   3608916.672 6   2815407.73748  21859081.93448
        46.250          36.750  
  22147840.063 6      2034.764 6  -6588338.855 6  -5102576.63748  22147832.42248
        47.000          34.250  
  24642759.422 5      1909.312 5  -1010993.687 5   -767310.81446  24642756.46946
        41.500          21.250  
  21217007.375 7      2319.035 7  -7389108.282 7  -5704086.26948  21216998.44548
        49.250          40.500  
 11  3 22 20 15 45.0000000  0 10G11G12G14G18G19G20G22G24G25G31      
  22161711.664 7       654.308 7  -3762785.558 7  -2901081.92748  22161702.73448
        49.500          34.500  
  25160930.227 5       322.959 5   -999743.174 5  -2254927.68846  25160924.69546
        39.750          20.500  
  21134865.867 6     -1735.220 6   3006862.014 6   2349619.15948  21134856.87948
        47.500          38.000  
  24314636.117 5     -2798.530 5   5961605.743 5   4639455.45446  24314630.00046
        41.250          19.500  
  24780266.906 3     -2675.373 3   5763216.235 3   4484413.45046  24780261.31646
        36.750          22.000  
  25201709.469 5      3216.595 5   -488311.720 5  -1759004.13545  25201702.12145
        40.500          17.750  
  21864739.633 7     -1978.115 7   3638588.393 7   2838528.53448  21864728.77048
        48.500          36.750  
  22142053.289 6      2027.451 6  -6618750.623 6  -5126274.10548  22142045.59048
        46.750          34.250  
  24637324.141 5      1904.307 5  -1039558.295 5   -789568.89446  24637320.89546
        41.750          21.750  
  21210410.156 7      2311.097 7  -7423774.737 7  -5731099.07548  21210401.57848
        49.000          41.250  
 11  3 22 20 16  0.0000000  0 10G11G12G14G18G19G20G22G24G25G31      
  22159870.297 7       645.034 7  -3772461.068 7  -2908621.28148  22159861.54348
        48.750          34.250  
  25160032.242 5       314.658 5  -1004463.042 5  -2258605.51546  25160026.30146
        40.000          20.500  
  21139829.914 6     -1739.006 6   3032947.099 6   2369945.19748  21139820.57448
        47.000          38.250  
  24322632.008 5     -2801.124 5   6003622.598 5   4672195.83546  24322625.18846
        41.000          19.000  
  24787906.953 3     -2676.342 3   5803361.363 3   4515695.27146  24787901.42246
        37.000          22.750  
  25192525.719 3      3217.220 3   -536570.015 3  -1796607.89645  25192519.25045
        36.000          16.750  
  21870398.172 6     -1982.452 6   3668325.167 6   2861700.02048  21870387.66048
        47.500          36.500  
  22136286.852 6      2020.132 6  -6649052.598 6  -5149886.02648  22136279.38748
        47.000          34.250  
  24631903.203 6      1899.281 6  -1068047.508 6   -811768.23246  24631899.13746
        42.500          22.250  
  21203836.391 7      2303.138 7  -7458321.805 7  -5758018.84948  21203827.57848
        49.500          41.250  
 11  3 22 20 16 15.0000000  0 10G11G12G14G18G19G20G22G24G25G31      
  22158055.570 7       635.843 7  -3781998.721 7  -2916053.21747  22158046.64147
        48.750          33.500  
  25159157.531 5       306.422 5  -1009059.372 5  -2262187.05145  25159150.18445
        40.750          18.500  
  21144803.945 7     -1742.698 7   3059087.569 7   2390314.38448  21144794.95748
        47.750          38.750  
  24330634.727 5     -2803.649 5   6045677.335 5   4704965.68245  24330627.67245
        40.500          18.250  
  24795549.250 4     -2677.201 4   5843519.373 4   4546987.15646  24795542.78146
        38.500          22.000  
  25183339.453 1      3217.911 1   -584838.675 1  -1834219.91745  25183333.10245
        33.500          16.250  
  21876069.141 7     -1986.714 7   3698125.880 7   2884921.33448  21876058.27748
        48.250          36.750  
  22130540.727 6      2012.872 6  -6679245.683 6  -5173413.09148  22130533.90648
        47.000          34.500  
  24626495.750 6      1894.314 6  -1096462.213 6   -833909.50246  24626492.50446
        42.750          22.000  
  21197285.219 7      2295.247 7  -7492750.507 7  -5784846.38748  21197275.99648
        49.500          40.750  
 11  3 22 20 16 30.0000000  0 10G11G12G14G18G19G20G22G24G25G31      
  22156267.023 7       626.546 7  -3791396.913 7  -2923376.48647  22156258.09447
        49.000          33.500  
  25158307.289 5       298.070 5  -1013530.425 5  -2265670.98446  25158299.00446
        40.500          19.000  
  21149789.367 6     -1746.474 6   3085284.676 6   2410727.70648  21149779.91048
        46.500          38.250  
  24338644.797 5     -2806.277 5   6087771.485 5   4737766.27745  24338637.85945
        40.750          18.500  
  24803194.531 4     -2678.144 4   5883691.539 4   4578290.07446  24803187.18446
        39.000          23.000  
  25174153.813 4      3218.470 4   -633115.721 4  -1871838.37045  25174146.11345
        39.000          18.250  
  21881752.211 6     -1991.078 6   3727992.050 6   2908193.64748  21881741.75848
        47.500          36.500  
  22124816.664 6      2005.493 6  -6709328.082 6  -5196853.91148  22124809.02348
        47.250          34.250  
  24621102.820 6      1889.219 6  -1124800.498 6   -855991.20446  24621099.10546
        42.750          22.500  
  21190756.227 7      2287.240 7  -7527059.113 7  -5811580.34648  21190747.41448
        48.500          41.000  
 11  3 22 20 16 45.0000000  0 10G11G12G14G18G19G20G22G24G25G31      
  22154505.000 7       617.259 7  -3800655.800 7  -2930591.20447  22154496.30547
        49.250          33.250  
  25157479.922 5       289.716 5  -1017876.165 5  -2269057.26546  25157472.57446
        40.000          19.250  
  21154785.602 6     -1750.238 6   3111538.241 6   2431185.02448  21154776.14548
        47.250          38.000  
  24346662.234 5     -2808.876 5   6129904.621 5   4770597.22845  24346655.94145
        40.500          18.250  
  24810839.695 4     -2679.046 4   5923877.234 4   4609603.55646  24810834.51646
        38.250          22.500  
  25164965.016 3      3219.064 3   -681401.684 3  -1909463.69746  25164958.02046
        36.500          20.000  
  21887448.570 6     -1995.429 6   3757923.479 6   2931516.81948  21887437.70748
        47.500          36.000  
  22119112.773 7      1998.111 7  -6739299.748 7  -5220208.44648  22119106.12948
        48.000          33.750  
  24615724.852 6      1884.113 6  -1153062.199 6   -878013.24146  24615721.48846
        42.500          22.750  
  21184250.609 7      2279.221 7  -7561247.431 7  -5838220.57348  21184241.68048
        49.000          40.500  
 11  3 22 20 17  0.0000000  0 10G11G12G14G18G19G20G22G24G25G31      
  22152769.836 7       608.012 7  -3809775.975 7  -2937697.83748  22152760.78948
        49.000          34.000  
  25156675.609 4       281.409 4  -1022097.295 4  -2272346.44045  25156670.25445
        38.750          18.500  
  21159791.695 6     -1753.938 6   3137847.306 6   2451685.58548  21159782.29748
        47.500          38.000  
  24354687.523 5     -2811.434 5   6172076.136 5   4803458.09245  24354680.82045
        41.000          18.250  
  24818490.445 4     -2679.881 4   5964075.452 4   4640926.81446  24818483.50846
        38.750          22.500  
  25155774.391 3      3219.687 3   -729696.990 3  -1947096.37945  25155767.45345
        35.750          17.750  
  21893156.094 6     -1999.733 6   3787919.470 6   2954890.29648  21893145.58248
        47.500          36.250  
  22113430.680 6      1990.754 6  -6769161.060 6  -5243476.98948  22113423.56648
        47.500          34.500  
  24610361.547 6      1879.032 6  -1181247.673 6   -899975.89546  24610357.83246
        42.750          22.750  
  21177767.469 7      2271.227 7  -7595315.832 7  -5864767.36048  21177758.59848
        49.000          40.750  
 11  3 22 20 17 15.0000000  0 10G11G12G14G18G19G20G22G24G25G31      
  22151060.695 7       598.731 7  -3818756.946 7  -2944696.00548  22151052.00048
        48.500          34.000  
  25155897.805 5       273.061 5  -1026193.216 5  -2275538.07946  25155891.04346
        40.000          20.500  
  21164809.203 6     -1757.647 6   3164212.018 6   2472229.51748  21164799.74648
        47.250          38.000  
  24362720.695 5     -2814.020 5   6214286.443 5   4836349.17346  24362713.69946
        40.250          19.500  
  24826142.938 5     -2680.719 5   6004286.239 5   4672259.78146  24826136.17646
        39.500          22.500  
  25146581.633 3      3220.268 3   -778001.003 3  -1984735.84946  25146575.45746
        36.750          19.000  
  21898876.500 6     -2004.064 6   3817980.437 6   2978314.39848  21898865.98848
        46.500          36.750  
  22107769.617 6      1983.358 6  -6798911.423 6  -5266659.08948  22107761.97748
        46.750          34.250  
  24605012.719 6      1873.897 6  -1209356.125 6   -921878.51446  24605009.53146
        42.500          22.750  
  21171307.078 7      2263.193 7  -7629263.735 7  -5891220.25148  21171298.32448
        49.000          40.750  
 11  3 22 20 17 30.0000000  0 10G11G12G14G18G19G20G22G24G25G31      
  22149377.805 7       589.462 7  -3827598.876 7  -2951585.81748  22149369.10948
        48.750          34.000  
  25155142.148 5       264.722 5  -1030164.039 5  -2278632.21546  25155134.85946
        40.250          20.500  
  21169836.430 7     -1761.341 7   3190632.137 7   2492816.61748  21169826.85548
        48.000          38.000  
  24370759.555 5     -2816.579 5   6256535.121 5   4869270.14846  24370753.32046
        39.500          19.500  
  24833796.414 5     -2681.520 5   6044509.035 5   4703602.15746  24833790.29746
        40.000          22.500  
  25137388.031 2      3220.851 2   -826313.774 2  -2022382.21446  25137382.09046
        34.750          20.500  
  21904609.328 6     -2008.383 6   3848106.185 6   3001788.98948  21904598.75848
        47.500          36.750  
  22102129.406 6      1975.953 6  -6828550.712 6  -5289754.63548  22102121.76648
        45.500          34.000  
  24599678.031 6      1868.751 6  -1237387.389 6   -943720.99546  24599674.43446
        43.000          22.750  
  21164870.336 7      2255.148 7  -7663090.957 7  -5917579.10748  21164861.40648
        50.500          40.250  
 11  3 22 20 17 45.0000000  0 10G11G12G14G18G19G20G22G24G25G31      
  22147722.211 7       580.167 7  -3836301.376 7  -2958366.98948  22147712.75448
        48.750          34.250  
  25154409.742 5       256.339 5  -1034009.130 5  -2281628.37146  25154403.50846
        39.750          20.500  
  21174874.828 7     -1765.052 7   3217107.922 7   2513447.08848  21174865.31348
        49.000          38.500  
  24378807.000 5     -2819.174 5   6298822.727 5   4902221.47446  24378800.53146
        40.500          19.750  
  24841452.063 4     -2682.330 4   6084743.989 4   4734954.02646  24841445.94546
        38.750          22.000  
  25128192.531 1      3221.413 1   -874634.964 1  -2060034.92646  25128186.47346
        33.750          19.000  
  21910354.391 7     -2012.726 7   3878297.076 7   3025314.33748  21910343.46948
        47.750          36.250  
  22096510.703 6      1968.500 6  -6858078.214 6  -5312763.06548  22096503.35548
        47.500          34.250  
  24594358.555 6      1863.552 6  -1265340.675 6   -965502.70946  24594355.30946
        42.750          22.500  
  21158455.906 7      2247.071 7  -7696797.017 7  -5943843.54648  21158447.21148
        50.250          40.750  
 11  3 22 20 18  0.0000000  0 10G11G12G14G18G19G20G22G24G25G31      
  22146092.359 7       570.907 7  -3844864.987 7  -2965039.93748  22146083.48848
        49.500          34.000  
  25153702.492 5       248.000 5  -1037729.137 5  -2284527.06146  25153695.32046
        41.250          20.250  
  21179923.031 7     -1768.703 7   3243638.463 7   2534120.23248  21179914.10248
        48.000          38.500  
  24386861.539 5     -2821.702 5   6341148.257 5   4935202.35246  24386855.18846
        39.750          21.500  
  24849110.500 5     -2683.064 5   6124989.942 5   4766314.43146  24849105.20346
        40.500          22.500  
  25118996.461 3      3222.014 3   -922965.179 3  -2097694.88245  25118989.58245
        36.750          17.250  
  21916112.023 6     -2017.037 6   3908552.625 6   3048890.05748  21916100.92648
        46.250          36.000  
  22090912.914 6      1961.078 6  -6887494.385 6  -5335684.74748  22090905.50848
        46.000          34.500  
  24589054.172 6      1858.380 6  -1293216.373 6   -987223.97846  24589050.69146
        43.000          23.750  
  21152065.227 7      2239.005 7  -7730382.091 7  -5970013.71048  21152056.35548
        50.250          40.750  
 11  3 22 20 18 15.0000000  0 10G11G12G14G18G19G20G22G24G25G31      
  22144489.141 7       561.630 7  -3853289.434 7  -2971604.44148  22144480.38748
        49.000          33.750  
  25153017.563 5       239.619 5  -1041323.421 5  -2287327.78346  25153011.15246
        40.500          20.000  
  21184982.297 7     -1772.359 7   3270223.845 7   2554836.10648  21184973.25048
        49.000          38.000  
  24394922.844 4     -2824.258 4   6383512.128 4   4968213.07746  24394916.60946
        39.000          21.250  
  24856773.281 6     -2683.809 6   6165247.071 6   4797683.54646  24856765.64146
        43.000          23.000  
  25109797.531 2      3222.566 2   -971303.670 2  -2135361.13345  25109790.35945
        34.750          17.750  
  21921882.133 6     -2021.354 6   3938872.937 6   3072516.25348  21921871.38748
        46.500          36.500  
  22085336.758 6      1953.608 6  -6916798.501 6  -5358519.11348  22085328.64848
        46.250          34.000  
  24583764.773 6      1853.153 6  -1321013.671 6  -1008884.15946  24583760.64846
        43.750          24.500  
  21145697.070 7      2230.898 7  -7763845.558 7  -5996089.11849  21145688.49249
        50.500          41.500  
 11  3 22 20 18 30.0000000  0 10G11G12G14G18G19G20G22G24G25G31      
  22142912.570 7       552.336 7  -3861574.480 7  -2978060.33248  22142903.75848
        49.000          34.000  
  25152357.383 5       231.234 5  -1044791.933 5  -2290030.50146  25152350.91446
        39.750          19.000  
  21190051.578 7     -1776.017 7   3296864.103 7   2575594.74648  21190042.47348
        49.000          38.250  
  24402992.102 4     -2826.823 4   6425914.473 4   5001253.81846  24402985.98446
        38.500          21.250  
  24864435.211 5     -2684.530 5   6205515.018 5   4829061.11946  24864428.27346
        41.500          22.750  
  25100597.313 3      3223.107 3  -1019650.276 3  -2173033.80446  25100590.72746
        36.250          19.750  
  21927664.156 6     -2025.676 6   3969258.078 6   3096192.96548  21927653.29348
        46.750          36.500  
  22079781.375 6      1946.114 6  -6945990.214 6  -5381265.89048  22079773.14848
        45.750          34.250  
  24578489.570 6      1847.902 6  -1348732.201 6  -1030482.95346  24578486.09046
        44.000          25.750  
  21139352.258 7      2222.775 7  -7797187.177 7  -6022069.57948  21139343.68048
        50.250          41.250  
 11  3 22 20 18 45.0000000  0 10G11G12G14G18G19G20G22G24G25G31      
  22141362.820 7       543.045 7  -3869720.149 7  -2984407.59848  22141353.59848
        49.500          34.000  
  25151721.906 5       222.848 5  -1048134.646 5  -2292635.18546  25151714.85246
        40.250          19.250  
  21195131.508 7     -1779.653 7   3323558.891 7   2596395.86948  21195122.52048
        48.250          38.250  
  24411068.258 4     -2829.366 4   6468354.969 4   5034324.27846  24411061.67246
        38.250          20.250  
  24872099.930 5     -2685.211 5   6245793.180 5   4860446.62146  24872093.87146
        42.000          23.500  
  25091396.352 4      3223.649 4  -1068005.004 4  -2210712.80746  25091389.64846
        37.750          21.250  
  21933458.398 6     -2029.996 6   3999708.023 6   3119920.17348  21933448.06348
        46.500          37.250  
  22074247.898 6      1938.621 6  -6975069.529 6  -5403925.08948  22074240.37548
        47.000          34.750  
  24573230.383 6      1842.637 6  -1376371.761 6  -1052020.20046  24573226.31646
        44.000          25.500  
  21133030.898 7      2214.636 7  -7830406.722 7  -6047954.91348  21133022.20348
        50.000          41.000  
 11  3 22 20 19  0.0000000  0 10G11G12G14G18G19G20G22G24G25G31      
  22139839.023 7       533.774 7  -3877726.759 7  -2990646.52648  22139830.38748
        49.250          34.250  
  25151109.664 5       214.477 5  -1051351.797 5  -2295142.08546  25151102.90246
        40.250          21.000  
  21200221.773 7     -1783.242 7   3350307.520 7   2617238.94548  21200212.43448
        48.250          38.000  
  24419151.258 4     -2831.882 4   6510833.197 4   5067424.14646  24419145.49246
        38.750          21.500  
  24879765.969 5     -2685.853 5   6286080.971 5   4891839.64246  24879760.49646
        41.500          22.750  
  25082192.992 4      3224.214 4  -1116368.212 4  -2248398.37846  25082186.46546
        37.500          19.500  
  21939264.992 6     -2034.283 6   4030222.265 6   3143697.47348  21939254.18848
        45.500          36.500  
  22068735.234 6      1931.131 6  -7004036.488 6  -5426496.73848  22068727.94548
        45.500          34.000  
  24567985.484 6      1837.371 6  -1403932.331 6  -1073495.92546  24567981.59446
        44.500          24.000  
  21126732.563 7      2206.514 7  -7863504.435 7  -6073745.31848  21126723.92648
        48.750          40.750  
 11  3 22 20 19 15.0000000  0 10G11G12G14G18G19G20G22G24G25G31      
  22138342.242 7       524.445 7  -3885593.430 7  -2996776.39948  22138333.37148
        48.500          34.000  
  25150521.844 5       206.047 5  -1054442.508 5  -2297550.41446  25150515.08246
        41.500          21.000  
  21205322.109 6     -1786.882 6   3377110.756 6   2638124.57548  21205312.71148
        47.250          37.750  
  24427242.742 4     -2834.457 4   6553350.051 4   5100554.10446  24427235.68846
        37.500          20.500  
  24887434.852 6     -2686.523 6   6326378.822 6   4923240.48746  24887428.20746
        42.500          22.000  
  25072989.305 3      3224.721 3  -1164739.030 3  -2286089.92546  25072981.48846
        36.750          22.500  
  21945084.250 6     -2038.637 6   4060801.826 6   3167525.67648  21945073.56348
        46.750          36.500  
  22063244.625 6      1923.568 6  -7032890.012 6  -5448979.99748  22063237.33648
        46.000          34.250  
  24562755.656 6      1832.028 6  -1431412.752 6  -1094909.19346  24562752.46946
        43.750          24.500  
  21120457.547 7      2198.316 7  -7896479.182 7  -6099439.90248  21120448.73448
        49.000          41.250  
 11  3 22 20 19 30.0000000  0 10G11G12G14G18G19G20G22G24G25G31      
  22136871.547 7       515.189 7  -3893321.262 7  -3002798.08848  22136862.50048
        48.500          34.250  
  25149957.914 5       197.661 5  -1057407.423 5  -2299860.73846  25149950.74246
        40.500          20.750  
  21210432.734 6     -1790.441 6   3403967.378 6   2659051.80448  21210423.33648
        46.750          37.250  
  24435340.297 4     -2836.963 4   6595904.494 4   5133713.34946  24435333.12546
        38.000          20.500  
  24895105.141 5     -2687.108 5   6366685.439 5   4954648.22446  24895098.08646
        42.250          22.250  
  25063782.844 2      3225.274 2  -1213118.134 2  -2323787.91146  25063775.26246
        34.500          20.250  
  21950915.445 6     -2042.921 6   4091445.639 6   3191403.94948  21950904.93448
        45.500          35.500  
  22057775.336 6      1916.054 6  -7061630.829 6  -5471375.42648  22057767.93048
        46.000          34.500  
  24557541.852 6      1826.724 6  -1458813.606 6  -1116260.46446  24557537.90246
        44.000          25.500  
  21114206.188 7      2190.165 7  -7929331.656 7  -6125039.21648  21114197.55148
        48.000          40.750  
 11  3 22 20 19 45.0000000  0 10G11G12G14G18G19G20G22G24G25G31      
  22135427.531 7       505.887 7  -3900909.573 7  -3008711.05948  22135418.71948
        48.750          33.750  
  25149416.328 5       189.231 5  -1060245.892 5  -2302072.53746  25149409.85946
        40.000          20.000  
  21215553.742 6     -1794.029 6   3430877.815 6   2680020.96648  21215544.22748
        46.500          37.500  
  24443444.688 3     -2839.501 3   6638497.002 3   5166902.29546  24443438.62946
        37.000          19.250  
  24902777.164 6     -2687.705 6   6407001.014 6   4986062.85846  24902770.57846
        43.000          22.500  
  25054574.414 3      3225.798 3  -1261505.107 3  -2361492.00545  25054567.18445
        36.500          18.250  
  21956759.750 6     -2047.243 6   4122154.283 6   3215332.73448  21956748.53548
        45.750          36.000  
  22052327.875 6      1908.489 6  -7090258.165 6  -5493682.42748  22052320.93848
        47.000          34.500  
  24552343.266 6      1821.363 6  -1486134.052 6  -1137549.06846  24552338.96546
        44.750          25.250  
  21107977.852 7      2181.955 7  -7962060.987 7  -6150542.56348  21107969.39148
        48.500          41.000  
 11  3 22 20 20  0.0000000  0 10G11G12G14G18G19G20G22G24G25G31      
  22134009.805 7       496.570 7  -3908358.117 7  -3014515.12047  22134001.28547
        49.000          33.500  
  25148900.164 4       180.793 4  -1062957.784 4  -2304185.70246  25148893.98846
        39.000          19.000  
  21220684.727 7     -1797.613 7   3457842.015 7   2701032.02348  21220675.73848
        48.000          37.500  
  24451557.492 4     -2842.042 4   6681127.636 4   5200120.92746  24451550.73046
        37.750          19.500  
  24910449.820 5     -2688.289 5   6447325.345 5   5017484.36546  24910443.29346
        42.000          21.500  
  25045364.063 2      3226.285 2  -1309899.386 2  -2399201.79146  25045358.35546
        34.000          19.500  
  21962615.406 6     -2051.565 6   4152927.756 6   3239312.04348  21962604.66048
        45.750          36.750  
  22046901.977 6      1900.896 6  -7118771.600 6  -5515900.68148  22046894.45348
        45.750          34.750  
  24547159.539 6      1815.962 6  -1513373.481 6  -1158774.55346  24547155.76646
        44.750          26.000  
  21101773.047 7      2173.713 7  -7994666.684 7  -6175949.57648  21101764.52748
        49.250          40.750  
 11  3 22 20 20 15.0000000  0 10G11G12G14G18G19G20G22G24G25G31      
  22132618.961 7       487.247 7  -3915666.829 7  -3020210.21947  22132610.20747
        49.000          33.250  
  25148409.930 5       172.359 5  -1065543.175 5  -2306200.30946  25148401.70346
        41.250          20.000  
  21225826.094 6     -1801.179 6   3484859.703 6   2722084.75648  21225816.98848
        46.250          37.500  
  24459677.391 4     -2844.571 4   6723796.205 4   5233369.10146  24459670.80546
        37.500          20.000  
  24918125.703 6     -2688.835 6   6487657.872 6   5048912.23446  24918119.17646
        42.500          21.750  
  25036150.625 1      3226.791 1  -1358301.245 1  -2436917.47445  25036147.84845
        31.000          18.250  
  21968483.586 6     -2055.889 6   4183766.095 6   3263341.88648  21968472.95748
        47.250          36.750  
  22041497.633 6      1893.291 6  -7147170.958 6  -5538030.03948  22041490.34448
        46.750          35.000  
  24541990.836 6      1810.547 6  -1540531.692 6  -1179936.75546  24541987.41446
        44.250          26.250  
  21095591.961 7      2165.467 7  -8027148.685 7  -6201260.20348  21095583.26648
        48.000          40.500  
 11  3 22 20 20 30.0000000  0 10G11G12G14G18G19G20G22G24G25G31      
  22131254.914 7       477.962 7  -3922836.254 7  -3025796.78648  22131246.16048
        49.250          33.750  
  25147941.375 4       163.940 4  -1068002.274 4  -2308116.51646  25147934.43846
        39.000          21.500  
  21230977.516 6     -1804.711 6   3511930.365 6   2743178.76448  21230968.17648
        46.750          37.500  
  24467803.539 3     -2847.079 3   6766502.386 3   5266646.62746  24467797.65646
        36.250          19.500  
  24925801.281 5     -2689.338 5   6527997.944 5   5080346.02946  24925795.10546
        42.000          22.250  
  25026943.508 4      3227.283 4  -1406710.488 4  -2474638.95046  25026935.28146
        38.500          19.250  
  21974364.117 7     -2060.184 7   4214668.854 7   3287421.92748  21974353.72348
        47.750          36.000  
  22036115.570 6      1885.696 6  -7175456.393 6  -5560070.62948  22036107.93048
        47.250          35.500  
  24536838.570 6      1805.138 6  -1567608.763 6  -1201035.73447  24536834.91447
        44.500          26.750  
  21089434.664 7      2157.234 7  -8059507.194 7  -6226474.60649  21089425.44149
        48.250          41.500  
 11  3 22 20 20 45.0000000  0 10G11G12G14G18G19G20G22G24G25G31      
  22129917.211 7       468.673 7  -3929866.354 7  -3031274.79148  22129907.75448
        48.500          34.000  
  25147497.047 5       155.509 5  -1070334.907 5  -2309934.16246  25147490.93046
        40.750          21.250  
  21236139.055 6     -1808.231 6   3539053.836 6   2764313.92648  21236129.53948
        47.000          37.750  
  24475937.344 3     -2849.575 3   6809246.009 3   5299953.28946  24475931.05146
        36.000          19.250  
  24933480.406 6     -2689.824 6   6568345.301 6   5111785.46746  24933473.00046
        43.000          22.000  
  25017731.461 4      3227.781 4  -1455127.205 4  -2512366.25546  25017721.71146
        38.000          19.750  
  21980257.234 6     -2064.473 6   4245635.955 6   3311552.11948  21980246.60548
        47.000          36.500  
  22030754.688 6      1878.080 6  -7203627.592 6  -5582022.20048  22030747.28148
        47.000          34.750  
  24531701.773 6      1799.704 6  -1594604.329 6  -1222071.19846  24531697.94146
        44.500          26.250  
  21083300.148 7      2148.982 7  -8091741.920 7  -6251592.55048  21083291.57048
        49.000          40.750  
 11  3 22 20 21  0.0000000  0 10G11G12G14G18G19G20G22G24G25G31      
  22128605.719 7       459.407 7  -3936757.459 7  -3036644.48048  22128596.78948
        48.500          33.750  
  25147077.461 5       147.095 5  -1072541.338 5  -2311653.49546  25147070.28946
        39.750          21.500  
  21241310.227 6     -1811.708 6   3566229.454 6   2785489.72348  21241300.82848
        46.750          38.000  
  24484078.000 3     -2852.041 3   6852026.619 3   5333288.81546  24484072.46946
        36.000          19.500  
  24941159.008 5     -2690.253 5   6608699.095 5   5143229.91846  24941152.53946
        42.000          22.500  
  25008516.078 5      3228.302 5  -1503551.733 5  -2550099.55146  25008507.38346
        40.750          19.750  
  21986162.305 6     -2068.747 6   4276667.167 6   3335732.25848  21986151.61748
        47.500          36.750  
  22025415.117 6      1870.475 6  -7231684.711 6  -5603884.87248  22025408.12148
        47.250          34.750  
  24526580.039 6      1794.271 6  -1621518.401 6  -1243043.15146  24526576.50046
        44.000          26.000  
  21077189.844 7      2140.736 7  -8123852.961 7  -6276614.11848  21077180.91448
        48.000          41.000  
 11  3 22 20 21 15.0000000  0 10G11G12G14G18G19G20G22G24G25G31      
  22127321.461 7       450.048 7  -3943508.185 7  -3041904.78848  22127312.23848
        49.000          34.250  
  25146681.219 5       138.577 5  -1074619.999 5  -2313273.26346  25146675.16046
        39.250          21.250  
  21246491.758 6     -1815.278 6   3593458.619 6   2806707.24748  21246482.59448
        47.000          38.000  
  24492226.938 2     -2854.604 2   6894845.672 2   5366654.24946  24492220.87946
        35.250          19.250  
  24948839.695 5     -2690.757 5   6649060.449 5   5174680.21546  24948833.75446
        42.000          21.750  
  24999297.047 1      3228.719 1  -1551982.521 1  -2587837.91446  24999291.69146
        33.500          19.500  
  21992079.664 6     -2073.108 6   4307763.790 6   3359963.37048  21992068.80148
        47.250          36.250  
  22020098.227 7      1862.756 7  -7259626.048 7  -5625657.33248  22020091.05548
        47.750          35.000  
  24521474.516 6      1788.723 6  -1648349.245 6  -1263950.26546  24521470.50846
        44.500          25.250  
  21071102.859 7      2132.380 7  -8155838.665 7  -6301538.02848  21071094.63348
        48.500          41.250  
 11  3 22 20 21 30.0000000  0 10G11G12G14G18G19G20G22G24G25G31      
  22126063.680 7       440.707 7  -3950118.784 7  -3047055.90048  22126054.63348
        49.500          34.000  
  25146310.484 5       130.099 5  -1076571.489 5  -2314793.86446  25146303.48846
        40.250          20.250  
  21251683.578 7     -1818.803 7   3620740.659 7   2827965.96448  21251674.06348
        47.750          37.750  
  24500382.789 2     -2857.129 2   6937702.606 2   5400049.19546  24500376.61346
        34.500          19.500  
  24956520.820 5     -2691.205 5   6689428.524 5   5206135.85646  24956514.82046
        42.000          21.500  
  24990081.133 4      3229.162 4  -1600419.958 4  -2625581.24646  24990074.48846
        37.500          19.500  
  21998009.805 6     -2077.437 6   4338925.338 6   3384245.07048  21997998.64848
        47.500          36.500  
  22014802.945 6      1855.050 6  -7287451.793 6  -5647339.71748  22014795.24648
        47.500          35.000  
  24516384.430 6      1783.177 6  -1675096.902 6  -1284792.56646  24516380.36346
        44.750          24.500  
  21065040.078 7      2124.041 7  -8187699.284 7  -6326364.45749  21065031.55949
        50.000          41.500  
 11  3 22 20 21 45.0000000  0 10G11G12G14G18G19G20G22G24G25G31      
  22124831.883 7       431.442 7  -3956590.408 7  -3052098.72348  22124822.77748
        48.750          34.500  
  25145963.625 5       121.662 5  -1078396.417 5  -2316215.94346  25145956.10246
        41.500          20.500  
  21256884.773 6     -1822.239 6   3648074.251 6   2849264.85448  21256875.72748
        46.750          37.250  
  24508545.172 2     -2859.580 2   6980596.312 2   5433472.77246  24508538.52746
        34.250          19.750  
  24964203.930 5     -2691.558 5   6729801.894 5   5237595.52946  24964198.34046
        41.500          22.250  
  24980859.852 1      3229.653 1  -1648864.760 1  -2663330.43645  24980855.43445
        32.000          17.750  
  22003951.789 6     -2081.691 6   4370150.708 6   3408576.50848  22003941.10248
        47.500          36.250  
  22009529.602 7      1847.400 7  -7315162.786 7  -5668932.69048  22009522.07848
        48.250          35.500  
  24511310.031 6      1777.684 6  -1701762.159 6  -1305570.63546  24511306.08246
        43.500          24.000  
  21059001.039 7      2115.750 7  -8219435.534 7  -6351093.98348  21058992.10948
        48.500          40.750  
 11  3 22 20 22  0.0000000  0 10G11G12G14G18G19G20G22G24G25G31      
  22123627.000 7       422.112 7  -3962922.082 7  -3057032.49747  22123617.48447
        48.500          33.250  
  25145640.297 5       113.163 5  -1080093.862 5  -2317538.67446  25145632.53946
        40.750          20.000  
  21262095.773 7     -1825.730 7   3675460.208 7   2870604.55448  21262087.37148
        47.750          37.250  
  24516714.188 2     -2862.084 2   7023527.566 2   5466925.67446  24516707.89546
        34.500          19.750  
  24971888.711 6     -2691.957 6   6770181.246 6   5269059.91546  24971881.18846
        42.500          21.750  
  24971642.922 3      3230.077 3  -1697315.907 3  -2701084.49146  24971635.16446
        37.000          19.000  
  22009905.969 7     -2086.010 7   4401440.861 7   3432958.42148  22009895.75048
        49.250          36.000  
  22004278.961 7      1839.666 7  -7342757.777 7  -5690435.26448  22004271.26248
        48.250          35.250  
  24506251.750 6      1772.097 6  -1728343.614 6  -1326283.40646  24506247.80146
        43.750          22.750  
  21052985.594 7      2107.375 7  -8251046.154 7  -6375725.60548  21052976.60548
        50.000          41.000  
 11  3 22 20 22 15.0000000  0 10G11G12G14G18G19G20G22G24G25G31      
  22122448.453 7       412.814 7  -3969114.284 7  -3061857.59248  22122439.87548
        48.500          33.750  
  25145341.852 5       104.699 5  -1081664.343 5  -2318762.41746  25145334.56346
        40.000          21.500  
  21267317.539 7     -1829.180 7   3702897.914 7   2891984.56948  21267308.02348
        48.500          37.250  
  24524891.000 2     -2864.562 2   7066496.002 2   5500407.52546  24524884.76646
        34.000          19.750  
  24979572.352 5     -2692.298 5   6810565.722 5   5300528.27746  24979566.00046
        41.000          21.500  
  24962422.172 3      3230.530 3  -1745773.861 3  -2738843.86746  24962414.23846
        37.000          20.500  
  22015872.805 7     -2090.306 7   4432795.453 7   3457390.54448  22015861.76648
        48.500          36.250  
  21999049.758 7      1831.947 7  -7370236.981 7  -5711847.62048  21999042.35248
        48.250          35.500  
  24501208.609 6      1766.527 6  -1754841.520 6  -1346931.08046  24501205.65646
        43.500          24.250  
  21046994.102 7      2099.022 7  -8282531.482 7  -6400259.60748  21046984.87948
        50.000          41.000  
 11  3 22 20 22 30.0000000  0 10G11G12G14G18G19G20G22G24G25G31      
  22121296.867 7       403.519 7  -3975167.073 7  -3066574.06048  22121287.70348
        48.250          33.750  
  25145066.953 5        96.225 5  -1083107.719 5  -2319887.19346  25145061.24646
        40.500          21.500  
  21272548.438 7     -1832.603 7   3730386.956 7   2913404.58048  21272539.15648
        48.750          37.000  
  24533075.117 2     -2867.023 2   7109501.345 2   5533918.12446  24533069.05946
        34.750          20.500  
  24987258.750 5     -2692.595 5   6850954.644 5   5332000.09646  24987253.16046
        42.000          22.500  
  24953199.070 5      3230.982 5  -1794238.587 5  -2776608.53246  24953191.66446
        39.750          20.000  
  22021851.344 7     -2094.583 7   4464214.198 7   3481872.64648  22021840.71548
        48.500          36.000  
  21993842.313 7      1824.227 7  -7397600.380 7  -5733169.74648  21993834.90648
        49.000          34.500  
  24496182.961 6      1760.940 6  -1781255.625 6  -1367513.45146  24496178.95346
        44.500          24.500  
  21041026.727 7      2090.659 7  -8313891.373 7  -6424695.86448  21041017.73848
        50.000          40.750  
 11  3 22 20 22 45.0000000  0 10G11G12G14G18G19G20G22G24G25G31      
  22120171.758 7       394.158 7  -3981079.450 7  -3071181.12047  22120163.06347
        48.750          33.500  
  25144815.555 5        87.686 5  -1084423.004 5  -2320912.10846  25144810.08246
        41.000          22.000  
  21277789.375 7     -1836.075 7   3757928.074 7   2934865.18248  21277779.68448
        48.250          37.500  
  24541265.461 2     -2869.537 2   7152544.393 2   5567458.08546  24541258.93446
        34.500          19.500  
  24994944.445 5     -2692.948 5   6891348.861 5   5363476.03746  24994939.20746
        40.250          22.500  
  24943973.703 3      3231.363 3  -1842709.037 3  -2814377.76246  24943968.05546
        36.000          20.250  
  22027842.750 7     -2098.919 7   4495697.977 7   3506405.43848  22027832.00448
        48.500          35.750  
  21988657.766 7      1816.426 7  -7424846.777 7  -5754400.69548  21988650.41848
        48.750          35.000  
  24491172.188 6      1755.271 6  -1807584.684 6  -1388029.53846  24491168.47346
        42.500          24.000  
  21035083.109 7      2082.220 7  -8345124.680 7  -6449033.49048  21035074.29748
        50.500          40.500  
 11  3 22 20 23  0.0000000  0 10G11G12G14G18G19G20G22G24G25G31      
  22119073.070 7       384.857 7  -3986852.308 7  -3075679.44247  22119064.31647
        48.500          33.250  
  25144591.328 5        79.188 5  -1085610.825 5  -2321837.72246  25144583.62946
        41.250          21.000  
  21283040.000 7     -1839.479 7   3785520.257 7   2956365.57748  21283030.89548
        48.500          37.250  
  24549462.664 1     -2871.988 1   7195624.213 1   5601026.72146  24549457.19146
        33.500          19.750  
  25002634.070 6     -2693.214 6   6931747.065 6   5394955.06446  25002627.95346
        43.000          22.500  
  24934749.078 3      3231.799 3  -1891186.015 3  -2852151.94546  24934742.78546
        36.000          19.000  
  22033845.773 7     -2103.201 7   4527245.984 7   3530988.27248  22033834.96948
        48.250          35.500  
  21983495.141 6      1808.666 6  -7451976.761 6  -5775540.92948  21983487.91048
        47.500          34.500  
  24486178.102 5      1749.635 5  -1833829.201 5  -1408479.75546  24486174.09446
        40.250          22.750  
  21029163.461 7      2073.818 7  -8376231.953 7  -6473272.90248  21029154.76648
        50.750          41.000  
 11  3 22 20 23 15.0000000  0 10G11G12G14G18G19G20G22G24G25G31      
  22118000.836 7       375.558 7  -3992485.677 7  -3080069.09648  22117992.37548
        48.000          34.000  
  25144388.867 5        70.697 5  -1086671.285 5  -2322664.09846  25144381.63746
        40.000          20.000  
  21288300.117 7     -1842.865 7   3813163.231 7   2977905.54748  21288291.07048
        49.000          37.000  
  24557668.328 2     -2874.444 2   7238740.871 2   5634624.06946  24557662.38746
        34.000          19.000  
  25010320.828 5     -2693.445 5   6972148.743 5   5426436.80646  25010315.47346
        41.000          22.750  
  24925523.883 2      3232.227 2  -1939669.414 2  -2889931.27945  24925516.12545
        34.500          16.250  
  22039861.531 7     -2107.470 7   4558858.036 7   3555621.02148  22039851.13748
        48.250          36.000  
  21978354.758 7      1800.900 7  -7478990.264 7  -5796590.40648  21978346.82448
        48.000          35.500  
  24481199.984 5      1743.983 5  -1859988.941 5  -1428863.91246  24481196.27046
        42.250          23.000  
  21023267.867 7      2065.412 7  -8407213.136 7  -6497414.05549  21023258.93849
        50.500          41.500  
 11  3 22 20 23 30.0000000  0 10G11G12G14G18G19G20G22G24G25G31      
  22116955.133 6       366.231 6  -3997979.139 6  -3084349.72247  22116946.61347
        47.500          33.500  
  25144210.563 5        62.173 5  -1087603.881 5  -2323390.76746  25144204.91446
        41.000          20.750  
  21293570.453 7     -1846.277 7   3840857.382 7   2999485.39148  21293561.23048
        49.250          37.250  
  24565880.289 1     -2876.920 1   7281894.671 1   5668250.30046  24565873.87946
        33.500          19.250  
  25018010.469 5     -2693.691 5   7012554.103 5   5457921.43546  25018004.70346
        40.250          23.500  
  24916297.500 3      3232.614 3  -1988158.626 3  -2927714.96945  24916289.62545
        36.750          17.750  
  22045889.578 7     -2111.780 7   4590534.730 7   3580304.13648  22045879.06648
        49.000          36.500  
  21973236.227 7      1793.083 7  -7505886.503 7  -5817548.49948  21973229.17248
        48.750          35.500  
  24476237.945 6      1738.273 6  -1886063.041 6  -1449181.35146  24476234.99246
        43.000          22.750  
  21017396.781 7      2056.951 7  -8438067.406 7  -6521456.33448  21017387.85248
        50.500          41.000  
 11  3 22 20 23 45.0000000  0 10G11G12G14G18G19G20G22G24G25G31      
  22115936.844 7       356.914 7  -4003332.850 7  -3088521.43947  22115928.26647
        47.750          33.500  
  25144058.664 6        53.662 6  -1088408.816 6  -2324018.02246  25144051.08246
        42.750          20.250  
  21298849.867 7     -1849.656 7   3868602.226 7   3021104.74048  21298840.46948
        48.500          37.250  
  24574099.000 1     -2879.364 1   7325085.132 1   5701905.17945  24574093.05945
        32.750          18.250  
  25025700.133 5     -2693.888 5   7052962.425 5   5489408.35446  25025694.30946
        41.000          25.500  
  24907068.719 2      3233.007 2  -2036653.728 2  -2965503.34146  24907060.49246
        35.500          19.000  
  22051929.320 7     -2116.054 7   4622275.547 7   3605037.21348  22051918.98448
        47.750          36.000  
  21968140.688 7      1785.272 7  -7532665.577 7  -5838415.30748  21968133.04748
        48.750          35.500  
  24471293.133 5      1732.562 5  -1912051.473 5  -1469432.01646  24471289.12546
        41.500          22.750  
  21011549.258 7      2048.499 7  -8468794.894 7  -6545399.80448  21011540.27048
        50.750          41.000  
 11  3 22 20 24  0.0000000  0 10G11G12G14G18G19G20G22G24G25G31      
  22114944.766 6       347.593 6  -4008546.744 6  -3092584.22947  22114935.25047
        47.500          33.500  
  25143929.180 5        45.129 5  -1089085.754 5  -2324545.57446  25143922.59446
        40.000          21.500  
  21304139.242 7     -1853.039 7   3896397.804 7   3042763.62048  21304129.72748
        48.500          37.750  
  24582324.984 1     -2881.817 1   7368312.391 1   5735588.70045  24582319.10245
        32.750          17.750  
  25033389.609 4     -2694.079 4   7093373.615 4   5520897.50846  25033383.90246
        39.000          22.250  
  24897839.305 3      3233.388 3  -2085154.556 3  -3003296.15045  24897831.54745
        36.750          18.250  
  22057981.836 7     -2120.354 7   4654080.863 7   3629820.54948  22057971.14848
        48.500          36.000  
  21963066.773 6      1777.421 6  -7559326.886 6  -5859190.34248  21963059.71948
        47.500          34.750  
  24466363.516 4      1726.812 4  -1937953.654 4  -1489615.47346  24466359.80146
        39.000          22.750  
  21005726.227 7      2040.012 7  -8499395.077 7  -6569244.07949  21005717.23849
        50.000          41.500  
 11  3 22 20 24 15.0000000  0 10G11G12G14G18G19G20G22G24G25G31      
  22113979.328 7       338.271 7  -4013620.809 7  -3096538.05047  22113970.16447
        48.000          33.250  
  25143824.789 5        36.601 5  -1089634.766 5  -2324973.37846  25143819.19946
        39.500          21.000  
  21309438.305 7     -1856.405 7   3924243.885 7   3064461.85848  21309428.90648
        49.000          37.250  
  24590557.625 1     -2884.283 1   7411576.639 1   5769301.01545  24590552.27045
        32.500          18.500  
  25041081.563 5     -2694.248 5   7133787.331 5   5552388.63246  25041074.74246
        40.500          24.250  
  24888606.531 1      3233.762 1  -2133660.979 1  -3041093.36445  24888601.41045
        33.750          17.750  
  22064046.117 7     -2124.642 7   4685950.490 7   3654654.01148  22064035.66448
        47.750          36.250  
  21958016.406 6      1769.570 6  -7585870.435 6  -5879873.60548  21958008.41448
        47.000          35.500  
  24461450.758 4      1721.048 4  -1963769.368 4  -1509731.55846  24461446.86746
        38.500          22.750  
  20999927.477 7      2031.520 7  -8529867.877 7  -6592989.09448  20999918.54748
        50.500          41.000  
 11  3 22 20 24 30.0000000  0 10G11G12G14G18G19G20G22G24G25G31      
  22113040.547 6       328.923 6  -4018554.648 6  -3100382.60347  22113031.79347
        47.250          33.000  
  25143745.047 5        28.035 5  -1090055.286 5  -2325301.05546  25143738.16846
        40.000          21.000  
  21314746.766 7     -1859.778 7   3952140.549 7   3086199.51648  21314737.48448
        48.500          36.750  
  24598797.570 2     -2886.756 2   7454877.984 2   5803042.23445  24598791.39545
        34.500          17.250  
  25048771.508 5     -2694.401 5   7174203.345 5   5583881.56346  25048765.62546
        39.500          22.750  
  24879377.445 4      3234.106 4  -2182172.575 4  -3078894.58745  24879369.57045
        38.000          17.750  
  22070123.469 7     -2128.954 7   4717884.803 7   3679537.86548  22070112.43048
        48.000          36.000  
  21952987.406 7      1761.676 7  -7612295.579 7  -5900464.62548  21952980.05948
        48.250          34.750  
  24456555.180 4      1715.243 4  -1989498.006 4  -1529779.77446  24456551.05546
        38.250          22.000  
  20994153.133 7      2022.998 7  -8560212.845 7  -6616634.50148  20994144.32048
        50.750          41.000  
 11  3 22 20 24 45.0000000  0 10G11G12G14G18G19G20G22G24G25G31      
  22112127.945 7       319.645 7  -4023349.323 7  -3104118.71247  22112119.13347
        47.750          33.000  
  25143689.438 5        19.534 5  -1090348.302 5  -2325529.42546  25143681.27046
        41.250          21.000  
  21320064.820 7     -1863.064 7   3980086.508 7   3107975.57448  21320055.71548
        48.750          37.500  
  24607044.570 2     -2889.158 2   7498215.350 2   5836811.53445  24607038.33645
        34.750          18.250  
  25056463.680 5     -2694.472 5   7214620.420 5   5615375.32146  25056456.44946
        40.250          23.000  
  24870144.414 3      3234.509 3  -2230690.208 3  -3116700.42845  24870136.59845
        35.750          16.750  
  22076212.430 6     -2133.193 6   4749882.696 6   3704471.26148  22076202.21148
        47.500          36.250  
  21947981.500 7      1753.831 7  -7638603.050 7  -5920963.94648  21947973.50848
        48.750          35.500  
  24451675.281 5      1709.476 5  -2015140.143 5  -1549760.56646  24451671.03946
        39.500          22.000  
  20988402.578 7      2014.520 7  -8590430.644 7  -6640180.81348  20988393.70748
        50.000          41.250  
 11  3 22 20 25  0.0000000  0 10G11G12G14G18G19G20G22G24G25G31      
  22111242.648 7       310.318 7  -4028004.101 7  -3107745.81648  22111233.42648
        48.500          33.750  
  25143657.609 5        10.981 5  -1090513.022 5  -2325657.75546  25143651.25846
        42.000          21.500  
  21325392.328 7     -1866.397 7   4008082.463 7   3129790.60248  21325382.75448
        48.500          37.500  
  24615298.609 2     -2891.587 2   7541589.152 2   5870609.25445  24615292.02345
        34.250          17.750  
  25064153.664 4     -2694.576 4   7255039.053 4   5646870.26846  25064148.30946
        38.250          22.750  
  24860912.578 4      3234.843 4  -2279212.858 4  -3154510.29245  24860903.23845
        38.250          18.250  
  22082313.688 7     -2137.485 7   4781944.970 7   3729454.83048  22082303.52748
        47.750          36.250  
  21942997.047 7      1745.922 7  -7664791.882 7  -5941370.81448  21942990.46148
        49.500          35.250  
  24446812.867 5      1703.639 5  -2040694.726 5  -1569673.17646  24446808.74246
        41.000          20.750  
  20982676.867 7      2005.967 7  -8620520.152 7  -6663627.15949  20982668.05549
        50.500          41.750  
 11  3 22 20 25 15.0000000  0 10G11G12G14G18G19G20G22G24G25G31      
  22110383.133 7       300.996 7  -4032519.034 7  -3111263.95247  22110373.79347
        48.000          33.500  
  25143651.109 5         2.412 5  -1090549.206 5  -2325685.98846  25143645.40246
        42.250          22.000  
  21330729.180 7     -1869.715 7   4036128.183 7   3151644.39648  21330720.01648
        48.000          36.750  
  24623558.969 1     -2894.025 1   7584999.522 1   5904435.44645  24623553.73045
        33.000          18.500  
  25071846.266 5     -2694.647 5   7295458.757 5   5678366.05446  25071840.44146
        39.750          22.500  
  24851676.227 3      3235.178 3  -2327740.522 3  -3192323.95245  24851668.41045
        35.750          16.750  
  22088427.094 6     -2141.776 6   4814071.615 6   3754488.55548  22088416.64148
        47.500          36.500  
  21938036.375 7      1738.005 7  -7690861.964 7  -5961685.15448  21938029.55548
        49.000          35.000  
  24441966.031 5      1697.780 5  -2066161.425 5  -1589517.30246  24441962.49246
        41.000          20.750  
  20976975.602 7      1997.396 7  -8650481.085 7  -6686973.32248  20976966.14548
        50.000          41.000  
 11  3 22 20 25 30.0000000  0 10G11G12G14G18G19G20G22G24G25G31      
  22109550.250 7       291.660 7  -4036893.929 7  -3114672.95848  22109541.84848
        48.250          34.000  
  25143668.273 5        -6.159 5  -1090456.825 5  -2325614.00946  25143661.04346
        40.750          21.000  
  21336075.836 7     -1873.039 7   4064223.770 7   3173537.05548  21336066.32048
        49.500          37.000  
  24631827.102 3     -2896.470 3   7628446.578 3   5938290.23745  24631820.86745
        35.750          18.250  
  25079537.320 3     -2694.704 3   7335879.312 3   5709862.56146  25079531.55546
        37.000          21.500  
  24842439.031 2      3235.488 2  -2376272.847 2  -3230141.36845  24842432.85545
        34.500          17.250  
  22094552.766 7     -2146.069 7   4846262.651 7   3779572.45748  22094541.96148
        48.000          36.000  
  21933098.109 7      1730.059 7  -7716812.842 7  -5981906.61048  21933090.82048
        49.000          35.000  
  24437136.977 5      1691.890 5  -2091539.778 5  -1609292.58446  24437132.67646
        41.500          21.250  
  20971298.563 7      1988.809 7  -8680313.218 7  -6710219.11548  20971289.16448
        50.500          41.000  
 11  3 22 20 25 45.0000000  0 10G11G12G14G18G19G20G22G24G25G31      
  22108744.977 7       282.337 7  -4041128.990 7  -3117973.00347  22108735.57847
        48.500          33.500  
  25143710.320 5       -14.728 5  -1090235.903 5  -2325441.86146  25143703.38346
        40.500          20.500  
  21341431.266 7     -1876.324 7   4092368.638 7   3195468.11648  21341421.86748
        48.500          36.750  
  24640102.500 3     -2898.889 3   7671929.918 3   5972173.25845  24640096.73445
        35.750          18.500  
  25087229.547 4     -2694.721 4   7376300.127 4   5741359.19346  25087224.13346
        38.000          24.500  
  24833203.625 3      3235.815 3  -2424810.078 3  -3267962.54946  24833196.57046
        37.000          19.250  
  22100690.758 7     -2150.345 7   4878517.830 7   3804706.33948  22100680.07048
        47.750          35.750  
  21928182.742 7      1722.109 7  -7742644.481 7  -6002035.14148  21928175.10248
        49.000          35.000  
  24432323.906 5      1685.997 5  -2116829.737 5  -1628998.99046  24432319.89846
        41.000          21.500  
  20965646.266 7      1980.230 7  -8710016.661 7  -6733364.63248  20965637.04348
        49.750          41.000  
 11  3 22 20 26  0.0000000  0 10G11G12G14G18G19G20G22G24G25G31      
  22107965.391 7       273.035 7  -4045224.515 7  -3121164.32148  22107956.16848
        48.250          33.750  
  25143776.914 5       -23.282 5  -1089886.678 5  -2325169.74446  25143771.09046
        40.750          21.500  
  21346796.523 7     -1879.581 7   4120562.350 7   3217437.23348  21346787.12548
        48.000          36.750  
  24648382.961 3     -2901.281 3   7715449.127 3   6006084.29746  24648377.84046
        36.000          20.500  
  25094922.461 4     -2694.690 4   7416720.479 4   5772855.46346  25094915.64146
        38.750          22.500  
  24823968.039 2      3236.150 2  -2473352.324 2  -3305787.60846  24823959.63746
        35.500          19.250  
  22106841.211 7     -2154.597 7   4910836.780 7   3829889.91948  22106830.28948
        48.250          36.000  
  21923289.688 7      1714.171 7  -7768357.040 7  -6022070.89348  21923282.51648
        48.750          35.000  
  24427528.875 5      1680.104 5  -2142031.304 5  -1648636.53146  24427524.34046
        41.250          20.500  
  20960018.352 7      1971.654 7  -8739591.466 7  -6756409.92148  20960009.36348
        50.000          41.000  
 11  3 22 20 26 15.0000000  0 10G11G12G14G18G19G20G22G24G25G31      
  22107212.461 7       263.711 7  -4049180.173 7  -3124246.65348  22107203.88348
        47.750          33.750  
  25143867.875 4       -31.850 4  -1089408.923 4  -2324797.48546  25143861.11346
        38.250          19.750  
  21352170.906 7     -1882.851 7   4148805.120 7   3239444.59048  21352161.44948
        48.750          36.750  
  24656671.258 4     -2903.694 4   7759004.535 4   6040023.53246  24656665.72746
        37.500          19.750  
  25102613.914 4     -2694.668 4   7457140.503 4   5804351.53246  25102607.27046
        38.000          22.250  
  24814729.133 4      3236.456 4  -2521899.171 4  -3343616.27046  24814721.02346
        38.250          19.250  
  22113003.539 7     -2158.876 7   4943219.925 7   3855123.51148  22112993.02748
        48.500          36.500  
  21918419.563 7      1706.193 7  -7793949.927 7  -6042013.39448  21918412.27348
        48.750          35.500  
  24422749.742 5      1674.164 5  -2167143.763 5  -1668204.63446  24422745.38346
        40.750          19.500  
  20954415.258 7      1963.038 7  -8769037.041 7  -6779354.50248  20954405.68448
        50.000          41.000  
 11  3 22 20 26 30.0000000  0 10G11G12G14G18G19G20G22G24G25G31      
  22106486.688 7       254.373 7  -4052995.772 7  -3127219.84948  22106477.64148
        48.000          34.500  
  25143983.367 5       -40.444 5  -1088802.270 5  -2324324.77446  25143975.55146
        40.500          20.250  
  21357554.664 7     -1886.112 7   4177096.801 7   3261490.04848  21357545.44148
        48.250          37.250  
  24664967.313 3     -2906.110 3   7802596.189 3   6073991.00846  24664960.84446
        37.250          21.000  
  25110303.430 3     -2694.631 3   7497559.966 3   5835847.12846  25110298.71946
        36.250          21.250  
  24805489.016 1      3236.740 1  -2570450.275 1  -3381448.18745  24805482.89845
        33.750          18.250  
  22119177.445 6     -2163.157 6   4975667.277 6   3880407.13048  22119167.22748
        47.500          36.250  
  21913572.273 7      1698.187 7  -7819422.728 7  -6061862.32548  21913564.45748
        48.750          35.000  
  24417988.625 5      1668.187 5  -2192166.564 5  -1687702.86246  24417984.03146
        41.000          19.500  
  20948836.445 7      1954.401 7  -8798353.058 7  -6802198.13448  20948827.10548
        50.000          41.250  
 11  3 22 20 26 45.0000000  0 10G11G12G14G18G19G20G22G24G25G31      
  22105787.188 7       245.065 7  -4056671.748 7  -3130084.24447  22105778.37547
        48.000          33.500  
  25144124.039 6       -49.022 6  -1088066.942 6  -2323751.78946  25144116.92646
        43.500          21.750  
  21362947.180 7     -1889.341 7   4205436.919 7   3283573.24448  21362938.25048
        48.500          37.000  
  24673268.766 4     -2908.506 4   7846223.772 4   6107986.47046  24673263.17646
        38.000          20.500  
  25117995.039 3     -2694.556 3   7537978.306 3   5867341.78646  25117990.56346
        35.750          20.250  
  24796249.570 3      3237.041 3  -2619005.892 3  -3419283.74446  24796242.45746
        36.000          19.250  
  22125365.109 6     -2167.423 6   5008178.624 6   3905740.62848  22125354.65648
        47.000          36.250  
  21908747.586 7      1690.191 7  -7844775.594 7  -6081617.79148  21908739.71148
        48.250          35.000  
  24413243.367 5      1662.217 5  -2217099.813 5  -1707131.32946  24413238.94946
        40.000          19.500  
  20943282.219 7      1945.768 7  -8827539.572 7  -6824940.85248  20943272.93848
        50.500          41.250  
 11  3 22 20 27  0.0000000  0 10G11G12G14G18G19G20G22G24G25G31      
  22105114.289 6       235.723 6  -4060207.599 6  -3132839.44848  22105105.12548
        47.500          34.000  
  25144287.297 5       -57.629 5  -1087202.513 5  -2323078.18046  25144281.64846
        42.000          22.250  
  21368349.852 7     -1892.597 7   4233825.876 7   3305694.49948  21368340.27748
        48.500          37.500  
  24681577.594 4     -2910.921 4   7889887.593 4   6142010.19746  24681571.94546
        37.750          20.500  
  25125687.406 4     -2694.482 4   7578395.532 4   5898835.68746  25125681.58246
        38.250          21.750  
  24787009.656 4      3237.301 4  -2667565.403 4  -3457122.18746  24787002.30946
        37.500          19.000  
  22131563.570 7     -2171.717 7   5040754.377 7   3931124.30648  22131553.17648
        47.750          35.500  
  21903946.086 7      1682.141 7  -7870007.713 7  -6101279.17248  21903938.97348
        49.250          35.000  
  24408515.813 4      1656.190 4  -2241942.667 4  -1726489.35846  24408511.33646
        38.750          19.250  
  20937753.086 7      1937.086 7  -8856595.863 7  -6847582.10249  20937743.51249
        50.500          41.500  
 11  3 22 20 27 15.0000000  0 10G11G12G14G18G19G20G22G24G25G31      
  22104467.773 7       226.445 7  -4063604.281 7  -3135486.21748  22104459.19548
        48.000          34.250  
  25144477.828 5       -66.178 5  -1086209.841 5  -2322304.63546  25144469.71946
        40.500          21.000  
  21373761.117 7     -1895.775 7   4262262.507 7   3327852.90848  21373751.77748
        48.250          37.000  
  24689893.273 3     -2913.278 3   7933586.756 3   6176061.42246  24689887.68446
        37.250          19.750  
  25133377.578 2     -2694.315 2   7618810.258 2   5930327.60546  25133372.45746
        35.000          20.250  
  24777767.922 3      3237.609 3  -2716129.544 3  -3494964.36645  24777760.39845
        36.500          18.500  
  22137774.688 7     -2175.940 7   5073393.476 7   3956557.34548  22137764.41048
        48.000          36.000  
  21899167.406 7      1674.142 7  -7895119.842 7  -6120847.05548  21899160.11748
        48.000          35.250  
  24403805.250 3      1650.204 3  -2266695.722 3  -1745777.39346  24403801.00846
        37.000          19.500  
  20932248.602 7      1928.453 7  -8885522.653 7  -6870122.43649  20932239.55549
        50.500          41.500  
 11  3 22 20 27 30.0000000  0 10G11G12G14G18G19G20G22G24G25G31      
  22103847.938 7       217.124 7  -4066861.144 7  -3138024.02648  22103839.47748
        48.250          33.750  
  25144690.125 5       -74.785 5  -1085088.059 5  -2321430.59546  25144683.12946
        42.000          21.000  
  21379181.727 7     -1898.983 7   4290747.245 7   3350048.80148  21379172.09448
        48.750          37.250  
  24698216.414 3     -2915.673 3   7977321.855 3   6210140.70946  24698210.53146
        36.750          19.000  
  25141067.656 2     -2694.173 2   7659222.848 2   5961817.82846  25141063.23846
        35.000          21.750  
  24768525.609 4      3237.874 4  -2764697.652 4  -3532809.58146  24768519.19946
        39.000          20.000  
  22143997.992 6     -2180.210 6   5106096.619 6   3982040.29748  22143986.95348
        47.500          35.500  
  21894411.977 7      1666.090 7  -7920111.185 7  -6140320.82148  21894404.39548
        48.250          35.250  
  24399113.234 3      1644.161 3  -2291358.142 3  -1764994.85146  24399107.93846
        36.250          20.000  
  20926768.688 7      1919.764 7  -8914319.117 7  -6892561.22448  20926759.52348
        51.000          41.000  
 11  3 22 20 27 45.0000000  0 10G11G12G14G18G19G20G22G24G25G31      
  22103255.141 7       207.771 7  -4069977.708 7  -3140452.51048  22103246.21148
        48.500          34.500  
  25144927.367 5       -83.425 5  -1083836.678 5  -2320455.47746  25144922.59846
        40.000          21.000  
  21384611.242 7     -1902.220 7   4319280.550 7   3372282.54648  21384602.07848
        48.500          37.500  
  24706545.734 4     -2918.090 4   8021093.207 4   6244248.20046  24706539.91046
        37.750          20.750  
  25148759.094 3     -2694.040 3   7699633.450 3   5993306.51246  25148752.97746
        37.000          21.000  
  24759281.750 3      3238.089 3  -2813268.983 3  -3570657.31846  24759275.86746
        36.500          19.000  
  22150233.938 7     -2184.514 7   5138864.333 7   4007573.55548  22150222.84048
        48.250          35.250  
  21889679.602 7      1657.983 7  -7944980.930 7  -6159699.82548  21889671.90248
        48.500          35.250  
  24394436.859 3      1638.048 3  -2315928.868 3  -1784140.80746  24394431.85546
        36.000          21.000  
  20921314.148 7      1911.023 7  -8942984.456 7  -6914897.83149  20921304.69149
        51.000          41.500  
 11  3 22 20 28  0.0000000  0 10G11G12G14G18G19G20G22G24G25G31      
  22102688.234 7       198.493 7  -4072955.097 7  -3142772.55448  22102679.53948
        49.000          34.250  
  25145191.242 5       -91.994 5  -1082456.763 5  -2319380.21546  25145183.77746
        41.250          21.750  
  21390049.922 7     -1905.363 7   4347861.002 7   3394553.01648  21390040.81648
        48.000          37.250  
  24714882.133 4     -2920.433 4   8064899.698 4   6278383.11546  24714875.78146
        37.500          19.500  
  25156448.008 3     -2693.804 3   7740040.512 3   6024792.47346  25156442.00846
        37.000          20.750  
  24750039.063 4      3238.373 4  -2861844.580 4  -3608508.38546  24750032.12546
        38.250          20.250  
  22156480.969 7     -2188.729 7   5171695.268 7   4033156.07248  22156470.57448
        48.000          35.000  
  21884970.094 7      1649.934 7  -7969729.943 7  -6178984.76048  21884962.57048
        48.750          35.500  
  24389778.953 3      1632.001 3  -2340408.880 3  -1803216.12246  24389774.00846
        37.000          20.250  
  20915883.789 7      1902.344 7  -8971519.613 7  -6937132.99949  20915874.62549
        50.500          42.000  
 11  3 22 20 28 15.0000000  0 10G11G12G14G18G19G20G22G24G25G31      
  22102147.961 6       189.181 6  -4075792.806 6  -3144983.75448  22102139.50048
        46.250          34.000  
  25145477.617 5      -100.599 5  -1080947.782 5  -2318204.39846  25145470.73846
        42.250          20.000  
  21395497.773 7     -1908.528 7   4376488.919 7   3416860.48048  21395488.72748
        48.000          37.000  
  24723224.359 4     -2922.802 4   8108741.734 4   6312545.70746  24723218.94546
        38.500          20.000  
  25164135.586 2     -2693.588 2   7780444.325 2   6056275.91146  25164130.87546
        35.000          21.750  
  24740795.891 5      3238.618 5  -2910423.844 5  -3646362.30646  24740787.60546
        39.750          19.500  
  22162740.906 7     -2192.977 7   5204589.918 7   4058788.24048  22162730.51248
        47.750          35.250  
  21880283.336 7      1641.842 7  -7994357.567 7  -6198175.10948  21880275.87148
        48.500          35.500  
  24385137.547 4      1625.889 4  -2364797.207 4  -1822219.96246  24385133.12946
        38.250          20.750  
  20910478.641 7      1893.627 7  -8999924.024 7  -6959266.28349  20910469.35949
        50.750          41.750  
 11  3 22 20 28 30.0000000  0 10G11G12G14G18G19G20G22G24G25G31      
  22101634.781 7       179.825 7  -4078490.176 7  -3147085.59248  22101625.85248
        48.500          34.250  
  25145789.805 5      -109.260 5  -1079308.875 5  -2316927.29246  25145783.92246
        41.250          21.250  
  21400954.578 7     -1911.729 7   4405164.858 7   3439205.35848  21400945.06348
        48.000          36.500  
  24731573.969 4     -2925.208 4   8152619.854 4   6346736.42246  24731568.61346
        37.500          21.000  
  25171823.344 2     -2693.402 2   7820845.358 2   6087757.10346  25171818.45746
        35.000          20.500  
  24731549.469 4      3238.801 4  -2959005.855 4  -3684218.34546  24731542.53146
        38.250          21.000  
  22169012.664 6     -2197.271 6   5237548.989 6   4084470.61948  22169001.27348
        47.500          34.750  
  21875620.078 7      1633.685 7  -8018862.847 7  -6217270.12348  21875612.14548
        48.500          36.000  
  24380513.813 4      1619.715 4  -2389092.927 4  -1841151.69246  24380510.44946
        39.000          20.250  
  20905098.578 7      1884.834 7  -9028196.539 7  -6981296.79249  20905089.53149
        50.000          41.750  
 11  3 22 20 28 45.0000000  0 10G11G12G14G18G19G20G22G24G25G31      
  22101147.914 7       170.579 7  -4081048.865 7  -3149079.38648  22101139.27748
        48.000          34.250  
  25146126.727 6      -117.826 6  -1077541.491 6  -2315550.10846  25146120.14146
        42.500          22.000  
  21406420.211 7     -1914.815 7   4433887.079 7   3461586.30648  21406411.10548
        48.500          37.500  
  24739930.531 4     -2927.519 4   8196532.646 4   6380954.16146  24739925.41046
        38.500          21.750  
  25179511.086 3     -2693.085 3   7861241.636 3   6119234.61646  25179505.67246
        36.250          20.000  
  24722303.883 5      3239.064 5  -3007591.814 5  -3722077.55446  24722296.88746
        39.250          19.500  
  22175296.406 6     -2201.477 6   5270571.144 6   4110202.13848  22175286.12948
        46.750          35.250  
  21870979.914 7      1625.612 7  -8043247.023 7  -6236270.76948  21870972.39148
        49.000          36.000  
  24375908.250 5      1613.613 5  -2413297.116 5  -1860012.07846  24375903.83246
        39.500          21.500  
  20899743.039 7      1876.128 7  -9056338.453 7  -7003225.53049  20899733.75849
        50.250          41.500  
 11  3 22 20 29  0.0000000  0 10G11G12G14G18G19G20G22G24G25G31      
  22100688.141 7       161.236 7  -4083467.401 7  -3150963.95948  22100679.27048
        49.000          34.250  
  25146486.367 5      -126.464 5  -1075644.526 5  -2314071.98946  25146480.36746
        41.000          20.500  
  21411895.016 7     -1917.974 7   4462656.695 7   3484004.17348  21411885.73448
        47.750          37.000  
  24748293.922 4     -2929.903 4   8240481.195 4   6415199.73046  24748288.15646
        39.000          21.750  
  25187195.430 1     -2692.826 1   7901634.031 1   6150709.12046  25187193.18046
        32.500          19.750  
  24713058.156 5      3239.255 5  -3056180.640 5  -3759938.89746  24713050.92646
        40.000          20.250  
  22181593.219 6     -2205.756 6   5303657.481 6   4135983.67148  22181582.47348
        47.000          34.750  
  21866363.203 7      1617.445 7  -8067508.692 7  -6255175.95748  21866355.56348
        49.250          35.500  
  24371320.148 5      1607.415 5  -2437408.336 5  -1878800.00546  24371315.90646
        40.500          21.000  
  20894412.789 7      1867.331 7  -9084348.423 7  -7025051.46549  20894403.68449
        50.000          41.500  
 11  3 22 20 29 15.0000000  0 10G11G12G14G18G19G20G22G24G25G31      
  22100254.211 6       151.910 6  -4085746.052 6  -3152739.53747  22100245.57447
        47.500          33.500  
  25146873.664 5      -135.108 5  -1073617.900 5  -2312492.78946  25146866.43446
        42.000          21.500  
  21417378.656 7     -1921.119 7   4491473.479 7   3506458.80148  21417369.55148
        48.000          37.500  
  24756664.188 5     -2932.261 5   8284465.115 5   6449472.88946  24756658.12946
        39.750          20.500  
  25194883.281 3     -2692.537 3   7942022.083 3   6182180.19846  25194878.33646
        36.250          20.750  
  24703810.906 5      3239.448 5  -3104772.360 5  -3797802.57346  24703803.50046
        39.250          19.500  
  22187900.852 6     -2210.025 6   5336807.854 6   4161815.09748  22187890.51648
        47.000          35.000  
  21861769.773 7      1609.273 7  -8091647.782 7  -6273985.63348  21861762.07448
        49.250          36.000  
  24366749.570 5      1601.199 5  -2461426.322 5  -1897515.31946  24366745.15246
        41.250          21.250  
  20889108.320 7      1858.525 7  -9112226.294 7  -7046774.46048  20889099.09848
        50.250          41.250  
 11  3 22 20 29 30.0000000  0 10G11G12G14G18G19G20G22G24G25G31      
  22099847.109 7       142.617 7  -4087885.308 7  -3154406.49348  22099837.71148
        48.750          34.250  
  25147282.500 5      -143.720 5  -1071462.099 5  -2310812.97546  25147277.61346
        41.000          22.000  
  21422871.063 7     -1924.212 7   4520336.661 7   3528949.59148  21422861.89848
        48.000          37.000  
  24765040.250 4     -2934.595 4   8328484.047 4   6483773.29146  24765034.48446
        38.500          21.000  
  25202568.898 3     -2692.177 3   7982404.744 3   6213647.17546  25202562.84046
        37.250          22.250  
  24694564.148 5      3239.653 5  -3153367.161 5  -3835668.59446  24694556.62546
        39.500          19.750  
  22194221.227 6     -2214.260 6   5370021.758 6   4187696.02948  22194210.42248
        46.000          35.000  
  21857199.000 7      1601.121 7  -8115664.604 7  -6292700.03548  21857191.53548
        49.500          35.500  
  24362196.898 5      1595.001 5  -2485351.340 5  -1916158.16746  24362192.71546
        41.000          22.000  
  20883828.016 7      1849.746 7  -9139972.483 7  -7068394.85249  20883818.55949
        50.500          41.500  
 11  3 22 20 29 45.0000000  0 10G11G12G14G18G19G20G22G24G25G31      
  22099466.508 6       133.326 6  -4089885.200 6  -3155964.85348  22099457.75448
        46.250          34.000  
  25147717.500 5      -152.335 5  -1069177.066 5  -2309032.41646  25147711.03146
        42.000          20.750  
  21428372.406 6     -1927.296 6   4549246.093 6   3551476.40748  21428363.00848
        47.500          36.750  
  24773423.375 4     -2936.911 4   8372537.710 4   6518100.80946  24773417.78546
        38.000          19.750  
  25210254.875 4     -2691.811 4   8022781.910 4   6245109.85046  25210246.82446
        38.000          22.000  
  24685316.477 5      3239.855 5  -3201964.989 5  -3873537.00746  24685308.71946
        39.500          20.250  
  22200554.156 6     -2218.491 6   5403299.116 6   4213626.40448  22200543.52748
        47.000          35.250  
  21852652.344 7      1592.958 7  -8139558.975 7  -6311319.00948  21852644.17648
        49.750          36.000  
  24357661.586 5      1588.779 5  -2509183.029 5  -1934728.27846  24357657.34446
        40.750          22.500  
  20878573.438 7      1840.951 7  -9167586.745 7  -7089912.44149  20878564.15649
        50.750          41.750  
 11  3 22 20 30  0.0000000  0 10G11G12G14G18G19G20G22G24G25G31      
  22099112.484 6       124.027 6  -4091745.601 6  -3157414.51947  22099103.55547
        45.500          33.500  
  25148178.453 5      -160.975 5  -1066762.437 5  -2307150.91646  25148170.22746
        41.500          20.750  
  21433882.664 6     -1930.387 6   4578201.901 6   3574039.36648  21433873.32448
        47.000          36.750  
  24781813.422 4     -2939.248 4   8416626.436 4   6552455.59646  24781807.36346
        38.500          20.750  
  25217935.859 5     -2691.431 5   8063153.373 5   6276568.07246  25217928.86346
        39.500          22.250  
  24676067.672 5      3240.025 5  -3250565.371 5  -3911407.40146  24676060.32446
        40.750          19.500  
  22206898.766 6     -2222.730 6   5436640.060 6   4239606.33848  22206887.96148
        45.250          34.750  
  21848128.766 7      1584.756 7  -8163330.308 7  -6329842.12448  21848121.35948
        49.500          35.250  
  24353143.609 5      1582.519 5  -2532920.807 5  -1953225.24546  24353140.36346
        41.000          22.500  
  20873343.914 7      1832.118 7  -9195068.519 7  -7111326.79648  20873333.98848
        49.250          41.250  
 11  3 22 20 30 15.0000000  0 10G11G12G14G18G19G20G22G24G25G31      
  22098785.172 6       114.703 6  -4093466.146 6  -3158755.20548  22098776.24248
        45.000          34.000  
  25148661.391 5      -169.630 5  -1064217.991 5  -2305168.23546  25148655.21546
        40.000          21.000  
  21439401.594 6     -1933.484 6   4607204.167 6   3596638.52448  21439392.02048
        47.500          36.500  
  24790210.438 4     -2941.599 4   8460750.424 4   6586837.88546  24790204.20346
        39.000          19.250  
  25225614.281 2     -2691.049 2   8103519.106 2   6308021.82046  25225610.15646
        35.500          21.500  
  24666817.969 5      3240.166 5  -3299167.866 5  -3949279.43746  24666811.73446
        40.250          19.000  
  22213255.336 6     -2226.988 6   5470044.887 6   4265636.04348  22213244.53148
        46.500          34.750  
  21843628.906 7      1576.526 7  -8186978.199 7  -6348269.04948  21843621.14848
        49.500          35.500  
  24348645.305 5      1576.216 5  -2556564.047 5  -1971648.55046  24348641.00446
        41.500          22.750  
  20868139.250 7      1823.261 7  -9222417.441 7  -7132637.62548  20868130.14548
        50.750          41.250  
 11  3 22 20 30 30.0000000  0 10G11G12G14G18G19G20G22G24G25G31      
  22098484.102 6       105.401 6  -4095047.159 6  -3159987.17148  22098474.70348
        45.500          34.250  
  25149171.180 6      -178.275 6  -1061543.868 6  -2303084.46946  25149163.07046
        42.750          20.000  
  21444929.492 6     -1936.556 6   4636252.507 6   3619273.58648  21444919.80148
        46.250          36.250  
  24798612.695 4     -2943.934 4   8504909.433 4   6621247.47446  24798606.98846
        38.000          19.000  
  25233296.695 4     -2690.630 4   8143878.559 4   6339470.59546  25233290.52046
        38.500          22.250  
  24657570.219 5      3240.323 5  -3347772.711 5  -3987153.34546  24657562.10946
        40.500          19.000  
  22219624.391 6     -2231.232 6   5503513.360 6   4291715.34948  22219614.05548
        46.000          35.500  
  21839152.375 7      1568.296 7  -8210502.640 7  -6366599.76948  21839144.91048
        48.750          36.000  
  24344163.555 5      1569.912 5  -2580112.734 5  -1989998.14846  24344159.95746
        41.250          22.750  
  20862960.367 7      1814.407 7  -9249633.550 7  -7153844.96749  20862951.26249
        50.750          41.500  
 11  3 22 20 30 45.0000000  0 10G11G12G14G18G19G20G22G24G25G31      
  22098210.398 6        96.120 6  -4096488.956 6  -3161110.64948  22098201.35248
        46.500          34.000  
  25149705.328 5      -186.909 5  -1058740.240 5  -2300899.89546  25149696.92646
        42.250          22.000  
  21450465.727 6     -1939.595 6   4665346.427 6   3641944.16048  21450456.03548
        47.500          36.750  
  24807022.266 4     -2946.225 4   8549102.802 4   6655683.81745  24807016.79345
        38.500          18.500  
  25240975.523 4     -2690.161 4   8184230.971 4   6370913.99746  25240969.23046
        39.000          22.250  
  24648321.484 5      3240.497 5  -3396380.163 5  -4025029.23446  24648313.14146
        40.500          19.000  
  22226004.883 6     -2235.450 6   5537045.114 6   4317843.95548  22225994.19548
        46.000          35.250  
  21834698.891 7      1560.077 7  -8233903.794 7  -6384834.43148  21834691.30948
        50.000          36.000  
  24339700.578 5      1563.609 5  -2603566.873 5  -2008274.08046  24339696.45346
        41.250          21.750  
  20857806.586 7      1805.565 7  -9276717.029 7  -7174948.95548  20857797.12948
        50.250          41.250  
 11  3 22 20 31  0.0000000  0 10G11G12G14G18G19G20G22G24G25G31      
  22097962.141 6        86.808 6  -4097791.070 6  -3162125.27848  22097953.27048
        46.250          34.500  
  25150261.039 5      -195.560 5  -1055806.844 5  -2298614.07846  25150256.32846
        39.500          21.000  
  21456010.789 6     -1942.654 6   4694486.238 6   3664650.49348  21456001.50848
        47.000          36.500  
  24815438.984 4     -2948.559 4   8593331.183 4   6690147.45345  24815433.39545
        38.250          18.250  
  25248653.852 4     -2689.702 4   8224576.508 4   6402352.01546  25248647.09046
        39.000          22.000  
  24639069.906 5      3240.629 5  -3444989.592 5  -4062906.70345  24639062.38345
        39.500          17.250  
  22232397.867 6     -2239.696 6   5570640.556 6   4344022.19448  22232386.71148
        45.250          35.500  
  21830269.445 7      1551.810 7  -8257180.938 7  -6402972.46348  21830262.50848
        50.000          35.750  
  24335255.875 5      1557.252 5  -2626925.654 5  -2026475.69046  24335251.80946
        41.250          23.250  
  20852678.078 7      1796.674 7  -9303667.142 7  -7195949.02849  20852668.85549
        50.250          41.500  
 11  3 22 20 31 15.0000000  0 10G11G12G14G18G19G20G22G24G25G31      
  22097741.109 6        77.507 6  -4098953.668 6  -3163031.21148  22097731.59448
        46.750          33.750  
  25150846.453 5      -204.235 5  -1052743.325 5  -2296226.94046  25150839.28146
        41.500          21.750  
  21461564.547 6     -1945.696 6   4723671.678 6   3687392.38948  21461554.91448
        46.500          36.250  
  24823861.656 3     -2950.876 3   8637594.323 3   6724638.20446  24823856.30146
        37.000          19.250  
  25256328.680 4     -2689.214 4   8264914.714 4   6433784.27546  25256323.79346
        39.000          25.500  
  24629818.883 5      3240.741 5  -3493600.711 5  -4100785.45546  24629811.77046
        39.500          19.500  
  22238803.359 6     -2243.940 6   5604299.664 6   4370250.04148  22238792.43848
        45.250          35.250  
  21825863.789 7      1543.531 7  -8280333.900 7  -6421013.72048  21825856.50048
        49.750          36.000  
  24330829.023 5      1550.875 5  -2650188.784 5  -2044602.79946  24330824.89846
        41.750          22.500  
  20847574.719 7      1787.765 7  -9330483.620 7  -7216844.96349  20847565.49649
        50.500          41.750  
 11  3 22 20 31 30.0000000  0 10G11G12G14G18G19G20G22G24G25G31      
  22097545.977 7        68.227 7  -4099977.068 7  -3163828.66947  22097537.51647
        48.000          33.500  
  25151452.383 5      -212.876 5  -1049550.180 5  -2293738.83846  25151445.50446
        40.000          21.250  
  21467126.781 7     -1948.694 7   4752902.090 7   3710169.32448  21467117.38348
        47.750          36.750  
  24832292.070 3     -2953.170 3   8681891.879 3   6759155.73645  24832286.01245
        36.750          18.250  
  25264001.930 4     -2688.685 4   8305244.989 4   6465210.42646  25263997.74646
        37.750          21.250  
  24620569.523 5      3240.867 5  -3542213.710 5  -4138665.70546  24620561.06346
        41.000          19.250  
  22245220.234 6     -2248.155 6   5638021.988 6   4396527.14448  22245209.89848
        46.000          34.500  
  21821481.203 7      1535.262 7  -8303362.830 7  -6438958.34248  21821473.97348
        49.500          35.750  
  24326420.398 5      1544.504 5  -2673356.347 5  -2062655.41746  24326416.39146
        41.500          25.000  
  20842497.609 7      1778.865 7  -9357166.589 7  -7237636.86849  20842488.56349
        50.000          41.500  
 11  3 22 20 31 45.0000000  0 10G11G12G14G18G19G20G22G24G25G31      
  22097378.344 6        58.911 6  -4100860.731 6  -3164517.24548  22097369.06348
        47.000          34.500  
  25152084.977 5      -221.547 5  -1046226.968 5  -2291149.27346  25152078.80146
        40.500          20.250  
  21472698.141 6     -1951.726 6   4782177.982 6   3732981.70248  21472688.56648
        47.500          36.500  
  24840727.508 4     -2955.495 4   8726224.303 4   6793700.43845  24840722.21145
        37.500          17.750  
  25271676.836 4     -2688.173 4   8345567.584 4   6496630.54546  25271670.60246
        38.500          22.250  
  24611317.523 5      3240.956 5  -3590828.049 5  -4176546.95946  24611309.82446
        40.250          19.000  
  22251649.625 6     -2252.407 6   5671808.097 6   4422853.96148  22251639.28948
        46.000          35.000  
  21817122.891 7      1526.943 7  -8326266.978 7  -6456805.71548  21817115.66048
        50.000          36.250  
  24322030.766 5      1538.071 5  -2696427.409 5  -2080632.82546  24322025.52746
        40.500          24.750  
  20837445.352 7      1769.913 7  -9383715.285 7  -7258324.14949  20837435.66049
        50.750          41.500  
 11  3 22 20 32  0.0000000  0 10G11G12G14G18G19G20G22G24G25G31      
  22097236.172 7        49.670 7  -4101605.780 7  -3165097.80648  22097227.77048
        47.750          33.750  
  25152743.656 6      -230.166 6  -1042774.476 6  -2288459.02446  25152736.13346
        42.750          22.750  
  21478277.695 6     -1954.681 6   4811498.194 6   3755828.60548  21478268.06348
        47.000          36.500  
  24849171.094 3     -2957.742 3   8770590.437 3   6828271.40245  24849165.44545
        36.750          16.250  
  25279347.789 5     -2687.557 5   8385880.941 5   6528043.49246  25279342.55146
        39.750          22.500  
  24602065.914 5      3241.099 5  -3639444.531 5  -4214429.88145  24602057.98045
        39.500          18.250  
  22258090.344 6     -2256.586 6   5705656.894 6   4449229.62648  22258080.30148
        46.500          34.750  
  21812787.773 7      1518.680 7  -8349047.174 7  -6474556.51348  21812780.66048
        49.000          36.000  
  24317658.438 5      1531.688 5  -2719402.729 5  -2098535.66346  24317654.19546
        39.500          23.750  
  20832418.734 7      1761.030 7  -9410130.738 7  -7278907.60249  20832409.04349
        50.500          41.750  
 11  3 22 20 32 15.0000000  0 10G11G12G14G18G19G20G22G24G25G31      
  22097121.195 6        40.382 6  -4102211.509 6  -3165569.80748  22097112.14848
        46.000          34.000  
  25153423.203 4      -238.832 4  -1039191.995 4  -2285667.44246  25153416.73446
        38.500          20.500  
  21483865.367 6     -1957.667 6   4840863.192 6   3778710.41148  21483856.08648
        46.250          36.500  
  24857619.633 4     -2960.035 4   8814990.958 4   6862869.18445  24857613.80945
        37.500          15.500  
  25287018.188 5     -2686.980 5   8426185.639 5   6559449.69046  25287012.36346
        40.250          22.750  
  24592813.852 4      3241.184 4  -3688062.287 4  -4252313.83345  24592805.97745
        39.000          16.750  
  22264544.242 6     -2260.814 6   5739569.109 6   4475654.70648  22264533.73048
        46.250          34.750  
  21808476.875 7      1510.353 7  -8371702.475 7  -6492209.98748  21808469.17648
        49.750          36.500  
  24313304.570 4      1525.236 4  -2742281.276 4  -2116363.05846  24313300.38746
        39.000          24.750  
  20827417.250 7      1752.092 7  -9436412.113 7  -7299386.57449  20827408.37949
        50.500          42.000  
 11  3 22 20 32 30.0000000  0 10G11G12G14G18G19G20G22G24G25G31      
  22097032.250 6        31.057 6  -4102677.359 6  -3165932.80948  22097023.61348
        45.500          34.500  
  25154130.742 5      -247.533 5  -1035478.994 5  -2282774.20546  25154123.10246
        42.250          20.750  
  21489462.031 7     -1960.685 7   4870273.460 7   3801627.48648  21489452.75048
        48.750          36.500  
  24866075.523 4     -2962.352 4   8859426.234 4   6897494.07845  24866070.16845
        37.500          15.500  
  25294685.734 5     -2686.421 5   8466481.947 5   6590849.34546  25294680.37946
        41.500          23.000  
  24583563.172 5      3241.230 5  -3736680.737 5  -4290198.35145  24583554.82845
        40.500          18.250  
  22271009.453 6     -2265.076 6   5773545.255 6   4502129.59348  22270999.35248
        46.750          35.000  
  21804189.805 7      1501.972 7  -8394232.057 7  -6509765.50148  21804182.28148
        49.250          36.500  
  24308969.063 4      1518.729 4  -2765062.209 4  -2134114.40746  24308965.52346
        37.750          24.000  
  20822441.820 7      1743.092 7  -9462558.496 7  -7319760.35949  20822433.24249
        50.500          41.750  
 11  3 22 20 32 45.0000000  0 10G11G12G14G18G19G20G22G24G25G31      
  22096969.859 6        21.837 6  -4103004.914 6  -3166188.04748  22096961.45748
        44.750          33.750  
  25154861.258 5      -256.156 5  -1031636.647 5  -2279780.19246  25154854.73046
        39.500          21.750  
  21495066.945 6     -1963.588 6   4899727.274 6   3824578.50048  21495057.31348
        47.250          36.250  
  24874538.469 4     -2964.578 4   8903894.900 4   6932145.00245  24874532.82045
        38.000          15.500  
  25302350.742 5     -2685.736 5   8506767.981 5   6622241.02646  25302347.14546
        39.250          24.500  
  24574311.086 5      3241.357 5  -3785301.089 5  -4328084.30046  24574302.21546
        40.500          19.000  
  22277486.836 6     -2269.243 6   5807583.895 6   4528653.17948  22277476.20748
        46.750          34.750  
  21799926.031 7      1493.669 7  -8416637.085 7  -6527223.96548  21799918.56648
        48.750          35.750  
  24304652.180 3      1512.296 3  -2787746.643 3  -2151790.56246  24304648.81646
        36.750          22.750  
  20817491.703 7      1734.174 7  -9488571.111 7  -7340029.90749  20817482.12949
        50.750          42.000  
 11  3 22 20 33  0.0000000  0 10G11G12G14G18G19G20G22G24G25G31      
  22096934.172 6        12.510 6  -4103192.557 6  -3166334.26647  22096925.35947
        45.250          33.500  
  25155617.359 5      -264.874 5  -1027663.537 5  -2276684.21546  25155610.65646
        39.250          20.500  
  21500680.383 6     -1966.600 6   4929226.276 6   3847564.72648  21500670.57448
        46.000          36.750  
  24883006.109 3     -2966.909 3   8948398.532 3                
        36.750  
  25310016.039 5     -2685.144 5   8547045.137 5   6653625.72646  25310011.44546
        39.250          22.500  
  24565057.578 4      3241.357 4  -3833921.445 4  -4365970.25046  24565050.17246
        38.500          19.750  
  22283976.969 6     -2273.518 6   5841686.669 6   4555226.74848  22283966.04748
        46.750          34.750  
  21795685.953 7      1485.242 7  -8438915.722 7  -6544583.93048  21795678.78148
        48.500          36.000  
  24300355.023 4      1505.727 4  -2810332.541 4  -2169389.93346  24300350.89846
        37.500          23.250  
  20812567.383 7      1725.137 7  -9514448.158 7  -7360193.81949  20812558.33649
        51.250          41.500  
 11  3 22 20 33 15.0000000  0 10G11G12G14G18G19G20G22G24G25G31      
  22096925.203 6         3.279 6  -4103241.750 6  -3166372.60948  22096916.03948
        45.500          33.750  
  25156400.016 5      -273.494 5  -1023561.125 5  -2273487.55646  25156391.43846
        41.500          21.500  
  21506301.984 6     -1969.487 6   4958768.581 6   3870584.69248  21506292.46948
        46.250          36.250  
  24891480.992 3     -2969.121 3   8992935.353 3                
        36.500  
  25317680.461 5     -2684.408 5   8587311.264 5   6685001.86346  25317673.64146
        42.000          24.250  
  24555805.016 4      3241.461 4  -3882543.356 4  -4403857.39245  24555798.31345
        38.000          18.500  
  22290478.328 6     -2277.670 6   5875851.719 6   4581848.83647  22290467.23047
        46.500          33.500  
  21791471.031 7      1476.922 7  -8461069.548 7  -6561846.65048  21791463.39148
        49.250          36.500  
  24296075.813 4      1499.252 4  -2832821.323 4  -2186913.62946  24296071.16046
        38.500          25.500  
  20807669.336 7      1716.199 7  -9540191.149 7  -7380253.28049  20807659.11749
        50.000          41.750  
 11  3 22 20 33 30.0000000  0 11G11G12G14G18G19G20G22G23G24G25G31   
  22096942.000 6        -5.865 6  -4103153.778 6  -3166304.05947  22096933.12947
        45.250          33.500  
  25157202.156 5      -282.050 5  -1019330.373 5  -2270190.85346  25157196.56646
        39.750          20.250  
  21511931.758 6     -1972.301 6   4988353.101 6   3893637.55348  21511922.41848
        45.750          36.000  
  24899963.086 3     -2971.263 3   9037504.299 3                
        36.750  
  25325340.172 5     -2683.586 5   8627565.059 5   6716368.42246  25325334.05546
        41.500          22.500  
  24546552.945 3      3241.626 3  -3931167.740 3  -4441746.54445  24546544.89545
        37.000          17.250  
  22296990.828 6     -2281.759 6   5910078.104 6   4608518.72948  22296980.14148
        46.500          35.000  
  25785332.10913      2896.57813   -101937.23413                
        36.750  
  21787278.727 7      1468.646 7  -8483099.238 7  -6579012.63548  21787271.20348
        49.250          36.500  
  24291813.945 5      1492.824 5  -2855213.688 5  -2204362.18046  24291809.76246
        40.000          24.500  
  20802795.313 7      1707.303 7  -9565800.695 7  -7400208.74449  20802786.32449
        50.500          41.750  
 11  3 22 20 33 45.0000000  0 11G11G12G14G18G19G20G22G23G24G25G31   
  22096985.516 6       -15.341 6  -4102923.670 6  -3166124.75948  22096976.64548
        44.750          34.000  
  25158034.289 5      -290.937 5  -1014966.320 5  -2266790.27046  25158026.88346
        41.500          19.250  
  21517570.344 6     -1975.430 6   5017984.544 6   3916726.97548  21517561.12148
        46.000          35.750  
  24908451.820 3     -2973.732 3   9082110.281 3                
        36.750  
  25332996.555 5     -2683.082 5   8667811.285 5   6747729.04246  25332992.37146
        39.500          22.000  
  24537301.586 4      3241.448 4  -3979789.455 4  -4479633.55045  24537292.59845
        38.750          18.500  
  22303516.469 6     -2286.192 6   5944370.978 6   4635240.42048  22303506.01648
        46.250          34.750  
  25777064.211 1      2895.736 1   -145373.269 1                
        33.750  
  21783111.180 7      1460.029 7  -8504999.674 7  -6596077.90848  21783103.71548
        49.500          36.750  
  24287572.383 5      1486.042 5  -2877504.322 5  -2221731.48746  24287568.02346
        41.750          22.750  
  20797948.375 7      1698.078 7  -9591271.869 7  -7420056.40249  20797939.32849
        50.750          41.500  
 11  3 22 20 34  0.0000000  0 11G11G12G14G18G19G20G22G23G24G25G31   
  22097055.578 6       -24.528 6  -4102555.747 6  -3165838.07348  22097046.64848
        45.000          34.000  
  25158889.563 5      -299.540 5  -1010473.214 5  -2263289.15346  25158881.57046
        41.000          21.000  
  21523217.148 6     -1978.261 6   5047658.466 6   3939849.49748  21523208.27748
        46.750          36.500  
  24916945.070 4     -2975.901 4   9126748.793 4                
        38.250  
  25340654.266 5     -2682.251 5   8708045.049 5   6779079.94246  25340648.91046
        41.500          22.500  
  24528048.242 4      3241.550 4  -4028412.702 4  -4517521.80345  24528040.42645
        39.000          18.500  
  22310054.539 6     -2290.308 6   5978725.601 6   4662010.22748  22310043.85248
        45.250          34.000  
  25768806.313 4      2894.827 4   -188795.667 4    -98857.01656  25768797.03156
        37.750          20.000  
  21778967.273 7      1451.689 7  -8526775.009 7  -6613045.70248  21778959.80948
        49.750          37.000  
  24283348.656 5      1479.529 5  -2899697.257 5  -2239024.64746  24283345.05946
        41.750          23.500  
  20793127.211 7      1689.120 7  -9616608.662 7  -7439799.33849  20793117.57849
        50.000          42.250  
 11  3 22 20 34 15.0000000  0 11G11G12G14G18G19G20G22G23G24G25G31   
  22097152.102 6       -33.773 6  -4102049.148 6  -3165443.32348  22097143.23048
        46.250          34.250  
  25159767.070 5      -308.205 5  -1005850.143 5  -2259686.73446  25159761.71546
        39.750          21.000  
  21528872.648 6     -1981.141 6   5077375.580 6   3963005.68148  21528862.89848
        46.500          36.000  
  24925446.656 3     -2978.125 3   9171420.661 3                
        37.250  
  25348308.492 5     -2681.460 5   8748266.943 5   6810421.65746  25348303.02046
        41.250          21.500  
  24518796.039 4      3241.584 4  -4077036.467 4  -4555410.38245  24518786.81645
        38.750          18.250  
  22316604.148 6     -2294.493 6   6013142.998 6   4688828.95148  22316593.46148
        46.500          34.750  
  25760547.719 5      2893.841 5   -232203.280 5   -132681.10346  25760537.26646
        42.250          22.250  
  21774848.047 7      1443.278 7  -8548424.176 7  -6629915.17448  21774840.64148
        50.000          36.750  
  24279144.367 5      1472.935 5  -2921791.287 5  -2256240.75146  24279140.24246
        41.250          24.000  
  20788331.141 7      1680.091 7  -9641810.026 7  -7459436.73449  20788321.91849
        50.250          42.250  
 11  3 22 20 34 30.0000000  0 11G11G12G14G18G19G20G22G23G24G25G31   
  22097274.820 6       -43.025 6  -4101403.774 6  -3164940.43848  22097265.65648
        47.000          34.000  
  25160674.352 5      -316.883 5  -1001096.894 5  -2255982.91046  25160666.65246
        41.750          20.000  
  21534535.625 6     -1984.011 6   5107135.751 6   3986195.40748  21534526.28548
        46.750          36.250  
  24933953.344 3     -2980.354 3   9216125.977 3                
        36.000  
  25355960.875 5     -2680.675 5   8788477.066 5   6841754.12046  25355954.64146
        41.000          23.500  
  24509541.883 4      3241.594 4  -4125660.382 4  -4593299.09545  24509534.24245
        38.250          18.500  
  22323165.297 6     -2298.688 6   6047623.319 6   4715696.70448  22323153.78948
        46.500          34.750  
  25752289.406 6      2892.838 6   -275595.847 6   -166493.46646  25752280.18446
        42.500          24.000  
  21770752.180 7      1434.842 7  -8569946.806 7  -6646686.05348  21770744.59848
        49.250          36.500  
  24274958.867 5      1466.311 5  -2943785.950 5  -2273379.42646  24274955.27046
        42.250          24.500  
  20783561.695 7      1671.036 7  -9666875.570 7  -7478968.31949  20783552.64849
        50.500          41.500  
 11  3 22 20 34 45.0000000  0 11G11G12G14G18G19G20G22G23G24G25G31   
  22097424.336 7       -52.281 7  -4100619.552 7  -3164329.36248  22097415.40648
        48.250          33.750  
  25161601.883 4      -325.573 4   -996213.294 4  -2252177.53646  25161595.00446
        39.000          20.750  
  21540206.867 6     -1986.895 6   5136939.171 6   4009418.83948  21540197.76248
        47.500          36.500  
  24942466.719 2     -2982.590 2   9260864.831 2                
        35.500  
  25363609.273 5     -2679.860 5   8828674.962 5   6873077.10746  25363604.03546
        41.500          21.250  
  24500289.258 3      3241.586 3  -4174284.173 3  -4631187.75446  24500281.55946
        36.500          19.750  
  22329738.031 6     -2302.888 6   6082166.639 6   4742613.55448  22329727.75448
        45.750          34.000  
  25744030.516 3      2891.813 3   -318973.043 3   -200293.86746  25744025.80546
        36.250          24.000  
  21766680.773 7      1426.377 7  -8591342.460 7  -6663357.98148  21766673.13348
        50.250          37.000  
  24270793.234 5      1459.655 5  -2965680.778 5  -2290440.31346  24270788.58246
        42.000          25.750  
  20778817.383 7      1661.965 7  -9691805.045 7  -7498393.86249  20778808.10249
        49.750          42.000  
 11  3 22 20 35  0.0000000  0 11G11G12G14G18G19G20G22G23G24G25G31   
  22097599.875 7       -61.591 7  -4099695.683 7  -3163609.46748  22097591.12148
        48.500          34.000  
  25162557.305 5      -334.309 5   -991198.664 5  -2248269.96946  25162548.55146
        41.750          20.250  
  21545886.430 6     -1989.818 6   5166786.447 6   4032676.44648  21545877.20748
        47.000          36.000  
  24950987.539 1     -2984.888 1   9305638.147 1                
        33.750  
  25371256.547 5     -2679.083 5   8868861.205 5   6904390.99146  25371251.66046
        41.000          21.750  
  24491037.000 4      3241.509 4  -4222906.815 4  -4669075.53145  24491028.53945
        37.500          18.250  
  22336323.492 6     -2307.145 6   6116773.811 6   4769580.16048  22336313.39148
        46.000          34.250  
  25735779.656 2      2890.731 2   -362334.012 2   -234081.73946  25735773.65646
        35.250          22.750  
  21762633.641 7      1417.845 7  -8612610.134 7  -6679930.19948  21762626.05948
        48.750          36.500  
  24266645.422 5      1452.927 5  -2987474.681 5  -2307422.54546  24266641.29746
        42.250          24.750  
  20774099.625 7      1652.824 7  -9716597.411 7  -7517712.57849  20774090.57849
        49.750          42.000  
 11  3 22 20 35 15.0000000  0 11G11G12G14G18G19G20G22G23G24G25G31   
  22097801.922 7       -70.766 7  -4098634.187 7  -3162782.33747  22097793.05147
        48.000          33.500  
  25163536.852 5      -342.942 5   -986054.532 5  -2244261.55146  25163528.39146
        42.000          21.000  
  21551574.242 6     -1992.601 6   5196675.467 6   4055966.57548  21551564.96148
        47.500          36.000  
  24959513.680 1     -2987.047 1   9350443.847 1                
        33.000  
  25378900.805 5     -2678.154 5   8909033.514 5   6935694.03746  25378895.85946
        40.500          21.750  
  24481784.125 4      3241.564 4  -4271530.270 4  -4706963.91146  24481776.25046
        37.500          19.000  
  22342921.063 6     -2311.264 6   6151442.778 6   4796594.91747  22342910.49247
        46.250          33.500  
  25727534.844 5      2889.779 5   -405680.698 5   -267858.40546  25727525.27046
        40.000          25.250  
  21758610.414 7      1409.432 7  -8633751.619 7  -6696404.07848  21758603.06648
        49.250          37.000  
  24262516.891 6      1446.304 6  -3009169.238 6  -2324327.36946  24262513.00046
        42.500          25.000  
  20769407.680 7      1643.802 7  -9741254.447 7  -7536925.82749  20769398.69149
        49.500          42.250  
 11  3 22 20 35 30.0000000  0 11G11G12G14G18G19G20G22G23G24G25G31   
  22098030.453 7       -80.044 7  -4097433.519 7  -3161846.76048  22098021.11348
        48.000          34.000  
  25164538.023 4      -351.670 4   -980779.486 4  -2240151.09946  25164532.78546
        38.750          19.750  
  21557269.727 7     -1995.478 7   5226607.636 7   4079290.32948  21557261.03148
        48.000          36.000  
  24968045.570 1     -2989.293 1   9395283.246 1                
        32.250  
  25386543.344 5     -2677.308 5   8949193.131 5   6966987.18246  25386538.34046
        40.500          22.500  
  24472532.164 4      3241.491 4  -4320152.632 4  -4744851.44645  24472523.46945
        38.000          18.500  
  22349530.969 6     -2315.496 6   6186175.225 6   4823659.13648  22349520.57448
        46.500          34.500  
  25719286.672 5      2888.733 5   -449011.692 5   -301622.85146  25719280.32046
        39.500          25.250  
  21754611.992 7      1400.890 7  -8654764.975 7  -6712778.11448  21754604.23448
        50.000          36.250  
  24258407.625 5      1439.551 5  -3030762.507 5  -2341153.28246  24258404.26246
        42.000          24.500  
  20764741.617 7      1634.655 7  -9765774.277 7  -7556032.17449  20764732.21949
        50.500          41.500  
 11  3 22 20 35 45.0000000  0 11G11G12G14G18G19G20G22G23G24G25G31   
  22098285.180 7       -89.270 7  -4096094.471 7  -3160803.34948  22098276.19148
        48.750          33.750  
  25165569.805 6      -360.331 6   -975374.528 6  -2235939.43246  25165560.46546
        42.750          20.750  
  21562974.266 7     -1998.293 7   5256582.033 7   4102646.98448  21562964.51648
        48.500          36.000  
  24976583.445 1     -2991.498 1   9440155.718 1                
        30.250  
  25394183.016 5     -2676.389 5   8989338.969 5   6998269.57646  25394178.07046
        42.000          22.750  
  24463279.516 4      3241.465 4  -4368774.612 4  -4782738.66546  24463271.23046
        38.000          19.250  
  22356152.094 6     -2319.668 6   6220970.240 6   4850772.10448  22356141.93448
        46.500          34.500  
  25711045.555 5      2887.731 5   -492327.664 5   -335375.60347  25711037.73847
        42.000          26.500  
  21750637.164 7      1392.393 7  -8675650.872 7  -6729052.84248  21750629.52348
        49.250          36.750  
  24254318.320 5      1432.838 5  -3052255.074 5  -2357900.71246  24254313.66846
        41.250          25.250  
  20760101.688 7      1625.548 7  -9790157.491 7  -7575032.06449  20760092.40649
        51.000          41.750  
 11  3 22 20 36  0.0000000  0 11G11G12G14G18G19G20G22G23G24G25G31   
  22098566.188 6       -98.396 6  -4094618.529 6  -3159653.27348  22098556.78948
        46.000          34.000  
  25166621.625 5      -368.909 5   -969840.895 5  -2231627.51846  25166615.21546
        41.250          22.500  
  21568685.867 7     -2001.008 7   5286597.149 7   4126035.36848  21568676.46948
        48.000          36.000  
  24985129.61711     -2994.70311                                
        29.000  
  25401820.813 5     -2675.357 5   9029469.331 5   7029539.97246  25401814.22746
        41.500          22.000  
  24454027.273 3      3241.516 3  -4417397.347 3  -4820626.46546  24454018.63746
        37.250          19.500  
  22362785.008 6     -2323.743 6   6255826.380 6   4877932.70248  22362774.90648
        46.500          34.000  
  25702806.930 6      2886.821 6   -535629.973 6   -369117.62346  25702797.00446
        45.000          25.250  
  21746686.805 7      1383.985 7  -8696410.641 7  -6745229.27648  21746679.28148
        48.000          36.500  
  24250247.258 4      1426.197 4  -3073648.036 4  -2374570.53846  24250243.01646
        39.000          26.000  
  20755487.688 7      1616.549 7  -9814405.722 7  -7593926.76649  20755478.23049
        50.000          42.000  
 11  3 22 20 36 15.0000000  0 11G11G12G14G18G19G20G22G23G24G25G31   
  22098873.391 6      -107.740 6  -4093002.429 6  -3158393.98248  22098864.52048
        47.500          34.250  
  25167698.344 5      -377.709 5   -964175.260 5  -2227212.68846  25167693.28146
        41.000          19.750  
  21574405.977 7     -2003.932 7   5316656.126 7   4149457.92348  21574396.93048
        48.250          36.750  
  24993681.00011     -2996.79711                                
        29.000  
  25409453.414 5     -2674.522 5   9069587.156 5   7060800.54346  25409448.52746
        40.500          20.500  
  24444773.602 2      3241.338 2  -4466017.419 2  -4858512.19146  24444766.48846
        35.000          19.000  
  22369430.344 6     -2328.039 6   6290746.960 6   4905143.52248  22369419.30548
        46.750          34.000  
  25694566.227 5      2885.679 5   -578915.158 5   -402846.28046  25694559.99246
        42.250          21.750  
  21742761.297 7      1375.335 7  -8717040.666 7  -6761304.62548  21742753.59848
        48.250          36.500  
  24246195.781 5      1419.310 5  -3094937.691 5  -2391159.87047  24246191.71547
        39.250          26.500  
  20750899.250 7      1607.295 7  -9838515.150 7  -7612713.31749  20750890.20349
        50.750          42.000  
 11  3 22 20 36 30.0000000  0 11G11G12G14G18G19G20G22G23G24G25G31   
  22099207.469 7      -116.988 7  -4091247.604 7  -3157026.59548  22099198.83248
        48.500          34.000  
  25168804.047 6      -386.437 6   -958378.702 6  -2222695.98446  25168794.35546
        43.250          20.500  
  21580134.063 7     -2006.752 7   5346757.410 7   4172913.46348  21580124.72348
        48.250          36.250  
  25002238.33611     -2999.48411                                
        28.250  
  25417084.781 5     -2673.579 5   9109690.836 5   7092050.07046  25417079.83646
        39.750          21.500  
  24435522.578 3      3241.244 3  -4514636.081 3  -4896396.84646  24435514.76246
        36.500          19.250  
  22376087.563 6     -2332.233 6   6325730.461 6   4932403.35847  22376076.93447
        47.500          33.500  
  25686329.211 4      2884.608 4   -622184.276 4   -436562.49846  25686326.25846
        38.000          19.000  
  21738859.867 6      1366.763 6  -8737542.114 6  -6777279.77948  21738852.16848
        47.500          37.000  
  24242164.594 5      1412.501 5  -3116125.208 5  -2407669.61447  24242159.82447
        39.750          26.500  
  20746337.641 7      1598.121 7  -9862486.967 7  -7631392.63849  20746328.71149
        51.000          42.000  
 11  3 22 20 36 45.0000000  0 11G11G12G14G18G19G20G22G23G24G25G31   
  22099567.477 6      -126.165 6  -4089355.124 6  -3155551.94747  22099558.60547
        47.500          33.500  
  25169928.383 4      -395.084 4   -952452.437 4  -2218078.10046  25169923.49646
        39.000          21.000  
  21585869.742 6     -2009.495 6   5376899.839 6   4196401.05048  21585860.93048
        47.000          36.250  
  25010802.85911     -3001.35911                                
        29.250  
  25424714.438 5     -2672.544 5   9149779.000 5   7123287.53146  25424708.49646
        40.500          22.250  
  24426270.984 4      3241.194 4  -4563253.984 4  -4934280.89346  24426263.22746
        38.000          19.500  
  22382756.500 6     -2336.364 6   6360775.924 6   4959711.49348  22382745.98848
        47.000          34.000  
  25678105.773 5      2883.627 5   -665438.674 5   -470267.02945  25678095.37945
        41.750          16.750  
  21734982.766 7      1358.239 7  -8757915.701 7  -6793155.29948  21734975.47748
        49.000          36.250  
  24238152.000 5      1405.728 5  -3137211.133 5  -2424100.18346  24238147.40646
        40.000          25.750  
  20741802.148 7      1588.998 7  -9886321.932 7  -7649965.31549  20741792.80949
        50.750          42.000  
 11  3 22 20 37  0.0000000  0 11G11G12G14G18G19G20G22G23G24G25G31   
  22099954.063 7      -135.406 7  -4087324.029 7  -3153969.27548  22099945.19148
        48.500          33.750  
  25171084.797 6      -403.792 6   -946395.554 6  -2213358.36146  25171077.27346
        44.000          20.500  
  21591614.094 7     -2012.289 7   5407084.173 7   4219921.29148  21591604.05148
        47.750          36.000  
  25019372.83611     -3003.48411                                
        29.000  
  25432339.508 5     -2671.536 5   9189852.038 5   7154513.25446  25432334.62146
        40.000          20.250  
  24417019.555 3      3241.077 3  -4611870.134 3  -4972163.59046  24417011.85546
        36.750          19.750  
  22389437.063 6     -2340.553 6   6395884.217 6   4987068.58148  22389426.72748
        47.250          34.250  
  25669877.820 4      2882.581 4   -708677.389 4   -503959.39245  25669866.54745
        38.500          17.750  
  21731130.086 7      1349.649 7  -8778160.442 7  -6808930.42248  21731123.26648
        48.750          37.000  
  24234158.258 6      1398.884 6  -3158194.393 6  -2440450.77546  24234154.48446
        43.000          25.000  
  20737292.734 7      1579.811 7  -9910019.096 7  -7668430.62149  20737283.51249
        50.250          42.000  
 11  3 22 20 37 15.0000000  0 11G11G12G14G18G19G20G22G23G24G25G31   
  22100362.625 7      -143.026 7  -4085178.638 7  -3152297.55548  22100353.46148
        48.000          34.000  
  25172255.320 5      -410.907 5   -940231.949 5  -2208555.64846  25172246.80146
        39.500          19.750  
  21597361.133 6     -2013.463 6   5437286.111 6   4243455.26048  21597351.91048
        47.500          36.250  
  25027944.99211     -3005.51611  -1317883.56011                
        28.750  
  25439957.352 4     -2668.906 4   9229885.634 4   7185708.24146  25439952.23046
        38.500          19.000  
  24407763.977 4      3242.559 4  -4660508.524 4  -5010063.56045  24407755.75045
        37.500          18.500  
  22396125.156 6     -2343.131 6   6431031.185 6   5014455.80048  22396115.40648
        47.500          34.750  
  25661682.180 2      2883.160 2   -751924.790 2   -537658.36245  25661636.38345
        35.000          14.750  
  21727298.039 7      1342.655 7  -8798300.263 7  -6824623.78348  21727290.04748
        49.250          36.750  
  24230180.766 6      1393.629 6  -3179098.835 6  -2456739.94447  24230176.28947
        43.500          27.000  
  20732804.906 7      1572.225 7  -9933602.468 7  -7686807.25749  20732795.50849
        51.000          42.000  
 11  3 22 20 37 30.0000000  0 11G11G12G14G18G19G20G22G23G24G25G31   
  22100801.313 7      -153.757 7  -4082872.279 7  -3150500.39147  22100792.44147
        48.250          33.500  
  25173458.031 5      -421.124 5   -933915.087 5  -2203633.31146  25173450.44946
        42.000          20.250  
  21603120.578 6     -2017.735 6   5467552.143 6   4267039.16548  21603111.00448
        47.500          36.000  
  25036529.35211     -3007.29711                                
        30.000  
  25447577.328 5     -2669.373 5   9269926.222 5   7216908.55546  25447572.50046
        40.000          21.500  
  24398512.484 3      3240.934 3  -4709122.533 3  -5047944.62345  24398504.55145
        36.000          18.500  
  22402829.930 7     -2348.826 7   6466263.574 7   5041909.57748  22402819.35948
        47.750          35.000  
  25653432.727 3      2880.571 3   -795133.358 3   -571327.29745  25653414.53545
        36.750          13.750  
  21723494.047 7      1332.526 7  -8818288.154 7  -6840198.75548  21723486.46548
        48.500          36.500  
  24226226.289 5      1385.236 5  -3199877.373 5  -2472931.00546  24226222.22346
        40.750          26.000  
  20728347.750 7      1561.501 7  -9957024.988 7  -7705058.55549  20728338.58649
        51.750          41.750  
 11  3 22 20 37 45.0000000  0 10G11G12G14G18G19G20G22G24G25G31      
  22101271.492 7      -164.748 7  -4080401.055 7  -3148574.77148  22101262.91448
        47.750          34.000  
  25174690.883 6      -431.620 6   -927440.789 6  -2198588.46746  25174683.71146
        43.250          21.500  
  21608892.789 7     -2022.275 7   5497886.272 7   4290676.12948  21608883.68448
        47.750          36.000  
  25045121.34411     -3010.00011                                
        30.000  
  25455200.031 5     -2670.075 5   9309977.352 5   7248117.16946  25455193.91446
        41.500          22.250  
  24389267.430 3      3239.015 3  -4757707.763 3  -5085803.23046  24389259.67246
        37.250          20.000  
  22409551.641 6     -2354.784 6   6501585.333 6   5069432.99848  22409541.18848
        47.500          34.750  
  21719720.656 7      1322.125 7  -8838120.035 7  -6855652.16848  21719712.89848
        49.000          37.000  
  24222297.508 5      1376.554 5  -3220525.686 5  -2489020.58946  24222292.91446
        40.500          24.500  
  20723922.148 7      1550.520 7  -9980282.791 7  -7723181.50149  20723912.51649
        50.750          42.000  
 11  3 22 20 38  0.0000000  0 11G11G12G14G18G19G20G22G23G24G25G31   
  22101763.469 7      -172.279 7  -4077816.871 7  -3146561.12347  22101754.36347
        48.000          33.500  
  25175938.461 4      -438.632 4   -920861.309 4  -2193461.59545  25175933.51645
        37.500          18.500  
  21614667.984 7     -2023.335 7   5528236.301 7   4314325.48848  21614658.93848
        48.000          35.500  
  25053717.773 1     -3012.219 1  -1182454.206 1                
        31.500  
  25462812.914 5     -2667.300 5   9349986.848 5   7279293.32846  25462807.03146
        40.250          20.000  
  24380017.594 3      3240.547 3  -4806315.967 3  -5123679.71146  24380009.95346
        36.250          20.000  
  22416279.859 6     -2357.265 6   6536944.313 6   5096985.41948  22416269.52348
        47.000          34.500  
  25637023.08613      2878.06313                                
        37.250  
  21715966.289 7      1315.176 7  -8857847.676 7  -6871024.35148  21715958.88348
        49.250          36.250  
  24218383.023 6      1371.322 6  -3241095.521 6  -2505049.04046  24218378.66446
        43.250          26.000  
  20719517.805 7      1542.970 7 -10003427.346 7  -7741216.20249  20719508.58249
        51.750          42.250  
 11  3 22 20 38 15.0000000  0 11G11G12G14G18G19G20G22G23G24G25G31   
  22102275.938 6      -179.623 6  -4075122.519 6  -3144461.64148  22102267.30148
        46.750          34.000  
  25177215.727 6      -445.485 6   -914179.036 6  -2188254.63946  25177207.03146
        44.000          20.750  
  21620446.305 6     -2024.207 6   5558599.409 6   4337985.03648  21620436.90648
        47.500          36.000  
  25062313.28111         0.00011  -1137281.93411                
        33.500  
  25470417.492 4     -2664.332 4   9389951.830 4   7310434.86345  25470411.19945
        38.500          16.750  
  24370761.805 3      3242.250 3  -4854949.724 3  -5161576.08546  24370754.92646
        36.750          19.750  
  22423015.352 6     -2359.579 6   6572337.997 6   5124564.88448  22423004.78148
        47.000          34.000  
  25628815.508 3      2876.875 3   -547848.800 3                
        36.000  
  21712231.750 7      1308.395 7  -8877473.597 7  -6886317.27448  21712223.93448
        49.750          36.500  
  24214482.844 6      1366.243 6  -3261589.164 6  -2521018.11147  24214478.89547
        43.000          26.500  
  20715134.867 7      1535.589 7 -10026461.182 7  -7759164.62349  20715125.46949
        51.750          42.250  
 11  3 22 20 38 30.0000000  0 11G11G12G14G18G19G20G22G23G24G25G31   
  22102819.781 7      -190.532 7  -4072264.536 7  -3142234.64748  22102811.08648
        48.500          34.000  
  25178513.203 4      -455.902 4   -907340.507 4  -2182925.92946  25178509.48846
        38.250          21.250  
  21626236.797 7     -2028.637 7   5589028.969 7   4361696.36248  21626227.63348
        48.000          35.750  
  25070919.484 1     -3015.357 1  -1092051.578 1                
        32.500  
  25478024.766 5     -2664.900 5   9429925.333 5   7341582.96246  25478018.29746
        40.500          19.500  
  24361513.281 4      3240.376 4  -4903555.365 4  -5199450.58646  24361505.87546
        37.500          20.250  
  22429767.359 6     -2365.454 6   6607819.804 6   5152213.02748  22429756.73048
        46.500          34.500  
  25620599.641 5      2876.391 5   -590994.660 5                
        41.500  
  21708526.914 7      1298.032 7  -8896944.079 7  -6901489.07548  21708519.15648
        49.250          36.750  
  24210607.836 6      1357.579 6  -3281952.848 6  -2536885.91546  24210603.30146
        44.000          25.750  
  20710782.609 7      1524.624 7 -10049330.548 7  -7776984.89149  20710773.15249
        51.250          42.500  
 11  3 22 20 38 45.0000000  0 11G11G12G14G18G19G20G22G23G24G25G31   
  22103390.172 7      -199.808 7  -4069267.420 7  -3139899.23948  22103381.18448
        48.500          34.000  
  25179842.594 6      -464.686 6   -900370.212 6  -2177494.48946  25179833.43046
        44.250          19.500  
  21632035.000 6     -2031.435 6   5619500.491 6   4385440.38848  21632026.07048
        47.250          35.500  
  25079533.344 1     -3017.587 1  -1046787.779 1                
        33.750  
  25485627.719 5     -2663.815 5   9469882.557 5   7372718.39746  25485623.12546
        41.250          22.000  
  24352264.461 3      3240.107 3  -4952156.978 3  -5237321.94246  24352257.17246
        36.750          21.250  
  22436531.133 6     -2369.702 6   6643365.332 6   5179910.81048  22436520.91448
        47.000          34.250  
  25612394.469 3      2875.238 3   -634123.229 3  -1875328.30155  25612348.84855
        36.000          16.750  
  21704846.633 7      1289.278 7  -8916283.247 7  -6916558.55348  21704839.05148
        49.500          37.250  
  24206753.672 6      1350.519 6  -3302210.632 6  -2552671.19646  24206748.96146
        42.750          26.000  
  20706457.492 7      1515.281 7 -10072059.763 7  -7794695.94949  20706447.91849
        51.750          42.500  
 11  3 22 20 39  0.0000000  0 11G11G12G14G18G19G20G22G23G24G25G31   
  22103986.633 7      -208.980 7  -4066132.714 7  -3137456.61648  22103977.93848
        49.000          34.250  
  25181194.078 5      -473.392 5   -893269.331 5  -2171961.43946  25181185.67646
        41.250          22.000  
  21637842.016 6     -2034.121 6   5650012.302 6   4409215.81348  21637832.38348
        46.250          36.000  
  25088153.242 2     -3019.722 2  -1001491.953 2   -786339.00056  25088147.94556
        34.500          19.500  
  25493228.406 5     -2662.616 5   9509821.792 5   7403839.80646  25493223.28546
        39.250          20.750  
  24343017.000 3      3239.942 3  -5000756.114 3  -5275191.35246  24343009.06646
        37.000          19.750  
  22443306.977 6     -2373.844 6   6678972.995 6   5207657.01248  22443296.93448
        47.000          34.500  
  25604164.453 5      2874.189 5   -677236.064 5  -1908922.70045  25604145.14845
        40.000          13.750  
  21701191.148 7      1280.610 7  -8935492.397 7  -6931526.71748  21701183.15648
        49.250          36.500  
  24202917.789 6      1343.539 6  -3322363.713 6  -2568374.88647  24202913.84047
        43.500          27.500  
  20702158.625 7      1506.025 7 -10094650.136 7  -7812298.81849  20702149.16849
        50.750          42.000  
 11  3 22 20 39 15.0000000  0 11G11G12G14G18G19G20G22G23G24G25G31   
  22104614.516 7      -219.791 7  -4062835.842 7  -3134887.62948  22104605.64548
        48.000          34.500  
  25182571.250 5      -483.704 5   -886013.764 5  -2166307.63046  25182567.00846
        40.000          20.000  
  21643659.922 6     -2038.437 6   5680588.857 6   4433041.68348  21643650.87548
        47.250          35.250  
  25096782.781 1     -3023.481 1   -956139.737 1   -750999.64645  25096778.36345
        33.500          18.500  
  25500829.203 4     -2663.041 4   9549767.409 4   7434966.11445  25500823.73045
        38.250          18.250  
  24333773.961 2      3238.124 2  -5049327.969 2  -5313039.49646  24333766.43846
        35.500          21.500  
  22450099.625 6     -2379.624 6   6714667.361 6   5235470.77747  22450089.40647
        46.750          33.500  
  25595950.125 3      2871.477 3   -720308.212 3  -1942485.55645  25595947.81645
        35.750          15.500  
  21697565.266 7      1270.294 7  -8954546.813 7  -6946374.30748  21697557.56648
        50.000          36.750  
  24199107.617 5      1334.902 5  -3342387.241 5  -2583977.63047  24199103.43447
        42.000          27.500  
  20697890.914 7      1495.121 7 -10117076.956 7  -7829774.24249  20697881.39849
        51.500          42.000  
 11  3 22 20 39 30.0000000  0 11G11G12G14G18G19G20G22G23G24G25G31   
  22105262.953 7      -227.342 7  -4059425.713 7  -3132230.39748  22105253.73048
        48.250          34.000  
  25183976.258 6      -490.793 6   -878651.867 6  -2160571.16246  25183966.09846
        42.500          19.500  
  21649481.852 6     -2039.491 6   5711181.224 6   4456879.88248  21649472.39548
        47.000          35.500  
  25105415.375 2     -3023.995 2   -910779.808 2   -715654.26545  25105410.19545
        35.250          16.250  
  25508424.781 5     -2660.189 5   9589670.240 5   7466059.24946  25508417.37546
        42.000          19.250  
  24324526.758 4      3239.542 4  -5097921.099 4  -5350904.23846  24324519.76246
        38.000          21.500  
  22456899.469 6     -2382.153 6   6750399.662 6   5263314.08847  22456889.48447
        47.250          33.500  
  25587756.953 4      2872.031 4   -763388.670 4  -1976054.75646  25587750.66046
        38.000          19.750  
  21693959.289 7      1263.215 7  -8973495.044 7  -6961139.16348  21693951.29748
        49.250          36.750  
  24195313.453 6      1329.497 6  -3362329.700 6  -2599517.19647  24195308.68447
        43.250          26.500  
  20693644.773 7      1487.461 7 -10139388.874 7  -7847160.14049  20693635.49249
        50.500          42.250  
 11  3 22 20 39 45.0000000  0 11G11G12G14G18G19G20G22G23G24G25G31   
  22105938.055 7      -236.393 7  -4055879.815 7  -3129467.36448  22105929.24248
        48.500          33.750  
  25185397.023 4      -499.363 4   -871161.414 4  -2154734.44546  25185390.90646
        37.500          19.000  
  21655310.242 6     -2042.037 6   5741811.779 6   4480747.82648  21655301.25448
        47.500          35.500  
  25114051.742 3     -3025.991 3   -865389.940 3   -680285.58746  25114047.32446
        36.750          19.750  
  25516012.648 5     -2658.808 5   9629552.357 5   7497136.16246  25516007.29346
        42.000          21.500  
  24315279.109 3      3239.449 3  -5146512.837 3  -5388767.87846  24315272.87546
        36.250          21.500  
  22463710.609 6     -2386.179 6   6786192.351 6   5291204.46947  22463700.21547
        46.500          33.500  
  25579566.055 6      2871.099 6   -806455.162 6  -2009612.88145  25579554.48845
        44.000          16.750  
  21690378.305 7      1254.620 7  -8992314.337 7  -6975803.53548  21690370.84048
        49.500          36.250  
  24191537.148 6      1322.567 6  -3382168.202 6  -2614975.75046  24191533.25846
        43.000          26.250  
  20689425.266 7      1478.295 7 -10161563.305 7  -7864438.89349  20689415.80949
        51.750          42.500  
 11  3 22 20 40  0.0000000  0 11G11G12G14G18G19G20G22G23G24G25G31   
  22106639.172 7      -245.560 7  -4052196.418 7  -3126597.19148  22106629.89148
        49.000          34.000  
  25186851.484 6      -508.075 6   -863540.292 6  -2148795.88045  25186842.49645
        43.500          18.500  
  21661147.430 6     -2044.705 6   5772482.353 6   4504646.97048  21661137.91448
        46.750          35.500  
  25122695.578 3     -3028.129 3   -819968.011 3   -644891.91745  25122690.75045
        36.000          18.500  
  25523598.203 4     -2657.542 4   9669415.481 4   7528198.29146  25523593.90246
        39.000          22.000  
  24306033.492 3      3239.209 3  -5195100.971 3  -5426628.73646  24306025.85246
        35.750          22.000  
  22470533.539 6     -2390.325 6   6822047.222 6   5319143.30447  22470523.20347
        47.250          33.500  
  25571371.438 6      2870.017 6   -849505.413 6  -2043158.71445  25571361.45345
        44.750          14.750  
  21686821.844 7      1245.889 7  -9011002.678 7  -6990365.87648  21686814.43848
        48.500          36.750  
  24187783.508 6      1315.494 6  -3401900.611 6  -2630351.62847  24187778.79747
        43.750          27.000  
  20685232.313 7      1468.981 7 -10183598.021 7  -7881608.78349  20685223.09049
        51.750          42.000  
 11  3 22 20 40 15.0000000  0 11G11G12G14G18G19G20G22G23G24G25G31   
  22107365.563 7      -254.769 7  -4048374.889 7  -3123619.38948  22107356.69148
        48.000          34.000  
  25188323.930 5      -516.827 5   -855787.888 5  -2142755.08945  25188317.87145
        41.250          18.500  
  21666991.313 6     -2047.390 6   5803193.196 6   4528577.48148  21666981.79748
        47.250          36.250  
  25131345.758 4     -3030.291 4   -774513.641 4   -609472.97746  25131340.10946
        37.750          20.000  
  25531179.039 1     -2656.290 1   9709259.836 1   7559245.68946  25531175.44146
        33.250          19.750  
  24296789.133 4      3238.921 4  -5243684.780 4  -5464486.19946  24296781.43446
        37.500          22.000  
  22477368.477 6     -2394.508 6   6857964.835 6   5347131.02547  22477357.90647
        47.000          33.500  
  25563176.031 2      2868.884 2   -892538.671 2  -2076691.15845  25563172.84445
        35.000          16.250  
  21683290.945 7      1237.106 7  -9029559.265 7  -7004825.55248  21683283.53948
        48.750          37.250  
  24184048.438 6      1308.363 6  -3421526.056 6  -2645644.14747  24184044.25447
        43.500          26.500  
  20681066.211 7      1459.627 7 -10205492.430 7  -7898669.34549  20681056.75449
        51.500          42.000  
 11  3 22 20 40 30.0000000  0 11G11G12G14G18G19G20G22G23G24G25G31   
  22108119.727 7      -263.939 7  -4044415.810 7  -3120534.39748  22108110.50448
        48.500          34.000  
  25189825.695 5      -525.546 5   -847904.700 5  -2136612.32646  25189817.93846
        41.000          19.000  
  21672842.789 6     -2050.050 6   5833943.952 6   4552539.10148  21672833.44948
        46.250          35.250  
  25140001.625 4     -3032.410 4   -729027.486 4   -574029.27246  25139996.44546
        38.500          20.500  
  25538759.430 4     -2654.990 4   9749084.687 4   7590277.86845  25538754.07445
        38.250          17.250  
  24287544.844 4      3238.660 4  -5292264.679 4  -5502340.62046  24287537.08646
        37.500          22.000  
  22484215.398 6     -2398.662 6   6893944.760 6   5375167.31247  22484204.59447
        47.000          33.500  
  25554994.844 1      2867.796 1   -935555.606 1  -2110210.84245  25554986.96945
        33.500          13.750  
  21679784.430 7      1228.339 7  -9047984.346 7  -7019182.74948  21679776.96548
        48.250          36.750  
  24180333.859 6      1301.237 6  -3441044.618 6  -2660853.39747  24180329.91047
        43.500          26.500  
  20676926.242 7      1450.286 7 -10227246.714 7  -7915620.71249  20676916.84449
        51.500          42.250  
 11  3 22 20 40 45.0000000  0 11G11G12G14G18G19G20G22G23G24G25G31   
  22108898.422 7      -273.001 7  -4040320.794 7  -3117343.49048  22108889.43448
        49.000          34.500  
  25191350.500 6      -534.177 6   -839892.052 6  -2130368.73746  25191343.85546
        42.750          20.500  
  21678701.641 6     -2052.590 6   5864732.798 6   4576530.39448  21678692.18448
        46.250          36.000  
  25148662.453 4     -3034.426 4   -683511.093 4   -538561.97646  25148657.39146
        37.750          20.500  
  25546334.055 5     -2653.556 5   9788888.033 5   7621293.44045  25546326.70745
        41.500          16.750  
  24278300.367 4      3238.488 4  -5340842.000 4  -5540193.00446  24278292.84446
        38.000          22.000  
  22491073.383 6     -2402.713 6   6929985.455 6   5403250.93648  22491063.16448
        46.750          34.000  
  25546813.883 5      2866.794 5   -978557.509 5  -2143719.00945  25546803.84045
        40.000          13.750  
  21676303.180 7      1219.659 7  -9066279.231 7  -7033438.50048  21676295.59848
        47.750          37.000  
  24176639.953 6      1294.194 6  -3460457.529 6  -2675980.30647  24176635.41847
        44.250          26.500  
  20672812.813 7      1441.030 7 -10248862.171 7  -7932463.91049  20672803.41449
        51.000          42.000  
 11  3 22 20 41  0.0000000  0 11G11G12G14G18G19G20G22G23G24G25G31   
  22109704.258 7      -282.160 7  -4036088.397 7  -3114045.51648  22109695.09448
        48.750          34.000  
  25192898.156 4      -542.883 4   -831748.800 4  -2124023.32845  25192891.98045
        38.250          18.250  
  21684568.258 6     -2055.219 6   5895561.084 6   4600552.42648  21684559.09448
        47.250          35.750  
  25157330.656 4     -3036.541 4   -637962.983 4   -503070.01246  25157325.06646
        38.000          20.250  
  25553903.742 5     -2652.213 5   9828671.222 5   7652293.35545  25553897.21545
        39.250          17.250  
  24269056.977 4      3238.201 4  -5389415.022 4  -5578042.07546  24269050.27346
        37.500          22.500  
  22497943.492 6     -2406.863 6   6966088.401 6   5431383.07348  22497933.33248
        47.000          34.250  
  25538635.469 6      2865.692 6  -1021542.882 6  -2177213.90645  25538624.07845
        43.000          16.250  
  21672846.953 7      1210.873 7  -9084442.322 7  -7047591.54848  21672839.31348
        48.500          37.000  
  24172966.188 6      1287.036 6  -3479763.074 6  -2691023.52747  24172961.65247
        43.500          26.500  
  20668725.969 7      1431.664 7 -10270337.133 7  -7949197.62449  20668716.74649
        51.750          42.250  
 11  3 22 20 41 15.0000000  0 11G11G12G14G18G19G20G22G23G24G25G31   
  22110535.680 7      -291.244 7  -4031719.731 7  -3110641.37248  22110526.39848
        48.000          34.250  
  25194475.633 5      -551.549 5   -823475.564 5  -2117576.71546  25194466.70346
        42.000          20.500  
  21690442.016 6     -2057.774 6   5926427.699 6   4624604.33048  21690432.85248
        47.000          35.750  
  25166002.969 4     -3038.585 4   -592384.209 4   -467554.10446  25165998.66846
        37.500          22.250  
  25561469.695 1     -2650.784 1   9868432.978 1   7683276.41745  25561464.22345
        33.750          17.750  
  24259814.508 4      3237.964 4  -5437984.481 4  -5615888.36746  24259807.27746
        38.000          24.000  
  22504825.766 6     -2410.940 6   7002252.504 6   5459562.86347  22504815.37147
        47.250          33.500  
  25530454.516 5      2864.649 5  -1064512.623 5  -2210696.82445  25530448.10545
        40.000          15.500  
  21669415.664 7      1202.143 7  -9102474.460 7  -7061642.55948  21669407.78948
        47.750          36.750  
  24169312.180 6      1279.924 6  -3498961.936 6  -2705983.64246  24169308.23046
        43.750          25.500  
  20664666.461 7      1422.360 7 -10291672.534 7  -7965822.59549  20664656.88749
        51.250          42.250  
 11  3 22 20 41 30.0000000  0 11G11G12G14G18G19G20G22G23G24G25G31   
  22111393.453 7      -300.549 7  -4027211.491 7  -3107128.46448  22111384.28948
        48.500          34.000  
  25196071.172 4      -560.410 4   -815069.410 4  -2111026.43045  25196067.51645
        39.000          18.250  
  21696323.406 6     -2060.541 6   5957335.810 6   4648688.55848  21696314.30148
        47.500          34.750  
  25174683.852 4     -3040.837 4   -546771.660 4   -432011.90846  25174678.02746
        38.250          21.500  
  25569032.242 1     -2649.554 1   9908176.290 1   7714245.01045  25569027.41445
        33.750          16.250  
  24250573.445 4      3237.511 4  -5486547.141 4  -5653729.31946  24250565.98046
        37.500          22.750  
  22511719.906 6     -2415.231 6   7038480.967 6   5487792.80547  22511709.33647
        47.250          33.500  
  25522272.95311      2862.67211                  -2244164.94255  25522274.28155
        27.500          15.500  
  21666009.742 7      1193.176 7  -9120372.093 7  -7075588.75848  21666002.21948
        48.250          36.750  
  24165679.844 6      1272.575 6  -3518050.562 6  -2720857.83546  24165675.71946
        43.000          25.250  
  20660633.328 7      1412.825 7 -10312864.902 7  -7982336.10949  20660623.81349
        51.500          42.000  
 11  3 22 20 41 45.0000000  0 11G11G12G14G18G19G20G22G23G24G25G31   
  22112276.852 7      -309.511 7  -4022568.833 7  -3103510.81047  22112267.45347
        48.500          33.500  
  25197698.734 6      -568.952 6   -806535.135 6  -2104376.35745  25197690.39145
        43.000          18.250  
  21702212.000 7     -2062.965 7   5988280.291 7   4672801.13548  21702202.66048
        48.000          35.000  
  25183369.258 4     -3042.765 4   -501130.186 4   -396447.14646  25183364.07846
        37.750          22.500  
  25576592.563 4     -2647.956 4   9947895.624 4   7745195.10345  25576585.85945
        38.750          18.500  
  24241331.992 4      3237.363 4  -5535107.580 4  -5691568.56746  24241324.64546
        39.000          22.500  
  22518624.875 6     -2419.204 6   7074769.023 6   5516069.18447  22518614.71547
        47.250          33.000  
  25514105.27311      2862.04711  -1150400.01211  -2277622.00055  25514104.02055
        32.250          17.250  
  21662628.414 7      1184.522 7  -9138139.919 7  -7089433.82048  21662620.71548
        49.500          36.500  
  24162067.523 6      1265.532 6  -3537033.549 6  -2735649.72346  24162063.28146
        43.750          26.250  
  20656626.719 7      1403.610 7 -10333919.049 7  -7998741.92049  20656617.61349
        51.750          42.000  
 11  3 22 20 42  0.0000000  0 11G11G12G14G18G19G20G22G23G24G25G31   
  22113186.109 7      -318.642 7  -4017789.199 7  -3099786.42548  22113177.12148
        48.250          34.000  
  25199344.961 5      -577.675 5   -797870.009 5  -2097624.31845  25199338.19945
        39.500          18.250  
  21708107.945 6     -2065.542 6   6019263.422 6   4696943.82548  21708098.66448
        47.500          34.500  
  25192060.297 4     -3044.847 4   -455457.478 4   -360858.07346  25192055.29346
        38.250          22.000  
  25584145.953 4     -2646.520 4   9987593.424 4   7776128.33446  25584140.48046
        38.750          19.250  
  24232092.320 4      3237.035 4  -5583663.100 4  -5729404.00646  24232084.73846
        39.000          22.250  
  22525541.969 6     -2423.334 6   7111119.040 6   5544393.84647  22525531.80947
        47.500          33.000  
  25505945.688 5      2861.341 5  -1193320.122 5  -2311066.28545  25505935.70345
        41.000          15.500  
  21659272.617 7      1175.687 7  -9155775.229 7  -7103175.61348  21659265.03548
        49.500          36.500  
  24158475.547 6      1258.301 6  -3555908.060 6  -2750357.07647  24158471.48047
        44.250          27.250  
  20652647.734 7      1394.215 7 -10354832.274 7  -8015037.92249  20652637.98449
        51.250          42.500  
 11  3 22 20 42 15.0000000  0 11G11G12G14G18G19G20G22G23G24G25G31   
  22114122.000 7      -327.686 7  -4012873.903 7  -3095956.33648  22114112.48448
        48.750          33.750  
  25201020.719 5      -586.303 5   -789075.468 5  -2090771.37545  25201012.90245
        41.000          18.500  
  21714010.875 6     -2068.049 6   6050284.155 6   4721115.82548  21714001.77048
        47.500          35.500  
  25200756.758 3     -3046.845 3   -409754.799 3   -325245.61346  25200751.87146
        37.000          21.500  
  25591695.484 4     -2644.987 4  10027268.234 4   7807043.81345  25591689.95345
        38.000          16.750  
  24222853.609 5      3236.775 5  -5632214.731 5  -5767236.38546  24222845.96946
        39.750          22.000  
  22532471.039 6     -2427.379 6   7147529.722 6   5572765.78247  22532460.82047
        47.500          33.500  
  25497782.180 6      2860.297 6  -1236224.570 6  -2344498.35745  25497771.84445
        44.000          18.500  
  21655941.930 7      1166.929 7  -9173279.159 7  -7116815.04148  21655933.82048
        49.750          37.250  
  24154905.172 6      1251.130 6  -3574675.014 6  -2764980.60746  24154900.16846
        43.250          26.250  
  20648694.063 7      1384.888 7 -10375605.588 7  -8031224.90349  20648684.72349
        50.750          42.500  
 11  3 22 20 42 30.0000000  0 11G11G12G14G18G19G20G22G23G24G25G31   
  22115083.320 7      -336.780 7  -4007822.206 7  -3092019.95148  22115074.03948
        48.250          34.500  
  25202718.664 5      -594.978 5   -780150.795 5  -2083817.14245  25202710.78945
        40.000          18.500  
  21719920.992 7     -2070.588 7   6081342.974 7   4745317.49148  21719911.94548
        47.750          34.750  
  25209460.273 4     -3048.895 4   -364021.371 4   -289609.20546  25209454.97746
        38.500          21.500  
  25599241.922 2     -2643.482 2  10066920.465 2   7837941.59945  25599235.51245
        34.500          13.750  
  24213615.281 5      3236.467 5  -5680761.742 5  -5805065.16446  24213608.10946
        40.000          22.500  
  22539411.547 7     -2431.462 7   7184001.658 7   5601185.44347  22539401.03547
        48.000          33.500  
  25489623.117 5      2859.235 5  -1279113.097 5  -2377917.82945  25489610.78945
        42.000          17.750  
  21652636.102 7      1158.113 7  -9190650.859 7  -7130351.42848  21652628.46148
        49.000          36.250  
  24151353.531 6      1243.902 6  -3593333.539 6  -2779519.64846  24151349.17246
        42.500          26.000  
  20644768.063 7      1375.509 7 -10396238.219 7  -8047302.25749  20644758.37149
        51.250          42.500  
 11  3 22 20 42 45.0000000  0 11G11G12G14G18G19G20G22G23G24G25G31   
  22116070.172 7      -345.879 7  -4002634.020 7  -3087977.21048  22116060.83248
        48.500          34.500  
  25204440.461 4      -603.664 4   -771095.835 4  -2076761.26646  25204433.28946
        38.750          19.000  
  21725839.375 7     -2073.128 7   6112439.888 7   4769548.85148  21725829.62548
        48.000          34.750  
  25218168.750 5     -3050.940 5   -318257.269 5   -253948.91746  25218163.45346
        39.500          21.250  
  25606782.85911     -2641.97711   -921389.98911   -724378.38755  25606776.80155
        32.750          15.500  
  24204378.359 5      3236.121 5  -5729303.563 5  -5842889.90546  24204370.95346
        41.750          24.250  
  22546363.281 6     -2435.571 6   7220535.224 6   5629653.12247  22546353.29747
        47.250          33.500  
  25481459.547 5      2858.110 5  -1321984.743 5  -2411324.49845  25481452.55145
        41.000          18.500  
  21649355.398 7      1149.262 7  -9207889.793 7  -7143784.36048  21649347.99248
        49.000          37.000  
  24147824.086 6      1236.631 6  -3611882.997 6  -2793973.71446  24147819.66846
        43.000          25.000  
  20640868.797 7      1366.094 7 -10416729.623 7  -8063269.56349  20640859.22349
        51.500          43.000  
 11  3 22 20 43  0.0000000  0 11G11G12G14G18G19G20G22G23G24G25G31   
  22117084.648 7      -355.010 7  -3997308.871 7  -3083827.75448  22117074.37148
        48.500          34.000  
  25206190.656 5      -612.409 5   -761909.707 5  -2069603.29746  25206183.30946
        42.000          19.750  
  21731763.422 7     -2075.708 7   6143575.507 7   4793810.36448  21731754.19948
        48.000          35.000  
  25226883.500 4     -3053.032 4   -272461.795 4   -218264.15546  25226877.85246
        38.750          21.250  
  25614319.570 2     -2640.476 2   -881782.845 2   -693515.86445  25614314.91845
        35.500          18.500  
  24195142.281 5      3235.721 5  -5777839.382 5  -5880709.97046  24195134.46546
        42.250          23.000  
  22553327.211 6     -2439.724 6   7257131.077 6   5658169.33947  22553317.69547
        47.500          33.250  
  25473305.242 5      2856.966 5  -1364839.239 5  -2444717.52645  25473297.77745
        39.250          18.500  
  21646100.258 7      1140.362 7  -9224995.217 7  -7157113.25748  21646092.91048
        48.250          36.750  
  24144315.461 6      1229.300 6  -3630322.504 6  -2808342.10147  24144310.57447
        43.500          27.000  
  20636996.398 7      1356.629 7 -10437079.060 7  -8079126.24849  20636986.59049
        51.000          42.750  
 11  3 22 20 43 15.0000000  0 11G11G12G14G18G19G20G22G23G24G25G31   
  22118122.969 7      -364.066 7  -3991847.883 7  -3079572.44848  22118113.74648
        48.750          33.750  
  25207960.047 4      -621.066 4   -752593.719 4  -2062344.00945  25207955.51245
        37.750          18.500  
  21737695.813 7     -2078.202 7   6174748.544 7   4818101.03548  21737686.06348
        48.000          35.000  
  25235603.320 4     -3055.054 4   -226635.980 4   -182555.76246  25235598.31646
        38.000          20.500  
  25621851.750 4     -2638.880 4   -842199.648 4   -662671.91746  25621847.39146
        38.000          20.000  
  24185906.938 5      3235.376 5  -5826370.029 5  -5918526.02146  24185899.41446
        41.750          24.500  
  22560303.297 6     -2443.803 6   7293788.117 6   5686733.24747  22560293.02047
        47.000          32.750  
  25465155.445 5      2855.884 5  -1407677.504 5  -2478098.05145  25465144.58245
        41.750          16.250  
  21642870.656 7      1131.519 7  -9241968.005 7  -7170338.80448  21642863.19148
        49.000          36.500  
  24140826.328 6      1222.016 6  -3648652.745 6  -2822625.32946  24140821.91046
        42.500          24.250  
  20633150.867 7      1347.231 7 -10457287.524 7  -8094873.09449  20633141.23449
        51.500          42.500  
 11  3 22 20 43 30.0000000  0 11G11G12G14G18G19G20G22G23G24G25G31   
  22119187.414 7      -373.101 7  -3986251.369 7  -3075211.52948  22119178.42648
        48.500          33.750  
  25209761.133 5      -629.726 5   -743147.834 5  -2054983.62046  25209752.73046
        42.250          20.000  
  21743635.125 6     -2080.674 6   6205958.650 6   4842420.59248  21743625.55148
        47.250          35.000  
  25244330.266 4     -3057.045 4   -180780.304 4   -146824.07346  25244323.85546
        38.500          20.000  
  25629380.914 4     -2637.258 4   -802640.785 4   -631846.95146  25629375.50046
        38.750          20.000  
  24176672.703 5      3235.042 5  -5874895.654 5  -5956338.14346  24176664.41846
        40.750          23.000  
  22567290.430 6     -2447.858 6   7330505.985 6   5715344.54147  22567280.09447
        47.500          33.250  
  25457006.109 6      2854.812 6  -1450499.688 6  -2511465.99945  25456995.48045
        43.000          18.250  
  21639665.961 7      1122.680 7  -9258808.209 7  -7183461.03648  21639658.32048
        47.750          36.500  
  24137360.008 6      1214.735 6  -3666873.778 6  -2836823.47647  24137354.88747
        43.500          27.500  
  20629332.250 7      1337.842 7 -10477355.147 7  -8110510.17249  20629322.38349
        51.250          43.000  
 11  3 22 20 43 45.0000000  0 11G11G12G14G18G19G20G22G23G24G25G31   
  22120279.164 7      -382.179 7  -3980518.690 7  -3070744.51948  22120269.41448
        48.250          34.250  
  25211580.242 5      -638.428 5   -733571.421 5  -2047521.45645  25211575.29745
        39.250          16.750  
  21749581.102 7     -2083.184 7   6237206.414 7   4866769.49248  21749571.87948
        48.000          35.000  
  25253061.461 5     -3059.084 5   -134894.047 5   -111068.58446  25253055.87146
        39.250          20.000  
  25636903.719 1     -2635.662 1   -763105.853 1   -601040.57545  25636898.30545
        32.250          16.250  
  24167439.703 5      3234.652 5  -5923415.433 5  -5994145.70346  24167432.53146
        41.250          22.750  
  22574289.328 6     -2451.957 6   7367285.338 6   5744003.73947  22574279.28547
        46.500          33.250  
  25448854.961 4      2853.687 4  -1493304.995 4  -2544820.84645  25448851.12945
        37.500          17.750  
  21636486.836 7      1113.781 7  -9275514.919 7  -7196479.24548  21636479.13748
        48.250          36.500  
  24133913.102 6      1207.384 6  -3684984.543 6  -2850935.68347  24133908.80147
        43.250          27.250  
  20625540.250 7      1328.391 7 -10497281.018 7  -8126036.80749  20625530.50049
        51.250          42.500  
 11  3 22 20 44  0.0000000  0 10G11G12G14G18G20G22G23G24G25G31      
  22121395.664 7      -391.351 7  -3974648.431 7  -3066170.29848  22121387.14548
        48.250          34.250  
  25213430.164 6      -647.213 6   -723863.224 6  -2039956.59345  25213421.46945
        42.500          17.750  
  21755534.992 7     -2085.784 7   6268493.180 7   4891148.78948  21755525.41848
        48.500          35.250  
  25261799.445 5     -3061.217 5    -88975.793 5    -75288.17046  25261794.26646
        40.000          19.250  
  24158207.984 5      3234.136 5  -5971927.480 5  -6031947.25646  24158201.10546
        40.500          24.500  
  22581299.773 6     -2456.152 6   7404127.622 6   5772711.98447  22581289.96547
        46.500          33.000  
  25440713.633 3      2852.451 3  -1536091.765 3  -2578161.26045  25440709.85945
        36.750          17.250  
  21633333.484 6      1104.770 6  -9292086.475 6  -7209392.14348  21633325.55148
        46.500          36.500  
  24130488.133 6      1199.912 6  -3702983.224 6  -2864960.57447  24130483.65647
        42.500          26.500  
  20621775.594 7      1318.828 7 -10517063.435 7  -8141451.66049  20621766.13749
        50.500          43.000  
 11  3 22 20 44 15.0000000  0 10G11G12G14G18G20G22G23G24G25G31      
  22122538.336 7      -400.302 7  -3968643.898 7  -3061491.44247  22122528.93847
        47.750          33.500  
  25215299.922 5      -655.791 5   -714026.360 5  -2032291.52945  25215292.51645
        39.750          16.750  
  21761495.203 6     -2088.166 6   6299815.673 6   4915555.91848  21761485.92248
        47.000          35.000  
  25270543.234 4     -3063.124 4    -43028.937 4    -39485.46146  25270537.52746
        38.500          19.000  
  24148978.055 5      3233.831 5  -6020434.943 5  -6069745.22346  24148970.41446
        41.000          24.500  
  22588322.453 6     -2460.132 6   7441029.599 6   5801466.75147  22588311.82447
        45.750          33.500  
  25432577.172 5      2851.448 5  -1578863.484 5  -2611489.89845  25432570.00045
        42.000          16.250  
  21630205.234 6      1095.964 6  -9308525.941 6  -7222202.11348  21630197.65248
        47.500          37.000  
  24127084.102 6      1192.643 6  -3720872.870 6  -2878900.49847  24127079.09847
        43.500          26.750  
  20618038.156 7      1309.479 7 -10536705.625 7  -8156757.24249  20618028.17249
        51.250          43.000  
 11  3 22 20 44 30.0000000  0 11G11G12G14G18G19G20G22G23G24G25G31   
  22123706.875 7      -409.193 7  -3962506.000 7  -3056708.67648  22123697.41848
        48.500          34.500  
  25217198.078 5      -664.308 5   -704061.738 5  -2024526.77745  25217189.55945
        40.500          16.250  
  21767462.500 6     -2090.483 6   6331172.914 6   4939990.13248  21767453.39548
        47.500          34.500  
  25279291.883 4     -3064.986 4      2945.853 4     -3660.95345  25279286.11745
        38.500          18.250  
  25659444.60213     -2629.93813    815361.58713                
        36.250  
  24139747.984 5      3233.567 5  -6068938.449 5  -6107540.11846  24139740.16846
        41.000          24.250  
  22595355.938 6     -2464.054 6   7477990.412 6   5830267.35647  22595345.48447
        46.500          33.500  
  25424442.516 5      2850.478 5  -1621620.650 5  -2644807.11346  25424434.11346
        41.750          20.750  
  21627101.953 7      1087.202 7  -9324833.971 7  -7234909.67148  21627094.13748
        47.750          36.500  
  24123699.969 6      1185.405 6  -3738653.952 6  -2892755.83247  24123695.37547
        43.000          26.750  
  20614326.922 7      1300.163 7 -10556208.068 7  -8171953.92949  20614316.99649
        50.750          42.500  
 11  3 22 20 44 45.0000000  0 11G11G12G14G18G19G20G22G23G24G25G31   
  22124900.688 6      -418.322 6  -3956231.163 6  -3051819.20348  22124891.69948
        47.500          34.000  
  25219119.648 5      -673.083 5   -693965.492 5  -2016659.62045  25219110.54345
        40.000          17.750  
  21773436.453 6     -2093.036 6   6362568.455 6   4964454.18948  21773427.69948
        47.250          34.500  
  25288046.914 4     -3067.080 4     48952.057 4     32187.98245  25288040.85545
        38.250          17.250  
  25666951.250 4     -2628.982 4    854796.312 4                
        38.500  
  24130519.320 5      3233.036 5  -6117433.991 5  -6145328.81146  24130511.50446
        39.500          24.250  
  22602401.586 6     -2468.222 6   7515013.738 6   5859116.67047  22602390.84047
        46.000          33.250  
  25416309.344 6      2849.261 6  -1664359.571 6  -2678110.21446  25416300.47346
        43.250          19.250  
  21624024.008 7      1078.182 7  -9341006.708 7  -7247511.80148  21624016.25048
        47.750          37.000  
  24120337.914 6      1177.899 6  -3756322.436 6  -2906523.42647  24120333.43847
        43.250          26.500  
  20610642.969 7      1290.588 7 -10575566.884 7  -8187038.70649  20610633.10249
        50.750          42.250  
 11  3 22 20 45  0.0000000  0 11G11G12G14G18G19G20G22G23G24G25G31   
  22126120.594 6      -427.419 6  -3949819.880 6  -3046823.39748  22126111.89848
        47.250          34.250  
  25221063.961 4      -681.812 4   -683738.307 4  -2008690.29645  25221057.43445
        38.250          17.250  
  21779418.547 6     -2095.548 6   6394001.681 6   4988947.60448  21779408.73848
        47.500          35.000  
  25296807.359 3     -3069.145 3     94989.233 3     68061.07945  25296800.94945
        36.500          18.500  
  25674448.953 4     -2627.340 4    894206.418 4   -435752.16856  25674443.48056
        38.250          21.000  
  24121293.039 5      3232.527 5  -6165921.898 5  -6183111.53246  24121284.81346
        40.750          24.500  
  22609458.063 6     -2472.359 6   7552099.117 6   5888014.33847  22609448.13747
        45.000          33.250  
  25408177.938 4      2848.081 4  -1707080.783 4  -2711399.39445  25408170.70745
        39.000          18.500  
  21620972.250 7      1069.179 7  -9357044.396 7  -7260008.69548  21620964.84448
        48.000          36.750  
  24116997.219 6      1170.413 6  -3773878.629 6  -2920203.51747  24116992.68447
        44.000          26.750  
  20606986.219 7      1281.039 7 -10594782.475 7  -8202011.87649  20606976.46949
        51.000          42.000  
 11  3 22 20 45 15.0000000  0 11G11G12G14G18G19G20G22G23G24G25G31   
  22127366.094 6      -436.404 6  -3943273.814 6  -3041722.57048  22127357.10548
        47.000          34.750  
  25223037.070 5      -690.460 5   -673381.405 5  -2000620.01545  25223028.49245
        40.500          17.750  
  21785406.563 6     -2097.949 6   6425470.910 6   5013469.06748  21785397.22348
        47.250          35.000  
  25305572.953 3     -3071.091 3    141055.598 3    103956.91245  25305567.36345
        35.750          17.750  
  25681944.172 1     -2625.566 1    933589.902 1   -405063.93945  25681938.81645
        33.500          16.750  
  24112066.609 5      3232.110 5  -6214403.545 5  -6220889.38146  24112058.26646
        40.000          22.000  
  22616526.688 6     -2476.388 6   7589244.944 6   5916959.11247  22616516.70347
        45.000          33.500  
  25400050.422 5      2846.969 5  -1749785.313 5  -2744675.81545  25400044.59845
        39.250          16.250  
  21617946.234 6      1060.269 6  -9372948.434 6  -7272401.44448  21617938.18448
        47.000          37.000  
  24113676.914 5      1163.003 5  -3791323.680 5  -2933797.01047  24113672.84847
        41.750          27.000  
  20603356.539 7      1271.590 7 -10613856.322 7  -8216874.60049  20603346.78949
        50.500          41.750  
 11  3 22 20 45 30.0000000  0 11G11G12G14G18G19G20G22G23G24G25G31   
  22128637.875 7      -445.430 7  -3936592.364 7  -3036516.26248  22128628.94548
        47.750          34.500  
  25225028.820 4      -699.124 4   -662894.550 4  -1992448.37045  25225023.64145
        39.000          16.750  
  21791401.984 7     -2100.387 7   6456976.710 7   5038019.03448  21791392.87948
        47.750          34.750  
  25314345.352 3     -3073.087 3    187151.906 3    139876.06945  25314339.41045
        35.750          16.750  
  25689437.031 2     -2623.827 2    972947.308 2   -374395.97845  25689427.57445
        34.750          15.500  
  24102841.500 5      3231.646 5  -6262878.230 5  -6258661.80446  24102834.38746
        39.750          22.500  
  22623607.070 6     -2480.454 6   7626451.756 6   5945951.40247  22623596.96947
        46.500          33.000  
  25391930.352 6      2845.838 6  -1792472.878 6  -2777938.77046  25391922.53546
        43.250          21.500  
  21614945.336 7      1051.306 7  -9388718.030 7  -7284689.44348  21614937.52048
        48.500          37.250  
  24110378.695 6      1155.535 6  -3808656.707 6  -2947303.22947  24110374.33647
        43.250          26.500  
  20599753.977 7      1262.089 7 -10632787.661 7  -8231626.26949  20599744.16849
        51.500          42.250  
 11  3 22 20 45 45.0000000  0 11G11G12G14G18G19G20G22G23G24G25G31   
  22129934.805 7      -454.351 7  -3929777.101 7  -3031205.67548  22129925.52348
        48.000          34.500  
  25227053.398 5      -707.714 5   -652278.842 5  -1984176.39845  25227043.94145
        41.250          17.750  
  21797404.094 6     -2102.723 6   6488517.555 6   5062596.30848  21797395.04748
        47.500          35.000  
  25323121.930 4     -3074.983 4    233276.652 4    175817.41345  25323117.04345
        37.500          17.750  
  25696916.289 1     -2621.964 1   1012276.775 1   -343749.67545  25696911.75445
        33.500          13.750  
  24093618.563 5      3231.260 5  -6311347.124 5  -6296429.72846  24093610.45346
        39.500          22.250  
  22630698.969 6     -2484.434 6   7663718.264 6   5974990.20647  22630688.34047
        45.750          33.250  
  25383811.406 6      2844.789 6  -1835144.717 6  -2811189.53646  25383802.47746
        44.500          21.500  
  21611969.883 7      1042.418 7  -9404354.304 7  -7296873.55248  21611961.42248
        48.750          37.000  
  24107101.477 6      1148.141 6  -3825878.818 6  -2960723.00446  24107096.59046
        43.000          26.000  
  20596178.211 7      1252.661 7 -10651577.573 7  -8246267.74049  20596168.75449
        50.500          42.000  
 11  3 22 20 46  0.0000000  0 11G11G12G14G18G19G20G22G23G24G25G31   
  22131257.305 7      -463.410 7  -3922825.958 7  -3025789.20548  22131248.31648
        48.000          34.000  
  25229094.109 3      -716.438 3   -641532.270 3  -1975802.46245  25229088.34445
        35.750          17.750  
  21803413.227 7     -2105.191 7   6520095.416 7   5087202.42748  21803403.47748
        48.000          35.000  
  25331905.102 1     -3077.008 1    279431.775 1    211782.42145  25331900.74245
        32.250          14.750  
  25704397.094 4     -2620.232 4   1051580.260 4   -313123.66045  25704390.97745
        38.250          14.750  
  24084397.469 4      3230.712 4  -6359807.805 4  -6334191.27246  24084388.42246
        39.000          22.000  
  22637802.391 6     -2488.556 6   7701046.610 6   6004077.20647  22637791.70347
        45.750          33.250  
  25375693.078 6      2843.601 6  -1877798.739 6  -2844426.43745  25375684.26645
        44.250          17.250  
  21609019.898 7      1033.387 7  -9419855.113 7  -7308952.09948  21609012.66848
        47.750          36.500  
  24103845.711 6      1140.585 6  -3842987.592 6  -2974054.47846  24103841.35246
        43.000          25.250  
  20592630.305 7      1243.094 7 -10670223.988 7  -8260797.40349  20592620.43849
        50.750          43.000  
 11  3 22 20 46 15.0000000  0 11G11G12G14G18G19G20G22G23G24G25G31   
  22132605.625 7      -472.360 7  -3915740.559 7  -3020268.12448  22132596.98848
        48.250          34.500  
  25231167.258 5      -725.052 5   -630656.492 5  -1967327.79045  25231158.38745
        42.000          16.250  
  21809428.805 7     -2107.548 7   6551708.635 7   5111836.09448  21809419.75848
        47.750          35.000  
  25340695.80511     -3079.92211                                
        27.500  
  25711871.969 5     -2618.357 5   1090855.617 5   -282519.57345  25711865.73445
        40.000          18.500  
  24075175.641 5      3230.257 5  -6408261.656 5  -6371947.45146  24075168.05946
        40.000          21.500  
  22644916.805 6     -2492.554 6   7738434.923 6   6033210.93047  22644906.82047
        46.500          33.000  
  25367576.344 5      2842.512 5  -1920436.415 5  -2877650.43946  25367571.16446
        40.250          20.500  
  21606095.750 7      1024.446 7  -9435221.806 7  -7320926.14848  21606088.05148
        48.500          37.000  
  24100611.250 6      1133.119 6  -3859984.380 6  -2987298.70546  24100607.12546
        42.500          26.000  
  20589108.586 7      1233.618 7 -10688728.256 7  -8275216.29049  20589099.36349
        51.000          42.000  
 11  3 22 20 46 30.0000000  0 10G11G12G14G19G20G22G23G24G25G31      
  22133979.508 7      -481.351 7  -3908520.299 7  -3014641.95048  22133970.87148
        48.500          33.750  
  25233260.219 4      -733.707 4   -619650.893 4  -1958752.01345  25233253.22345
        38.750          16.250  
  21815451.797 6     -2109.938 6   6583357.705 6   5136497.69448  21815442.45748
        47.500          34.750  
  25719342.578 5     -2616.522 5   1130103.446 5   -251936.86946  25719334.87946
        41.000          19.000  
  24065957.156 5      3229.748 5  -6456707.875 5  -6409697.69746  24065948.69546
        39.750          21.750  
  22652043.500 6     -2496.594 6   7775883.835 6   6062391.87347  22652032.81347
        47.000          32.250  
  25359466.039 5      2841.366 5  -1963056.901 5  -2910861.34746  25359459.98046
        40.250          19.500  
  21603197.586 7      1015.449 7  -9450453.548 7  -7332795.03848  21603189.41848
        49.000          37.000  
  24097398.180 5      1125.594 5  -3876868.283 5  -3000454.94847  24097393.41047
        42.250          26.500  
  20585614.805 7      1224.091 7 -10707089.621 7  -8289523.83549  20585604.58649
        51.000          42.500  
 11  3 22 20 46 45.0000000  0 10G11G12G14G19G20G22G23G24G25G31      
  22135379.266 7      -490.333 7  -3901165.304 7  -3008910.79648  22135370.10248
        48.750          33.750  
  25235379.797 5      -742.361 5   -608515.481 5  -1950075.02145  25235371.16045
        40.250          15.500  
  21821480.742 6     -2112.326 6   6615042.595 6   5161187.21748  21821471.81348
        46.750          34.750  
  25726802.594 4     -2614.671 4   1169323.515 4   -221375.87946  25726798.05946
        37.500          20.000  
  24056739.984 4      3229.214 4  -6505146.090 4  -6447441.72746  24056731.34846
        38.250          21.500  
  22659181.227 6     -2500.647 6   7813393.541 6   6091620.18747  22659171.00847
        47.000          32.500  
  25351363.641 6      2840.207 6  -2005659.999 6  -2944058.44146  25351355.00446
        42.750          20.500  
  21600324.773 7      1006.439 7  -9465550.130 7  -7344558.60448  21600316.48848
        49.000          36.750  
  24094206.828 5      1118.035 5  -3893638.815 5  -3013522.88546  24094202.64546
        41.250          25.500  
  20582148.180 7      1214.553 7 -10725307.918 7  -8303719.89549  20582138.19549
        50.000          42.500  
 11  3 22 20 47  0.0000000  0 10G11G12G14G19G20G22G23G24G25G31      
  22136804.781 7      -499.380 7  -3893674.610 7  -3003073.89948  22136795.50048
        49.000          34.250  
  25237524.078 5      -751.098 5   -597249.005 5  -1941295.95245  25237514.97345
        40.000          16.750  
  21827517.273 6     -2114.775 6   6646764.224 6   5185905.35348  21827507.81648
        47.500          34.000  
  25734259.461 1     -2612.867 1   1208516.522 1   -190835.94045  25734256.85945
        29.500          17.750  
  24047523.984 4      3228.602 4  -6553575.120 4  -6485178.58246  24047515.40646
        38.750          21.000  
  22666331.086 6     -2504.773 6   7850965.139 6   6120896.72448  22666320.86748
        47.250          33.750  
  25343257.578 6      2838.990 6  -2048244.854 6  -2977241.38346  25343251.46146
        43.250          22.000  
  21597477.914 7       997.346 7  -9480510.321 7  -7356215.89248  21597469.51248
        49.000          36.750  
  24091037.992 5      1110.388 5  -3910294.639 5  -3026501.41747  24091032.75447
        41.500          26.750  
  20578708.430 7      1204.929 7 -10743381.860 7  -8317803.47149  20578698.73849
        50.000          42.500  
 11  3 22 20 47 15.0000000  0  9G11G12G14G20G22G23G24G25G31         
  22138255.680 7      -508.267 7  -3886050.609 7  -2997133.12448  22138246.57448
        48.750          34.000  
  25239690.703 4      -759.683 4   -585853.767 4  -1932416.44145  25239684.23445
        38.500          16.250  
  21833560.656 7     -2117.064 7   6678520.191 7   5210650.26748  21833550.90648
        48.000          34.500  
  24038309.258 4      3228.133 4  -6601997.120 4  -6522909.96746  24038301.26646
        38.750          20.500  
  22673491.961 6     -2508.737 6   7888596.195 6   6150219.59247  22673481.97747
        47.500          33.250  
  25335155.203 5      2837.912 5  -2090813.539 5  -3010411.73945  25335150.02345
        40.250          18.250  
  21594656.375 7       988.383 7  -9495336.068 7  -7367768.41548  21594648.73448
        49.500          37.000  
  24087889.727 5      1102.882 5  -3926837.871 5  -3039392.22747  24087884.43047
        41.000          27.250  
  20575296.258 7      1195.451 7 -10761313.632 7  -8331776.25849  20575286.74249
        49.500          42.500  
 11  3 22 20 47 30.0000000  0 10G11G12G14G19G20G22G23G24G25G31      
  22139731.953 7      -517.198 7  -3878292.644 7  -2991087.96748  22139722.90648
        49.000          34.000  
  25241886.031 5      -768.301 5   -574329.251 5  -1923436.35745  25241875.98845
        40.000          16.750  
  21839609.875 7     -2119.391 7   6710311.049 7   5235422.34848  21839600.59448
        47.750          34.750  
  25749160.41412     -2608.01612                                
        34.250  
  24029096.164 5      3227.591 5  -6650410.984 5  -6560635.00946  24029088.05546
        39.250          20.250  
  22680664.594 6     -2512.738 6   7926287.271 6   6179589.23747  22680653.61347
        47.250          32.750  
  25327058.398 5      2836.788 5  -2133365.356 5  -3043568.91246  25327052.16446
        40.500          19.750  
  21591860.945 7       979.370 7  -9510026.613 7  -7379215.59148  21591853.48048
        48.500          37.000  
  24084762.914 5      1095.310 5  -3943267.514 5  -3052194.52946  24084758.78946
        42.250          26.250  
  20571911.281 7      1185.923 7 -10779102.475 7  -8345637.68349  20571901.53149
        50.000          42.500  
 11  3 22 20 47 45.0000000  0 10G11G12G14G19G20G22G23G24G25G31      
  22141233.570 7      -526.033 7  -3870402.156 7  -2984939.55247  22141224.17247
        48.500          33.000  
  25244100.078 2      -776.826 2   -562676.861 2  -1914356.55745  25244094.25445
        35.500          16.250  
  21845666.102 7     -2121.630 7   6742135.500 7   5260220.60948  21845656.93848
        48.000          34.500  
  25756601.219 4     -2605.781 4   -104114.759 4  -1309681.79756  25756596.91856
        37.750          21.500  
  24019884.266 4      3227.125 4  -6698817.859 4  -6598354.60146  24019876.74246
        38.000          20.500  
  22687847.844 6     -2516.664 6   7964037.228 6   6209004.75847  22687837.62547
        47.500          32.750  
  25318963.195 4      2835.737 4  -2175901.416 4  -3076713.82246  25318958.01646
        38.750          20.000  
  21589090.492 7       970.430 7  -9524583.065 7  -7390558.27548  21589083.08648
        48.000          37.000  
  24081658.273 5      1087.799 5  -3959584.497 5  -3064909.03846  24081653.79746
        41.000          26.000  
  20568553.055 7      1176.462 7 -10796749.404 7  -8359388.52249  20568543.24649
        50.000          42.750  
 11  3 22 20 48  0.0000000  0 10G11G12G14G19G20G22G23G24G25G31      
  22142760.844 7      -535.066 7  -3862376.169 7  -2978685.54147  22142751.79747
        47.750          33.250  
  25246345.133 5      -785.575 5   -550893.230 5  -1905174.47545  25246337.08245
        39.750          16.750  
  21851729.305 6     -2124.069 6   6773996.537 6   5285047.38748  21851719.43848
        47.250          34.000  
  25764038.422 5     -2605.035 5    -65039.230 5  -1279233.43746  25764033.53546
        41.500          24.000  
  24010674.203 4      3226.457 4  -6747214.707 4  -6636066.38246  24010667.32446
        39.000          20.750  
  22695043.156 6     -2520.786 6   8001849.022 6   6238468.46847  22695032.35247
        46.500          32.500  
  25310874.523 5      2834.485 5  -2218418.698 5  -3109844.14146  25310866.29746
        40.750          19.000  
  21586346.672 7       961.280 7  -9539002.264 7  -7401794.01248  21586339.09048
        48.250          36.500  
  24078574.539 5      1080.069 5  -3975785.540 5  -3077533.20547  24078570.41447
        41.250          26.500  
  20565222.531 7      1166.789 7 -10814251.233 7  -8373026.29749  20565212.72349
        48.750          43.250  
 11  3 22 20 48 15.0000000  0 11G11G12G14G19G20G22G23G24G25G30G31   
  22144313.578 7      -544.090 7  -3854214.816 7  -2972326.04347  22144304.23847
        48.250          33.500  
  25248609.836 4      -794.308 4   -538978.604 4  -1895890.37745  25248603.01645
        37.500          16.750  
  21857799.125 6     -2126.499 6   6805894.022 6   5309902.55748  21857789.43448
        46.250          34.000  
  25771469.906 5     -2603.150 5    -25991.979 5  -1248807.04146  25771464.31646
        42.250          22.000  
  24001467.867 5      3225.759 5  -6795601.087 5  -6673770.00746  24001459.34846
        39.750          20.750  
  22702250.055 6     -2524.913 6   8039722.721 6   6267980.41747  22702240.01247
        46.250          32.250  
  25302787.117 5      2833.221 5  -2260917.017 5  -3142959.57646  25302780.35546
        41.000          22.000  
  21583629.227 7       952.113 7  -9553283.963 7  -7412922.60448  21583621.82048
        49.000          36.250  
  24075513.992 6      1072.316 6  -3991870.275 6  -3090066.76346  24075509.57446
        42.500          25.000  
  25757053.97713      3130.56313   -225968.89613                
        37.000  
  20561919.531 7      1157.109 7 -10831607.875 7  -8386550.93549  20561910.25049
        50.000          42.000  
 11  3 22 20 48 30.0000000  0 11G11G12G14G19G20G22G23G24G25G30G31   
  22145891.773 7      -552.885 7  -3845921.534 7  -2965863.75848  22145882.96148
        48.250          34.000  
  25250903.305 5      -802.810 5   -526936.455 5  -1886506.81045  25250895.13745
        39.500          16.750  
  21863874.883 6     -2128.685 6   6837824.304 6   5334783.28648  21863865.89548
        47.250          34.250  
  25778894.336 6     -2601.020 6     13023.327 6  -1218405.52746  25778888.68846
        43.250          22.000  
  23992261.516 5      3225.278 5  -6843980.256 5  -6711468.02146  23992252.87946
        40.750          20.250  
  22709468.594 6     -2528.804 6   8077654.775 6   6297537.82347  22709458.31647
        47.000          32.250  
  25294701.414 5      2832.181 5  -2303399.726 5  -3176062.92546  25294695.53146
        40.000          22.000  
  21580936.867 6       943.159 6  -9567431.351 6  -7423946.53948  21580929.22748
        47.500          36.750  
  24072475.406 5      1064.775 5  -4007841.897 5  -3102512.14946  24072470.28546
        41.750          24.500  
  25748113.664 3      3131.998 3   -272948.873 3   -185223.89155  25748109.83255
        36.250          17.750  
  20558643.227 7      1147.650 7 -10848822.624 7  -8399965.00949  20558633.77049
        49.750          42.750  
 11  3 22 20 48 45.0000000  0 11G11G12G14G19G20G22G23G24G25G30G31   
  22147495.344 7      -561.744 7  -3837495.377 7  -2959297.92448  22147486.23848
        47.750          34.250  
  25253219.328 4      -811.401 4   -514765.443 4  -1877022.92445  25253212.15645
        37.500          17.250  
  21869957.648 6     -2130.935 6   6869788.325 6   5359690.30748  21869948.13348
        46.000          34.500  
  25786311.023 5     -2598.942 5     52007.449 5  -1188028.34645  25786306.95745
        41.000          18.250  
  23983055.969 5      3224.723 5  -6892351.108 5  -6749159.54346  23983048.56346
        40.250          20.500  
  22716698.234 6     -2532.756 6   8115646.122 6   6327141.43947  22716688.25047
        45.000          33.000  
  25286621.688 5      2831.067 5  -2345865.724 5  -3209153.16846  25286614.57446
        41.000          20.750  
  21578270.766 7       934.138 7  -9581443.423 7  -7434865.03548  21578262.83248
        48.250          36.750  
  24069456.820 5      1057.150 5  -4023699.144 5  -3114868.43446  24069452.69546
        41.000          26.000  
  25739163.063 4      3135.574 4   -319982.478 4   -221873.40046  25739160.81346
        38.250          19.000  
  20555395.148 7      1138.114 7 -10865894.341 7  -8413267.64049  20555385.45749
        48.500          43.000  
 11  3 22 20 49  0.0000000  0 11G11G12G14G19G20G22G23G24G25G30G31   
  22149124.219 6      -570.655 6  -3828935.551 6  -2952627.93848  22149115.05548
        46.250          33.750  
  25255559.219 4      -820.025 4   -502465.062 4  -1867438.19045  25255551.63745
        38.250          14.750  
  21876046.797 6     -2133.238 6   6901786.893 6   5384624.24648  21876037.39848
        46.000          34.500  
  25793724.188 5     -2596.908 5     90961.070 5  -1157674.73445  25793719.53545
        41.000          17.250  
  23973853.852 5      3224.084 5  -6940712.368 5  -6786843.61346  23973845.27346
        40.000          21.250  
  22723939.508 6     -2536.778 6   8153697.799 6   6356792.06347  22723929.11347
        44.000          33.000  
  25278545.141 6      2829.898 6  -2388314.197 6  -3242229.80646  25278536.03546
        42.500          22.000  
  21575630.211 7       925.043 7  -9595319.068 7  -7445677.22248  21575622.57048
        48.750          36.750  
  24066461.930 5      1049.441 5  -4039440.761 5  -3127134.60646  24066457.04346
        41.500          24.500  
  25730204.422 5      3139.072 5   -367068.557 5   -258563.70246  25730201.11746
        39.500          20.000  
  20552173.828 7      1128.500 7 -10882821.843 7  -8426457.88449  20552164.02049
        49.500          42.750  
 11  3 22 20 49 15.0000000  0 11G11G12G14G19G20G22G23G24G25G30G31   
  22150778.266 6      -579.513 6  -3820242.851 6  -2945854.41948  22150769.10248
        47.250          33.750  
  25257925.227 5      -828.611 5   -490035.894 5  -1857753.09545  25257916.70745
        40.000          16.250  
  21882142.602 6     -2135.493 6   6933819.281 6   5409584.53148  21882133.08648
        45.000          34.000  
  25801132.320 4     -2594.806 4    129883.162 4  -1127345.82445  25801126.43845
        38.250          18.250  
  23964652.789 5      3223.477 5  -6989064.524 5  -6824520.55946  23964644.38746
        40.250          21.000  
  22731191.586 6     -2540.745 6   8191808.970 6   6386489.05347  22731181.48447
        45.000          32.500  
  25270470.016 5      2828.770 5  -2430745.744 5  -3275293.22746  25270462.37546
        41.250          22.750  
  21573015.531 7       915.980 7  -9609058.769 7  -7456383.48548  21573007.77348
        48.000          36.500  
  24063488.352 5      1041.765 5  -4055067.239 5  -3139311.07746  24063483.52346
        40.750          23.750  
  25721233.773 4      3142.609 4   -414207.692 4   -295295.40846  25721230.64546
        38.250          20.000  
  20548979.867 7      1118.931 7 -10899605.803 7  -8439536.27549  20548970.35249
        49.250          42.750  
 11  3 22 20 49 30.0000000  0 11G11G12G14G19G20G22G23G24G25G30G31   
  22152458.063 6      -588.410 6  -3811416.704 6  -2938976.91747  22152448.66447
        47.250          33.500  
  25260314.180 4      -837.267 4   -477476.884 4  -1847966.79045  25260307.00845
        38.000          13.750  
  21888244.141 6     -2137.786 6   6965886.074 6   5434571.63248  21888235.09448
        45.250          34.000  
  25808534.211 2     -2592.732 2    168774.144 2  -1097041.23445  25808527.15645
        35.000          18.500  
  23955453.414 5      3222.800 5  -7037406.530 5  -6862189.61546  23955444.95346
        40.750          21.000  
  22738455.383 6     -2544.761 6   8229980.382 6   6416232.98347  22738444.87147
        45.500          32.750  
  25262395.523 3      2827.579 3  -2473159.434 3  -3308342.78646  25262390.93046
        36.500          20.000  
  21570427.016 7       906.850 7  -9622661.523 7  -7466983.02348  21570419.31648
        48.750          36.500  
  24060536.133 5      1034.010 5  -4070577.387 5  -3151396.89646  24060531.48046
        40.250          22.750  
  25712253.789 5      3146.070 5   -461398.744 5   -332067.57046  25712250.19146
        39.500          21.250  
  20545813.836 7      1109.302 7 -10916245.331 7  -8452502.13249  20545803.91049
        49.750          42.750  
 11  3 22 20 49 45.0000000  0 11G11G12G14G19G20G22G23G24G25G30G31   
  22154162.906 7      -597.299 7  -3802457.220 7  -2931995.50348  22154154.03548
        48.000          33.750  
  25262728.914 3      -845.896 3   -464788.439 3  -1838079.72745  25262719.92645
        37.000          14.750  
  21894352.789 6     -2140.067 6   6997987.075 6   5459585.38648  21894343.50848
        45.250          34.500  
  25815928.46111     -2590.65811    207633.44411  -1066761.13955  25815921.34855
        26.750          16.250  
  23946255.992 5      3222.129 5  -7085738.466 5  -6899850.82246  23946247.88346
        40.250          21.500  
  22745730.430 6     -2548.771 6   8268211.940 6   6446023.77747  22745719.97747
        46.000          32.500  
  25254329.438 4      2826.397 4  -2515555.384 4  -3341378.50646  25254323.67246
        38.500          21.500  
  21567864.602 7       897.719 7  -9636127.302 7  -7477475.84148  21567856.78548
        48.250          36.750  
  24057607.242 6      1026.250 6  -4085971.139 6  -3163392.03146  24057601.94546
        42.500          24.500  
  25703262.414 4      3149.513 4   -508641.434 4   -368879.99746  25703260.28146
        38.500          22.000  
  20542674.594 7      1099.679 7 -10932740.514 7  -8465355.50849  20542664.96149
        49.750          43.000  
 11  3 22 20 50  0.0000000  0 10G11G12G14G20G22G23G24G25G30G31      
  22155893.406 7      -606.249 7  -3793363.478 7  -2924909.48348  22155884.35948
        48.250          34.000  
  25265167.477 3      -854.582 3   -451969.706 3  -1828091.03745  25265160.30545
        37.000          15.500  
  21900468.344 6     -2142.412 6   7030123.261 6   5484626.55948  21900459.18048
        46.250          34.250  
  23937061.438 5      3221.363 5  -7134058.910 5  -6937503.08646  23937052.50846
        40.000          21.500  
  22753017.383 6     -2552.849 6   8306504.670 6   6475862.23347  22753007.39847
        46.500          33.000  
  25246266.766 4      2825.137 4  -2557932.442 4  -3374399.45346  25246259.77046
        38.500          22.000  
  21565328.711 7       888.512 7  -9649454.988 7  -7487861.05248  21565320.48448
        49.250          36.500  
  24054700.563 6      1018.406 6  -4101247.227 6  -3175295.46646  24054695.32446
        43.000          24.500  
  25694263.125 5      3152.870 5   -555934.488 5   -405731.64546  25694260.69946
        39.250          22.000  
  20539563.414 7      1089.965 7 -10949089.983 7  -8478095.33949  20539553.72349
        50.250          43.500  
 11  3 22 20 50 15.0000000  0 11G11G12G14G19G20G22G23G24G25G30G31   
  22157648.148 7      -614.823 7  -3784141.133 7  -2917723.25148  22157639.21948
        48.250          34.000  
  25267632.219 4      -862.907 4   -439026.095 4  -1818005.12345  25267624.22745
        38.000          15.500  
  21906589.547 6     -2144.383 6   7062289.011 6   5509690.76648  21906579.85548
        46.000          34.500  
  25830698.39111     -2585.00011    417700.12211                
        29.500  
  23927867.430 5      3220.953 5  -7182373.211 5  -6975150.52446  23927858.61746
        39.250          21.250  
  22760314.930 6     -2556.552 6   8344852.946 6   6505743.98347  22760304.94547
        45.500          32.250  
  25238208.352 5      2824.243 5  -2600296.084 5  -3407409.96746  25238196.72746
        41.250          20.000  
  21562817.492 7       879.660 7  -9662649.895 7  -7498142.79048  21562809.79348
        49.250          36.750  
  24051814.516 5      1010.904 5  -4116410.789 5  -3187111.22746  24051809.86346
        41.750          24.250  
  25685252.586 5      3156.568 5   -603283.013 5   -442626.56046  25685250.74646
        40.500          22.000  
  20536478.844 7      1080.618 7 -10965299.247 7  -8490725.91549  20536469.15249
        50.750          42.750  
 11  3 22 20 50 30.0000000  0 11G11G12G14G19G20G22G23G24G25G30G31   
  22159429.148 6      -623.893 6  -3774782.745 6  -2910431.00348  22159419.69148
        47.500          34.000  
  25270119.461 3      -871.726 3   -425950.203 3  -1807816.11745  25270111.11745
        36.750          15.500  
  21912717.398 6     -2146.848 6   7094491.734 6   5534783.78948  21912708.11748
        46.250          34.250  
  25838070.40612         0.00012    456463.32012   -957979.30756  25838070.32456
        34.500          22.000  
  23918675.578 4      3220.040 4  -7230673.804 4  -7012787.30946  23918667.76246
        38.750          21.500  
  22767624.672 6     -2560.767 6   8383264.455 6   6535674.99947  22767614.45347
        46.250          32.000  
  25230149.367 5      2822.838 5  -2642638.659 5  -3440404.11846  25230139.09046
        40.000          21.000  
  21560333.305 7       870.297 7  -9675704.349 7  -7508315.09848  21560325.66448
        48.750          37.000  
  24048952.258 5      1002.890 5  -4131454.136 5  -3198833.31246  24048947.13746
        42.000          23.000  
  25676234.055 5      3159.740 5   -650679.119 5   -479558.57746  25676231.21946
        40.500          22.500  
  20533422.656 7      1070.764 7 -10981360.710 7  -8503241.33249  20533413.08249
        49.750          42.750  
 11  3 22 20 50 45.0000000  0 11G11G12G14G19G20G22G23G24G25G30G31   
  22161234.984 7      -632.631 7  -3765293.274 7  -2903036.62048  22161225.58648
        49.000          33.750  
  25272633.289 4      -880.221 4   -412746.889 4  -1797527.72045  25272623.42245
        37.500          14.750  
  21918851.797 6     -2148.979 6   7126726.419 6   5559901.71448  21918842.39848
        47.250          34.000  
  25845443.828 4     -2581.923 4    495192.160 4   -927801.04046  25845439.99646
        37.750          25.750  
  23909486.094 4      3219.420 4  -7278965.103 4  -7050416.84146  23909477.86746
        38.750          21.500  
  22774944.797 6     -2564.643 6   8421734.099 6   6565651.31547  22774934.34447
        47.000          31.750  
  25222093.906 5      2821.753 5  -2684964.952 5  -3473385.59446  25222084.97746
        39.250          21.250  
  21557874.969 7       861.247 7  -9688623.048 7  -7518381.61848  21557867.56348
        49.750          36.500  
  24046111.609 5       995.173 5  -4146381.729 5  -3210465.19646  24046106.31346
        41.250          24.500  
  25667204.953 5      3163.220 5   -698127.419 5   -516531.23846  25667202.17646
        40.250          22.000  
  20530393.375 7      1061.221 7 -10997279.032 7  -8515645.20249  20530383.62549
        50.000          43.000  
 11  3 22 20 51  0.0000000  0 11G11G12G14G19G20G22G23G24G25G30G31   
  22163065.922 7      -641.424 7  -3755671.913 7  -2895539.46248  22163056.64148
        48.500          34.000  
  25275168.414 3      -888.772 3   -399415.309 3  -1787139.44045  25275161.18445
        36.000          14.750  
  21924991.539 6     -2151.166 6   7158993.901 6   5585045.18648  21924982.25848
        47.500          34.000  
  25852809.078 5     -2579.682 5    533887.392 5   -897648.96947  25852803.72347
        42.000          27.500  
  23900299.047 5      3218.732 5  -7327246.081 5  -7088038.32546  23900290.05946
        39.250          21.500  
  22782276.664 6     -2568.575 6   8460262.719 6   6595673.57747  22782266.56347
        47.000          32.000  
  25214043.188 5      2820.605 5  -2727274.033 5  -3506353.58946  25214034.08246
        40.750          21.250  
  21555442.539 7       852.128 7  -9701404.974 7  -7528341.56348  21555435.01648
        49.500          36.500  
  24043293.578 6       987.384 6  -4161192.482 6  -3222006.01646  24043288.04746
        43.250          26.250  
  25658167.688 5      3166.612 5   -745626.604 5   -553543.57846  25658163.85546
        42.250          22.500  
  20527391.680 7      1051.609 7 -11013053.169 7  -8527936.72949  20527382.04749
        48.250          43.000  
 11  3 22 20 51 15.0000000  0 11G11G12G14G19G20G22G23G24G25G30G31   
  22164921.953 7      -650.225 7  -3745918.532 7  -2887939.44048  22164912.78948
        48.250          34.000  
  25277731.578 4      -897.343 4   -385955.162 4  -1776651.03345  25277722.59045
        38.250          15.500  
  21931138.258 6     -2153.358 6   7191294.267 6   5610214.28947  21931129.15247
        47.250          33.500  
  25860165.875 6     -2577.442 6    572549.015 6   -867523.02747  25860160.57847
        43.000          29.000  
  23891113.445 5      3218.013 5  -7375516.274 5  -7125651.41646  23891104.51646
        40.500          21.500  
  22789619.859 6     -2572.529 6   8498850.660 6   6625742.07147  22789609.17247
        46.500          31.750  
  25205996.047 5      2819.435 5  -2769565.551 5  -3539307.92846  25205985.88746
        40.250          20.500  
  21553036.352 7       842.986 7  -9714049.763 7  -7538194.64348  21553028.77048
        49.250          37.000  
  24040497.609 6       979.559 6  -4175885.868 6  -3233455.39746  24040492.37146
        43.000          25.500  
  25649118.547 5      3169.972 5   -793176.191 5   -590595.23246  25649115.41846
        40.750          23.000  
  20524417.391 7      1041.973 7 -11028682.765 7  -8540115.61649  20524407.87549
        50.250          43.000  
 11  3 22 20 51 30.0000000  0 11G11G12G14G19G20G22G23G24G25G30G31   
  22166802.969 7      -659.044 7  -3736032.878 7  -2880236.33148  22166793.80548
        49.000          34.000  
  25280316.195 2      -905.943 2   -372366.016 2  -1766062.02845  25280308.26245
        35.500          14.750  
  21937291.820 6     -2155.578 6   7223627.941 6   5635409.34648  21937282.01248
        47.000          34.000  
  25867514.102 5     -2575.203 5    611177.056 5   -837423.28047  25867510.91447
        41.000          26.500  
  23881929.352 5      3217.249 5  -7423775.005 5  -7163255.58546  23881921.12546
        39.500          21.500  
  22796974.422 6     -2576.507 6   8537498.269 6   6655857.05847  22796963.67647
        47.500          32.000  
  25197951.977 4      2818.237 4  -2811839.113 4  -3572248.30346  25197940.93846
        37.500          19.500  
  21550656.602 7       833.804 7  -9726556.818 7  -7547940.39948  21550648.25848
        49.500          38.000  
  24037723.375 6       971.688 6  -4190461.187 6  -3244812.77446  24037718.78146
        42.750          25.000  
  25640060.305 5      3173.284 5   -840775.457 5   -627685.54946  25640057.46946
        41.500          22.500  
  20521470.781 7      1032.301 7 -11044167.282 7  -8552181.46549  20521461.09049
        48.500          42.750  
 11  3 22 20 51 45.0000000  0 11G11G12G14G19G20G22G23G24G25G30G31   
  22168709.492 7      -667.879 7  -3726014.695 7  -2872429.96548  22168700.27048
        48.250          33.750  
  25282927.750 3      -914.555 3   -358647.685 3  -1755372.39545  25282918.41045
        37.000          15.500  
  21943450.586 6     -2157.804 6   7255995.004 6   5660630.42348  21943440.71948
        46.500          33.750  
  25874858.914 6     -2572.967 6    649771.560 6   -807349.74447  25874856.02047
        43.500          30.000  
  23872748.758 5      3216.454 5  -7472021.820 5  -7200850.46146  23872739.94546
        40.000          22.000  
  22804339.914 6     -2580.501 6   8576205.790 6   6686018.74547  22804330.16447
        47.250          32.500  
  25189909.313 4      2817.011 4  -2854094.273 4  -3605174.36846  25189900.67646
        37.500          20.250  
  21548302.773 7       824.591 7  -9738925.680 7  -7557578.48348  21548294.89848
        49.000          37.500  
  24034972.789 6       963.780 6  -4204917.884 6  -3256077.72546  24034967.37546
        43.000          25.500  
  25630992.070 5      3176.557 5   -888423.807 5   -664814.15046  25630989.99646
        41.000          22.250  
  20518551.875 7      1022.608 7 -11059506.404 7  -8564134.01349  20518541.94949
        49.750          43.250  
 11  3 22 20 52  0.0000000  0 11G11G12G14G19G20G22G23G24G25G30G31   
  22170640.992 7      -676.659 7  -3715864.804 7  -2864520.96748  22170632.35548
        49.000          34.000  
  25285560.977 2      -923.120 2   -344800.892 2  -1744582.71945  25285553.86345
        34.750          16.750  
  21949615.648 6     -2159.986 6   7288394.791 6   5685876.99547  21949606.71947
        45.750          33.500  
  25882198.477 6     -2570.657 6    688331.410 6   -777303.13747  25882193.23847
        45.250          28.500  
  23863569.688 5      3215.689 5  -7520257.157 5  -7238436.36446  23863560.99246
        40.000          21.500  
  22811717.125 6     -2584.442 6   8614972.421 6   6716226.47747  22811706.20347
        47.250          31.750  
  25181872.258 4      2815.823 4  -2896331.623 4  -3638086.51246  25181863.21146
        38.250          19.250  
  21545975.508 7       815.411 7  -9751156.850 7  -7567109.26748  21545967.57448
        48.500          37.000  
  24032243.930 6       955.901 6  -4219256.404 6  -3267250.57246  24032238.86746
        43.000          25.250  
  25621915.406 5      3179.844 5   -936121.463 5   -701981.18246  25621913.15646
        40.250          23.000  
  20515660.469 7      1012.947 7 -11074700.606 7  -8575973.63249  20515650.66049
        49.750          42.750  
 11  3 22 20 52 15.0000000  0 11G11G12G14G19G20G22G23G24G25G30G31   
  22172597.469 7      -685.382 7  -3705584.078 7  -2856510.01848  22172588.59848
        48.750          34.000  
  25288220.758 2      -931.632 2   -330826.408 2  -1733693.40545  25288212.94145
        35.500          16.750  
  21955787.500 6     -2162.110 6   7320826.433 6   5711148.38548  21955777.98448
        45.500          34.000  
  25889528.320 4     -2568.299 4    726855.891 4   -747284.05046  25889524.48846
        39.000          21.750  
  23854392.297 5      3214.960 5  -7568481.563 5  -7276013.79246  23854384.48046
        40.000          22.500  
  22819105.164 6     -2588.344 6   8653797.574 6   6746479.81747  22819094.77047
        47.000          31.500  
  25173839.789 4      2814.685 4  -2938551.903 4  -3670985.37745  25173828.45745
        37.500          18.250  
  21543674.008 7       806.268 7  -9763250.875 7  -7576533.18148  21543666.25048
        48.250          37.750  
  24029537.578 6       948.050 6  -4233477.156 6  -3278331.67046  24029532.86746
        43.000          24.750  
  25612829.656 5      3183.167 5   -983868.971 5   -739187.08646  25612827.75846
        40.000          22.500  
  20512796.586 7      1003.330 7 -11089750.553 7  -8587700.85449  20512786.42649
        50.250          43.250  
 11  3 22 20 52 30.0000000  0 11G11G12G14G19G20G22G23G24G25G30G31   
  22174578.992 7      -694.143 7  -3695171.927 7  -2848396.66248  22174569.65248
        48.750          34.000  
  25290904.031 3      -940.198 3   -316723.434 3  -1722704.09145  25290897.27045
        35.750          13.750  
  21961965.281 6     -2164.268 6   7353290.455 6   5736445.00948  21961956.11748
        46.000          34.000  
  25896851.898 1     -2565.957 1    765345.249 1   -717292.37245  25896847.89145
        30.500          16.750  
  23845218.008 5      3214.173 5  -7616694.154 5  -7313582.01546  23845210.30946
        40.000          22.500  
  22826504.367 6     -2592.279 6   8692681.762 6   6776779.15047  22826494.20747
        47.000          31.250  
  25165810.422 3      2813.498 3  -2980754.375 3  -3703870.33746  25165798.03546
        37.000          20.000  
  21541398.750 7       797.076 7  -9775207.015 7  -7585849.65848  21541390.81648
        48.500          37.250  
  24026854.180 6       940.140 6  -4247579.253 6  -3289320.31647  24026849.46947
        44.000          27.000  
  25603735.672 5      3186.421 5  -1031665.284 5   -776430.99146  25603732.83646
        40.750          22.500  
  20509960.094 7       993.663 7 -11104655.494 7  -8599315.08049  20509950.46149
        50.000          43.000  
 11  3 22 20 52 45.0000000  0 11G11G12G14G19G20G22G23G24G25G30G31   
  22176584.742 7      -702.860 7  -3684629.024 7  -2840181.43248  22176575.75448
        48.750          34.500  
  25293612.914 3      -948.715 3   -302492.703 3  -1711615.13245  25293604.68845
        36.500          15.500  
  21968148.703 6     -2166.391 6   7385786.327 6   5761766.45848  21968139.71548
        45.000          34.000  
  25904169.781 1     -2563.585 1    803799.024 1   -687328.55645  25904166.18445
        28.000          13.750  
  23836046.391 5      3213.399 5  -7664895.137 5  -7351141.16046  23836037.22746
        40.250          22.500  
  22833915.430 6     -2596.185 6   8731624.535 6   6807124.13147  22833905.15247
        46.750          32.000  
  25157778.727 3      2812.322 3  -3022939.207 3  -3736741.48046  25157769.91446
        36.500          19.000  
  21539149.742 7       787.905 7  -9787025.594 7  -7595058.93648  21539141.75048
        48.500          37.000  
  24024192.828 6       932.243 6  -4261562.898 6  -3300216.66946  24024187.88346
        43.000          24.500  
  25594629.828 5      3189.680 5  -1079510.484 5   -813712.99746  25594627.52046
        41.750          24.250  
  20507151.461 7       984.020 7 -11119415.793 7  -8610816.60349  20507141.59449
        50.750          42.500  
 11  3 22 20 53  0.0000000  0 11G11G12G14G19G20G22G23G24G25G30G31   
  22178616.414 7      -711.621 7  -3673954.705 7  -2831863.79048  22178607.01648
        48.750          34.000  
  25296345.414 3      -957.297 3   -288133.243 3  -1700425.95045  25296336.83645
        36.000          16.250  
  21974338.680 6     -2168.572 6   7418314.904 6   5787113.38147  21974329.57447
        45.000          33.500  
  25911480.94511     -2559.71911                                
        24.500  
  23826875.719 5      3212.545 5  -7713083.310 5  -7388690.33746  23826867.19946
        40.250          22.250  
  22841337.195 6     -2600.150 6   8770626.782 6   6837515.45447  22841327.15247
        46.500          31.500  
  25149755.133 2      2811.093 2  -3065105.600 2  -3769598.37146  25149745.96946
        35.000          20.000  
  21536927.086 7       778.657 7  -9798705.444 7  -7604160.11948  21536919.21148
        48.000          36.750  
  24021555.211 6       924.264 6  -4275426.853 6  -3311019.75546  24021550.03146
        42.500          25.250  
  25585517.016 5      3192.856 5  -1127403.331 5   -851032.12546  25585513.94546
        39.500          22.750  
  20504370.352 7       974.306 7 -11134030.379 7  -8622204.57849  20504360.42649
        50.000          43.250  
